[{"Location":"Bogstadveien 53B, Oslo","ad_id":260516701,"ad_link":"https://www.finn.no/realestate/homes/ad.html?finnkode=260516701","ad_type":1,"energy_label":7,"from_year":1931,"lat":59.9294,"local_area_name":"Perfekt førstegangskjøp / utleieobjekt","lon":10.7144,"number_of_bedrooms":1,"owner_type_description":"Eier (Selveier)","property_type_description":"Leilighet","size_from":45,"to_year":1931,"type":"realestate"},{"Location":"Stensgata 36C, Oslo","ad_id":260643445,"ad_link":"https://www.finn.no/realestate/homes/ad.html?finnkode=260643445","ad_type":1,"energy_label":7,"from_year":1931,"lat":59.9327,"local_area_name":"ADAMSTUEN","lon":10.7327,"number_of_bedrooms":2,"owner_type_description":"Eier (Selveier)","property_type_description":"Leilighet","size_from":102,"to_year":1931,"type":"realestate"},{"Location":"Bjørndalen 28B, Bergen","ad_id":260487366,"ad_link":"https://www.finn.no/realestate/homes/ad.html?finnkode=260487366","ad_type":1,"energy_label":7,"from_year":1931,"lat":60.3825,"local_area_name":"Svartediket","lon":5.36589,"number_of_bedrooms":8,"owner_type_description":"Eier (Selveier)","property_type_description":"Tomannsbolig","size_from":181,"to_year":1931,"type":"realestate"},{"Location":"Dælenenggata 19, Oslo","ad_id":260062456,"ad_link":"https://www.finn.no/realestate/homes/ad.html?finnkode=260062456","ad_type":1,"energy_label":7,"from_year":1931,"lat":59.9268,"local_area_name":"Rodeløkka;","lon":10.7722,"number_of_bedrooms":1,"owner_type_description":"Aksje","property_type_description":"Leilighet","size_from":56,"to_year":1931,"type":"realestate"},{"Location":"Aschehougs gate 16, Horten","ad_id":260351023,"ad_link":"https://www.finn.no/realestate/homes/ad.html?finnkode=260351023","ad_type":1,"energy_label":7,"from_year":1931,"lat":59.4203,"local_area_name":null,"lon":10.46866,"number_of_bedrooms":4,"owner_type_description":"Eier (Selveier)","property_type_description":"Enebolig","size_from":235,"to_year":1931,"type":"realestate"},{"Location":"Hans Hansens vei 76, Drammen","ad_id":259619821,"ad_link":"https://www.finn.no/realestate/homes/ad.html?finnkode=259619821","ad_type":1,"energy_label":7,"from_year":1931,"lat":59.7524,"local_area_name":"Bragernesåsen","lon":10.1792,"number_of_bedrooms":4,"owner_type_description":"Eier (Selveier)","property_type_description":"Enebolig","size_from":130,"to_year":1931,"type":"realestate"},{"Location":"Parkveien 13, Oslo","ad_id":260236409,"ad_link":"https://www.finn.no/realestate/homes/ad.html?finnkode=260236409","ad_type":1,"energy_label":7,"from_year":1931,"lat":59.92178,"local_area_name":"Majorstuen/ rett ved Slottsparken","lon":10.73035,"number_of_bedrooms":0,"owner_type_description":"Eier (Selveier)","property_type_description":"Leilighet","size_from":27,"to_year":1931,"type":"realestate"},{"Location":"St Olavs gate 10, Harstad","ad_id":256509936,"ad_link":"https://www.finn.no/realestate/homes/ad.html?finnkode=256509936","ad_type":1,"energy_label":7,"from_year":1931,"lat":68.80509,"local_area_name":null,"lon":16.54105,"number_of_bedrooms":5,"owner_type_description":"Eier (Selveier)","property_type_description":"Tomannsbolig","size_from":188,"to_year":1931,"type":"realestate"},{"Location":"Munins gate 5, Haugesund","ad_id":258198723,"ad_link":"https://www.finn.no/realestate/homes/ad.html?finnkode=258198723","ad_type":1,"energy_label":7,"from_year":1931,"lat":59.4032,"local_area_name":"Rossabø","lon":5.2966,"number_of_bedrooms":0,"owner_type_description":"Eier (Selveier)","property_type_description":"Enebolig","size_from":121,"to_year":1931,"type":"realestate"},{"Location":"Sognsveien 62, Oslo","ad_id":258221301,"ad_link":"https://www.finn.no/realestate/homes/ad.html?finnkode=258221301","ad_type":1,"energy_label":7,"from_year":1931,"lat":59.94636,"local_area_name":"ULLEVÅL","lon":10.73235,"number_of_bedrooms":2,"owner_type_description":"Eier (Selveier)","property_type_description":"Tomannsbolig","size_from":126,"to_year":1931,"type":"realestate"},{"Location":"Porsahagen 4, Sandnes","ad_id":229426863,"ad_link":"https://www.finn.no/realestate/homes/ad.html?finnkode=229426863","ad_type":1,"energy_label":7,"from_year":1931,"lat":58.85321,"local_area_name":null,"lon":5.72711,"number_of_bedrooms":3,"owner_type_description":"Eier (Selveier)","property_type_description":"Enebolig","size_from":87,"to_year":1931,"type":"realestate"},{"Location":"Alfons Johansens vei 2, Harstad","ad_id":194080166,"ad_link":"https://www.finn.no/realestate/homes/ad.html?finnkode=194080166","ad_type":1,"energy_label":7,"from_year":1931,"lat":68.79476,"local_area_name":"Seljestad","lon":16.53345,"number_of_bedrooms":3,"owner_type_description":"Eier (Selveier)","property_type_description":"Enebolig","size_from":155,"to_year":1931,"type":"realestate"}]