[{"Location":"Fossegrenda 29A, Trondheim","ad_id":261435869,"ad_link":"https://www.finn.no/realestate/homes/ad.html?finnkode=261435869","ad_type":1,"energy_label":4,"from_year":1977,"lat":63.3887,"local_area_name":"FOSSEGRENDA","lon":10.4127,"number_of_bedrooms":1,"owner_type_description":"Eier (Selveier)","property_type_description":"Leilighet","size_from":55,"to_year":1977,"type":"realestate"},{"Location":"Vækerøveien 118D, Oslo","ad_id":260789821,"ad_link":"https://www.finn.no/realestate/homes/ad.html?finnkode=260789821","ad_type":1,"energy_label":4,"from_year":1977,"lat":59.9348,"local_area_name":"Ullern/Lysejordet","lon":10.6382,"number_of_bedrooms":1,"owner_type_description":"Andel","property_type_description":"Leilighet","size_from":56,"to_year":1977,"type":"realestate"},{"Location":"Lillehauger 5, Kolsås","ad_id":260038248,"ad_link":"https://www.finn.no/realestate/homes/ad.html?finnkode=260038248","ad_type":1,"energy_label":4,"from_year":1977,"lat":59.9155,"local_area_name":null,"lon":10.5078,"number_of_bedrooms":1,"owner_type_description":"Eier (Selveier)","property_type_description":"Leilighet","size_from":58,"to_year":1977,"type":"realestate"},{"Location":"Kaldestadvegen 196, Sunde i Sunnhordland","ad_id":260398714,"ad_link":"https://www.finn.no/realestate/homes/ad.html?finnkode=260398714","ad_type":1,"energy_label":4,"from_year":1977,"lat":59.8546,"local_area_name":"Sunde i Sunnhordland","lon":5.7167,"number_of_bedrooms":4,"owner_type_description":"Eier (Selveier)","property_type_description":"Enebolig","size_from":172,"to_year":1977,"type":"realestate"},{"Location":"Tiurveien 3, Råde","ad_id":259624772,"ad_link":"https://www.finn.no/realestate/homes/ad.html?finnkode=259624772","ad_type":1,"energy_label":4,"from_year":1977,"lat":59.3517,"local_area_name":"Råde","lon":10.8578,"number_of_bedrooms":3,"owner_type_description":"Eier (Selveier)","property_type_description":"Enebolig","size_from":230,"to_year":1977,"type":"realestate"},{"Location":"Strandstykket 32, Elverum","ad_id":260008963,"ad_link":"https://www.finn.no/realestate/homes/ad.html?finnkode=260008963","ad_type":1,"energy_label":4,"from_year":1977,"lat":60.90747,"local_area_name":"SØBAKKEN","lon":11.55668,"number_of_bedrooms":4,"owner_type_description":"Andel","property_type_description":"Leilighet","size_from":152,"to_year":1977,"type":"realestate"},{"Location":"Allergotvegen 10A, Jessheim","ad_id":256408766,"ad_link":"https://www.finn.no/realestate/homes/ad.html?finnkode=256408766","ad_type":1,"energy_label":4,"from_year":1977,"lat":60.13737,"local_area_name":"Jessheim","lon":11.17713,"number_of_bedrooms":7,"owner_type_description":"Eier (Selveier)","property_type_description":"Enebolig","size_from":274,"to_year":1977,"type":"realestate"}]