[{"Location":"Vanylvsvegen 1144, Fiskå","ad_id":261340328,"ad_link":"https://www.finn.no/realestate/homes/ad.html?finnkode=261340328","ad_type":1,"energy_label":7,"from_year":1987,"lat":62.098,"local_area_name":"FISKÅ","lon":5.595,"number_of_bedrooms":4,"owner_type_description":"Eier (Selveier)","property_type_description":"Enebolig","size_from":178,"to_year":1987,"type":"realestate"},{"Location":"Marcus Thranes gate 5, Gjøvik","ad_id":261324095,"ad_link":"https://www.finn.no/realestate/homes/ad.html?finnkode=261324095","ad_type":1,"energy_label":7,"from_year":1987,"lat":60.79909,"local_area_name":null,"lon":10.68576,"number_of_bedrooms":2,"owner_type_description":"Eier (Selveier)","property_type_description":"Leilighet","size_from":88,"to_year":1987,"type":"realestate"},{"Location":"Herregårdsveien 115B, Oslo","ad_id":258617331,"ad_link":"https://www.finn.no/realestate/homes/ad.html?finnkode=258617331","ad_type":1,"energy_label":7,"from_year":1987,"lat":59.84323,"local_area_name":"Ljan / Nordstrand","lon":10.77654,"number_of_bedrooms":1,"owner_type_description":"Andel","property_type_description":"Leilighet","size_from":51,"to_year":1987,"type":"realestate"},{"Location":"Furulundtoppen 21, Oslo","ad_id":257295350,"ad_link":"https://www.finn.no/realestate/homes/ad.html?finnkode=257295350","ad_type":1,"energy_label":7,"from_year":1987,"lat":59.9241,"local_area_name":"Ullern/Furulundtoppen","lon":10.6471,"number_of_bedrooms":2,"owner_type_description":"Eier (Selveier)","property_type_description":"Leilighet","size_from":136,"to_year":1987,"type":"realestate"},{"Location":"Abraham Berges vei 46A, Vanse","ad_id":260514516,"ad_link":"https://www.finn.no/realestate/homes/ad.html?finnkode=260514516","ad_type":1,"energy_label":7,"from_year":1987,"lat":58.1004,"local_area_name":null,"lon":6.69778,"number_of_bedrooms":2,"owner_type_description":"Eier (Selveier)","property_type_description":"Leilighet","size_from":93,"to_year":1987,"type":"realestate"},{"Location":"Livveien 26, Hønefoss","ad_id":260022312,"ad_link":"https://www.finn.no/realestate/homes/ad.html?finnkode=260022312","ad_type":1,"energy_label":7,"from_year":1987,"lat":60.17133,"local_area_name":"VESTERNTANGEN/LIVMARKA","lon":10.2762,"number_of_bedrooms":3,"owner_type_description":"Eier (Selveier)","property_type_description":"Enebolig","size_from":180,"to_year":1987,"type":"realestate"},{"Location":"Tollbugata 65, Drammen","ad_id":255552434,"ad_link":"https://www.finn.no/realestate/homes/ad.html?finnkode=255552434","ad_type":1,"energy_label":7,"from_year":1987,"lat":59.7353,"local_area_name":"Gyldenløve brygge","lon":10.2149,"number_of_bedrooms":3,"owner_type_description":"Eier (Selveier)","property_type_description":"Leilighet","size_from":125,"to_year":1987,"type":"realestate"},{"Location":"Rishaugveien 14, Bø i Vesterålen","ad_id":256139552,"ad_link":"https://www.finn.no/realestate/homes/ad.html?finnkode=256139552","ad_type":1,"energy_label":7,"from_year":1987,"lat":68.6207,"local_area_name":null,"lon":14.46996,"number_of_bedrooms":2,"owner_type_description":"Eier (Selveier)","property_type_description":"Tomannsbolig","size_from":106,"to_year":1987,"type":"realestate"}]