[{"Location":"Bråtengrenda 107, Ytre Enebakk","ad_id":261446386,"ad_link":"https://www.finn.no/realestate/homes/ad.html?finnkode=261446386","ad_type":1,"energy_label":2,"from_year":2018,"lat":59.7271,"local_area_name":null,"lon":11.0608,"number_of_bedrooms":3,"owner_type_description":"Eier (Selveier)","property_type_description":"Tomannsbolig","size_from":96,"to_year":2018,"type":"realestate"},{"Location":"Hovstien 4, Ellingsøy","ad_id":261472397,"ad_link":"https://www.finn.no/realestate/homes/ad.html?finnkode=261472397","ad_type":1,"energy_label":2,"from_year":2018,"lat":62.4987,"local_area_name":"ELLINGSØY","lon":6.2159,"number_of_bedrooms":2,"owner_type_description":"Eier (Selveier)","property_type_description":"Leilighet","size_from":92,"to_year":2018,"type":"realestate"},{"Location":"Sokkabekkveien 79, Nærsnes","ad_id":261429335,"ad_link":"https://www.finn.no/realestate/homes/ad.html?finnkode=261429335","ad_type":1,"energy_label":2,"from_year":2018,"lat":59.7517,"local_area_name":"SJELDEN MULIGHET I ASKER","lon":10.50148,"number_of_bedrooms":7,"owner_type_description":"Eier (Selveier)","property_type_description":"Enebolig","size_from":337,"to_year":2018,"type":"realestate"},{"Location":"Bjørnenga 54, Fornebu","ad_id":261393650,"ad_link":"https://www.finn.no/realestate/homes/ad.html?finnkode=261393650","ad_type":1,"energy_label":2,"from_year":2018,"lat":59.89184,"local_area_name":"FORNEBU / STORØYA","lon":10.60852,"number_of_bedrooms":3,"owner_type_description":"Eier (Selveier)","property_type_description":"Leilighet","size_from":90,"to_year":2018,"type":"realestate"},{"Location":"Griniveien 8, Spydeberg","ad_id":250755086,"ad_link":"https://www.finn.no/realestate/homes/ad.html?finnkode=250755086","ad_type":1,"energy_label":2,"from_year":2018,"lat":59.61825,"local_area_name":"SPYDEBERG PARK","lon":11.08057,"number_of_bedrooms":2,"owner_type_description":"Eier (Selveier)","property_type_description":"Leilighet","size_from":82,"to_year":2018,"type":"realestate"},{"Location":"CECILIE THORESENS VEI 12, Oslo","ad_id":261350065,"ad_link":"https://www.finn.no/realestate/homes/ad.html?finnkode=261350065","ad_type":1,"energy_label":2,"from_year":2018,"lat":59.87574,"local_area_name":"LAMBERTSETER / SYMRA TERRASSE","lon":10.81133,"number_of_bedrooms":2,"owner_type_description":"Andel","property_type_description":"Leilighet","size_from":69,"to_year":2018,"type":"realestate"},{"Location":"Haugbro terrasse 168, Langhus","ad_id":261258316,"ad_link":"https://www.finn.no/realestate/homes/ad.html?finnkode=261258316","ad_type":1,"energy_label":2,"from_year":2018,"lat":59.75561,"local_area_name":"LANGHUS MED MARKA SOM NABO","lon":10.8183,"number_of_bedrooms":1,"owner_type_description":"Eier (Selveier)","property_type_description":"Leilighet","size_from":47,"to_year":2018,"type":"realestate"},{"Location":"Niels Høeghs vei 14A, Strømmen","ad_id":261241513,"ad_link":"https://www.finn.no/realestate/homes/ad.html?finnkode=261241513","ad_type":1,"energy_label":2,"from_year":2018,"lat":59.95275,"local_area_name":"Strømmen","lon":11.00409,"number_of_bedrooms":5,"owner_type_description":"Eier (Selveier)","property_type_description":"Enebolig","size_from":190,"to_year":2018,"type":"realestate"},{"Location":"Johan Arnt Høiseths veg 29, Heimdal","ad_id":252703885,"ad_link":"https://www.finn.no/realestate/homes/ad.html?finnkode=252703885","ad_type":1,"energy_label":2,"from_year":2018,"lat":63.34785,"local_area_name":"Lund Østre/Heimdal","lon":10.32375,"number_of_bedrooms":3,"owner_type_description":"Eier (Selveier)","property_type_description":"Rekkehus","size_from":92,"to_year":2018,"type":"realestate"},{"Location":"Ødegårds vei 31, Lørenskog","ad_id":260909210,"ad_link":"https://www.finn.no/realestate/homes/ad.html?finnkode=260909210","ad_type":1,"energy_label":2,"from_year":2018,"lat":59.9448,"local_area_name":"Lørenskog Stasjonsby","lon":10.9533,"number_of_bedrooms":1,"owner_type_description":"Eier (Selveier)","property_type_description":"Leilighet","size_from":42,"to_year":2018,"type":"realestate"},{"Location":"Sigurd Hoels vei 118, Oslo","ad_id":261024286,"ad_link":"https://www.finn.no/realestate/homes/ad.html?finnkode=261024286","ad_type":1,"energy_label":2,"from_year":2018,"lat":59.919,"local_area_name":"Ensjø / Tiedemannsfabrikken","lon":10.7891,"number_of_bedrooms":1,"owner_type_description":"Eier (Selveier)","property_type_description":"Leilighet","size_from":53,"to_year":2018,"type":"realestate"},{"Location":"Innspurten 8A, Oslo","ad_id":261024721,"ad_link":"https://www.finn.no/realestate/homes/ad.html?finnkode=261024721","ad_type":1,"energy_label":2,"from_year":2018,"lat":59.91725,"local_area_name":"#VALLE HOVIN / HOVINENGA","lon":10.80282,"number_of_bedrooms":2,"owner_type_description":"Eier (Selveier)","property_type_description":"Leilighet","size_from":61,"to_year":2018,"type":"realestate"},{"Location":"Dalsida 9 B, Ålesund","ad_id":261024207,"ad_link":"https://www.finn.no/realestate/homes/ad.html?finnkode=261024207","ad_type":1,"energy_label":2,"from_year":2018,"lat":62.46749,"local_area_name":"Lerstadbakken","lon":6.28569,"number_of_bedrooms":2,"owner_type_description":"Eier (Selveier)","property_type_description":"Leilighet","size_from":77,"to_year":2018,"type":"realestate"},{"Location":"Tomasjordvegen 160 A, Tomasjord","ad_id":260919955,"ad_link":"https://www.finn.no/realestate/homes/ad.html?finnkode=260919955","ad_type":1,"energy_label":2,"from_year":2018,"lat":69.66777,"local_area_name":"Tomasjord","lon":19.03024,"number_of_bedrooms":5,"owner_type_description":"Eier (Selveier)","property_type_description":"Tomannsbolig","size_from":119,"to_year":2018,"type":"realestate"},{"Location":"Breidablikk 109, Leknes","ad_id":260950107,"ad_link":"https://www.finn.no/realestate/homes/ad.html?finnkode=260950107","ad_type":1,"energy_label":2,"from_year":2018,"lat":68.13641,"local_area_name":"Leknes","lon":13.59699,"number_of_bedrooms":3,"owner_type_description":"Eier (Selveier)","property_type_description":"Tomannsbolig","size_from":93,"to_year":2018,"type":"realestate"},{"Location":"Opsalvegen 34, Fjerdingby","ad_id":260950716,"ad_link":"https://www.finn.no/realestate/homes/ad.html?finnkode=260950716","ad_type":1,"energy_label":2,"from_year":2018,"lat":59.90223,"local_area_name":"Fjerdingby","lon":11.09223,"number_of_bedrooms":4,"owner_type_description":"Eier (Selveier)","property_type_description":"Enebolig","size_from":167,"to_year":2018,"type":"realestate"},{"Location":"Ringduevegen 17A, Maura","ad_id":260812819,"ad_link":"https://www.finn.no/realestate/homes/ad.html?finnkode=260812819","ad_type":1,"energy_label":2,"from_year":2018,"lat":60.255,"local_area_name":"Maura","lon":11.0284,"number_of_bedrooms":1,"owner_type_description":"Eier (Selveier)","property_type_description":"Leilighet","size_from":51,"to_year":2018,"type":"realestate"},{"Location":"Ringvegen 12, Jessheim","ad_id":239587621,"ad_link":"https://www.finn.no/realestate/homes/ad.html?finnkode=239587621","ad_type":1,"energy_label":2,"from_year":2018,"lat":60.14533,"local_area_name":"Jessheim sentrum.","lon":11.17571,"number_of_bedrooms":2,"owner_type_description":"Eier (Selveier)","property_type_description":"Leilighet","size_from":81,"to_year":2018,"type":"realestate"},{"Location":"Lille Almerudvegen 10B, Brumunddal","ad_id":260882262,"ad_link":"https://www.finn.no/realestate/homes/ad.html?finnkode=260882262","ad_type":1,"energy_label":2,"from_year":2018,"lat":60.8903,"local_area_name":null,"lon":10.968,"number_of_bedrooms":3,"owner_type_description":"Eier (Selveier)","property_type_description":"Tomannsbolig","size_from":122,"to_year":2018,"type":"realestate"},{"Location":"Heggedalsveien 315 A, Heggedal","ad_id":260913181,"ad_link":"https://www.finn.no/realestate/homes/ad.html?finnkode=260913181","ad_type":1,"energy_label":2,"from_year":2018,"lat":59.78609,"local_area_name":"Asker / Heggedal","lon":10.44032,"number_of_bedrooms":5,"owner_type_description":"Eier (Selveier)","property_type_description":"Tomannsbolig","size_from":253,"to_year":2018,"type":"realestate"},{"Location":"Lørenveien 59A, Oslo","ad_id":260529027,"ad_link":"https://www.finn.no/realestate/homes/ad.html?finnkode=260529027","ad_type":1,"energy_label":2,"from_year":2018,"lat":59.9291,"local_area_name":"Luftig og etterspurt på Løren;","lon":10.7971,"number_of_bedrooms":1,"owner_type_description":"Eier (Selveier)","property_type_description":"Leilighet","size_from":38,"to_year":2018,"type":"realestate"},{"Location":"Trygve Haavelmos vei 46, Kjeller","ad_id":260891722,"ad_link":"https://www.finn.no/realestate/homes/ad.html?finnkode=260891722","ad_type":1,"energy_label":2,"from_year":2018,"lat":59.979,"local_area_name":"KJELLER V/ LILLESTRØM","lon":11.03924,"number_of_bedrooms":3,"owner_type_description":"Eier (Selveier)","property_type_description":"Enebolig","size_from":120,"to_year":2018,"type":"realestate"},{"Location":"Kaldslettneset 25 B, Tromsdalen","ad_id":253368899,"ad_link":"https://www.finn.no/realestate/homes/ad.html?finnkode=253368899","ad_type":1,"energy_label":2,"from_year":2018,"lat":69.599,"local_area_name":"Kaldslettneset","lon":18.9359,"number_of_bedrooms":1,"owner_type_description":"Eier (Selveier)","property_type_description":"Leilighet","size_from":55,"to_year":2018,"type":"realestate"},{"Location":"Harstadrøet 104G, Holter","ad_id":260651268,"ad_link":"https://www.finn.no/realestate/homes/ad.html?finnkode=260651268","ad_type":1,"energy_label":2,"from_year":2018,"lat":60.1402,"local_area_name":"Holter","lon":11.0132,"number_of_bedrooms":2,"owner_type_description":"Eier (Selveier)","property_type_description":"Leilighet","size_from":62,"to_year":2018,"type":"realestate"},{"Location":"Seljeveien 4B, Holmestrand","ad_id":260698701,"ad_link":"https://www.finn.no/realestate/homes/ad.html?finnkode=260698701","ad_type":1,"energy_label":2,"from_year":2018,"lat":59.49461,"local_area_name":null,"lon":10.24736,"number_of_bedrooms":4,"owner_type_description":"Eier (Selveier)","property_type_description":"Tomannsbolig","size_from":166,"to_year":2018,"type":"realestate"},{"Location":"Martin Lillebys vei 12, Gamle Fredrikstad","ad_id":260514476,"ad_link":"https://www.finn.no/realestate/homes/ad.html?finnkode=260514476","ad_type":1,"energy_label":2,"from_year":2018,"lat":59.208,"local_area_name":"Lilleby, Gamle Fredrikstad","lon":10.9924,"number_of_bedrooms":3,"owner_type_description":"Eier (Selveier)","property_type_description":"Tomannsbolig","size_from":107,"to_year":2018,"type":"realestate"},{"Location":"Johan Arnt Høiseths veg 10, Heimdal","ad_id":260586928,"ad_link":"https://www.finn.no/realestate/homes/ad.html?finnkode=260586928","ad_type":1,"energy_label":2,"from_year":2018,"lat":63.34784,"local_area_name":"Lund Østre","lon":10.32283,"number_of_bedrooms":4,"owner_type_description":"Eier (Selveier)","property_type_description":"Rekkehus","size_from":122,"to_year":2018,"type":"realestate"},{"Location":"Steinsvikvegen 272, Rådal","ad_id":258993997,"ad_link":"https://www.finn.no/realestate/homes/ad.html?finnkode=258993997","ad_type":1,"energy_label":2,"from_year":2018,"lat":60.3012,"local_area_name":"RÅSTØLEN","lon":5.31,"number_of_bedrooms":2,"owner_type_description":"Eier (Selveier)","property_type_description":"Leilighet","size_from":49,"to_year":2018,"type":"realestate"},{"Location":"Rabben 20A, Frei","ad_id":260431904,"ad_link":"https://www.finn.no/realestate/homes/ad.html?finnkode=260431904","ad_type":1,"energy_label":2,"from_year":2018,"lat":63.0784,"local_area_name":null,"lon":7.8768,"number_of_bedrooms":3,"owner_type_description":"Eier (Selveier)","property_type_description":"Tomannsbolig","size_from":130,"to_year":2018,"type":"realestate"},{"Location":"Gislestubben 136, Kløfta","ad_id":260466571,"ad_link":"https://www.finn.no/realestate/homes/ad.html?finnkode=260466571","ad_type":1,"energy_label":2,"from_year":2018,"lat":60.06357,"local_area_name":"Kløfta","lon":11.13811,"number_of_bedrooms":3,"owner_type_description":"Eier (Selveier)","property_type_description":"Enebolig","size_from":121,"to_year":2018,"type":"realestate"},{"Location":"Sigurd Hoels vei 118, Oslo","ad_id":260462007,"ad_link":"https://www.finn.no/realestate/homes/ad.html?finnkode=260462007","ad_type":1,"energy_label":2,"from_year":2018,"lat":59.919,"local_area_name":null,"lon":10.78904,"number_of_bedrooms":2,"owner_type_description":"Eier (Selveier)","property_type_description":"Leilighet","size_from":51,"to_year":2018,"type":"realestate"},{"Location":"Odelsvegen 2, Jessheim","ad_id":260417706,"ad_link":"https://www.finn.no/realestate/homes/ad.html?finnkode=260417706","ad_type":1,"energy_label":2,"from_year":2018,"lat":60.14357,"local_area_name":"Jessheim","lon":11.15917,"number_of_bedrooms":0,"owner_type_description":"Eier (Selveier)","property_type_description":"Leilighet","size_from":31,"to_year":2018,"type":"realestate"},{"Location":"Spireaveien 4C, Oslo","ad_id":260152111,"ad_link":"https://www.finn.no/realestate/homes/ad.html?finnkode=260152111","ad_type":1,"energy_label":2,"from_year":2018,"lat":59.935,"local_area_name":"Løren/Økern","lon":10.8016,"number_of_bedrooms":3,"owner_type_description":"Eier (Selveier)","property_type_description":"Leilighet","size_from":77,"to_year":2018,"type":"realestate"},{"Location":"Fjordvangveien 21B, Nesodden","ad_id":260183844,"ad_link":"https://www.finn.no/realestate/homes/ad.html?finnkode=260183844","ad_type":1,"energy_label":2,"from_year":2018,"lat":59.82827,"local_area_name":"NESODDEN/ FJORDVANGEN","lon":10.67982,"number_of_bedrooms":4,"owner_type_description":"Eier (Selveier)","property_type_description":"Tomannsbolig","size_from":163,"to_year":2018,"type":"realestate"},{"Location":"Heggdalsringen 63, Trondheim","ad_id":259750931,"ad_link":"https://www.finn.no/realestate/homes/ad.html?finnkode=259750931","ad_type":1,"energy_label":2,"from_year":2018,"lat":63.40691,"local_area_name":"Nedre Steinan","lon":10.45087,"number_of_bedrooms":2,"owner_type_description":"Eier (Selveier)","property_type_description":"Leilighet","size_from":52,"to_year":2018,"type":"realestate"},{"Location":"Steinveien 2B, Greåker","ad_id":260005707,"ad_link":"https://www.finn.no/realestate/homes/ad.html?finnkode=260005707","ad_type":1,"energy_label":2,"from_year":2018,"lat":59.2788,"local_area_name":"Opstad","lon":11.0307,"number_of_bedrooms":3,"owner_type_description":"Eier (Selveier)","property_type_description":"Leilighet","size_from":94,"to_year":2018,"type":"realestate"},{"Location":"Førreparken 31, Førresfjorden","ad_id":260005113,"ad_link":"https://www.finn.no/realestate/homes/ad.html?finnkode=260005113","ad_type":1,"energy_label":2,"from_year":2018,"lat":59.4235,"local_area_name":null,"lon":5.3789,"number_of_bedrooms":3,"owner_type_description":"Eier (Selveier)","property_type_description":"Rekkehus","size_from":109,"to_year":2018,"type":"realestate"},{"Location":"Mikkelsbærstien 12B, Sandnes","ad_id":259627000,"ad_link":"https://www.finn.no/realestate/homes/ad.html?finnkode=259627000","ad_type":1,"energy_label":2,"from_year":2018,"lat":58.81309,"local_area_name":"Bogafjell","lon":5.74793,"number_of_bedrooms":2,"owner_type_description":"Eier (Selveier)","property_type_description":"Leilighet","size_from":60,"to_year":2018,"type":"realestate"},{"Location":"Røsslyngveien 1B, Råde","ad_id":254729902,"ad_link":"https://www.finn.no/realestate/homes/ad.html?finnkode=254729902","ad_type":1,"energy_label":2,"from_year":2018,"lat":59.34994,"local_area_name":null,"lon":10.94228,"number_of_bedrooms":2,"owner_type_description":"Eier (Selveier)","property_type_description":"Leilighet","size_from":70,"to_year":2018,"type":"realestate"},{"Location":"Eddaveien 83, Moss","ad_id":257263802,"ad_link":"https://www.finn.no/realestate/homes/ad.html?finnkode=257263802","ad_type":1,"energy_label":2,"from_year":2018,"lat":59.44754,"local_area_name":null,"lon":10.65232,"number_of_bedrooms":2,"owner_type_description":"Andel","property_type_description":"Leilighet","size_from":65,"to_year":2018,"type":"realestate"},{"Location":"Banktjørnhaugen 16 C, Os","ad_id":259527801,"ad_link":"https://www.finn.no/realestate/homes/ad.html?finnkode=259527801","ad_type":1,"energy_label":2,"from_year":2018,"lat":60.2026,"local_area_name":null,"lon":5.46134,"number_of_bedrooms":4,"owner_type_description":"Eier (Selveier)","property_type_description":"Rekkehus","size_from":105,"to_year":2018,"type":"realestate"},{"Location":"Spireaveien 4D, Oslo","ad_id":259514577,"ad_link":"https://www.finn.no/realestate/homes/ad.html?finnkode=259514577","ad_type":1,"energy_label":2,"from_year":2018,"lat":59.93485,"local_area_name":"Økern/Løren","lon":10.80186,"number_of_bedrooms":3,"owner_type_description":"Eier (Selveier)","property_type_description":"Leilighet","size_from":85,"to_year":2018,"type":"realestate"},{"Location":"Skagesundvegen 35, Tromsø","ad_id":258972318,"ad_link":"https://www.finn.no/realestate/homes/ad.html?finnkode=258972318","ad_type":1,"energy_label":2,"from_year":2018,"lat":69.672,"local_area_name":"TROMSØYA","lon":18.9707,"number_of_bedrooms":3,"owner_type_description":"Eier (Selveier)","property_type_description":"Leilighet","size_from":78,"to_year":2018,"type":"realestate"},{"Location":"Østersveien 18, Tolvsrød","ad_id":259369136,"ad_link":"https://www.finn.no/realestate/homes/ad.html?finnkode=259369136","ad_type":1,"energy_label":2,"from_year":2018,"lat":59.27567,"local_area_name":"TØNSBERG - RINGSHAUG","lon":10.48747,"number_of_bedrooms":5,"owner_type_description":"Eier (Selveier)","property_type_description":"Enebolig","size_from":307,"to_year":2018,"type":"realestate"},{"Location":"Haugbro Terrasse 174, Langhus","ad_id":259264994,"ad_link":"https://www.finn.no/realestate/homes/ad.html?finnkode=259264994","ad_type":1,"energy_label":2,"from_year":2018,"lat":59.75543,"local_area_name":"Langhus","lon":10.81861,"number_of_bedrooms":2,"owner_type_description":"Eier (Selveier)","property_type_description":"Leilighet","size_from":68,"to_year":2018,"type":"realestate"},{"Location":"Grønmyrvegen 7, Langevåg","ad_id":258951740,"ad_link":"https://www.finn.no/realestate/homes/ad.html?finnkode=258951740","ad_type":1,"energy_label":2,"from_year":2018,"lat":62.43837,"local_area_name":"Sula","lon":6.19839,"number_of_bedrooms":4,"owner_type_description":"Eier (Selveier)","property_type_description":"Tomannsbolig","size_from":142,"to_year":2018,"type":"realestate"},{"Location":"Solbakken 43, Eidsvoll Verk","ad_id":250172343,"ad_link":"https://www.finn.no/realestate/homes/ad.html?finnkode=250172343","ad_type":1,"energy_label":2,"from_year":2018,"lat":60.2806,"local_area_name":"Eidsvoll Verk","lon":11.1524,"number_of_bedrooms":5,"owner_type_description":"Eier (Selveier)","property_type_description":"Enebolig","size_from":267,"to_year":2018,"type":"realestate"},{"Location":"Øvre Ekeberglia 16, Lierskogen","ad_id":258495424,"ad_link":"https://www.finn.no/realestate/homes/ad.html?finnkode=258495424","ad_type":1,"energy_label":2,"from_year":2018,"lat":59.82675,"local_area_name":null,"lon":10.32877,"number_of_bedrooms":4,"owner_type_description":"Eier (Selveier)","property_type_description":"Rekkehus","size_from":131,"to_year":2018,"type":"realestate"},{"Location":"Betzy Rosenbergs veg 9, Bosberg","ad_id":246230627,"ad_link":"https://www.finn.no/realestate/homes/ad.html?finnkode=246230627","ad_type":1,"energy_label":2,"from_year":2018,"lat":63.4217,"local_area_name":"BYNESET/ RYE","lon":10.1435,"number_of_bedrooms":4,"owner_type_description":"Eier (Selveier)","property_type_description":"Tomannsbolig","size_from":133,"to_year":2018,"type":"realestate"},{"Location":"Storbotn 87, Øvre Ervik","ad_id":247033949,"ad_link":"https://www.finn.no/realestate/homes/ad.html?finnkode=247033949","ad_type":1,"energy_label":2,"from_year":2018,"lat":60.44904,"local_area_name":"Øvre Ervik","lon":5.32284,"number_of_bedrooms":3,"owner_type_description":"Eier (Selveier)","property_type_description":"Leilighet","size_from":82,"to_year":2018,"type":"realestate"},{"Location":"Damtjernvegen 5A, Elverum","ad_id":258328369,"ad_link":"https://www.finn.no/realestate/homes/ad.html?finnkode=258328369","ad_type":1,"energy_label":2,"from_year":2018,"lat":60.89502,"local_area_name":"YDALIR","lon":11.59337,"number_of_bedrooms":3,"owner_type_description":"Eier (Selveier)","property_type_description":"Leilighet","size_from":79,"to_year":2018,"type":"realestate"},{"Location":"Rossaveien 11B, Sandnes","ad_id":257120451,"ad_link":"https://www.finn.no/realestate/homes/ad.html?finnkode=257120451","ad_type":1,"energy_label":2,"from_year":2018,"lat":58.8272,"local_area_name":"Ganddal/ Sørbø","lon":5.7225,"number_of_bedrooms":3,"owner_type_description":"Eier (Selveier)","property_type_description":"Enebolig","size_from":134,"to_year":2018,"type":"realestate"},{"Location":"Gonveien 3B, Larvik","ad_id":258301882,"ad_link":"https://www.finn.no/realestate/homes/ad.html?finnkode=258301882","ad_type":1,"energy_label":2,"from_year":2018,"lat":59.03779,"local_area_name":null,"lon":10.0718,"number_of_bedrooms":2,"owner_type_description":"Andel","property_type_description":"Leilighet","size_from":82,"to_year":2018,"type":"realestate"},{"Location":"Stemmegardshaugane 8B, Skogsvåg","ad_id":258191184,"ad_link":"https://www.finn.no/realestate/homes/ad.html?finnkode=258191184","ad_type":1,"energy_label":2,"from_year":2018,"lat":60.2761,"local_area_name":null,"lon":5.0638,"number_of_bedrooms":2,"owner_type_description":"Eier (Selveier)","property_type_description":"Leilighet","size_from":55,"to_year":2018,"type":"realestate"},{"Location":"Ole Tobias Olsens gate 5, Mo i Rana","ad_id":258218788,"ad_link":"https://www.finn.no/realestate/homes/ad.html?finnkode=258218788","ad_type":1,"energy_label":2,"from_year":2018,"lat":66.30774,"local_area_name":"Mo sentrum","lon":14.13511,"number_of_bedrooms":2,"owner_type_description":"Andel","property_type_description":"Leilighet","size_from":70,"to_year":2018,"type":"realestate"},{"Location":"Langgaten 37, Holmestrand","ad_id":257371301,"ad_link":"https://www.finn.no/realestate/homes/ad.html?finnkode=257371301","ad_type":1,"energy_label":2,"from_year":2018,"lat":59.4872,"local_area_name":"Holmestrand sentrum","lon":10.3186,"number_of_bedrooms":1,"owner_type_description":"Eier (Selveier)","property_type_description":"Leilighet","size_from":34,"to_year":2018,"type":"realestate"},{"Location":"Midtvegen 135, Furnes","ad_id":257390057,"ad_link":"https://www.finn.no/realestate/homes/ad.html?finnkode=257390057","ad_type":1,"energy_label":2,"from_year":2018,"lat":60.81741,"local_area_name":null,"lon":11.06154,"number_of_bedrooms":1,"owner_type_description":"Eier (Selveier)","property_type_description":"Leilighet","size_from":55,"to_year":2018,"type":"realestate"},{"Location":"Molvikveien 10 Leil. 203, Rypefjord","ad_id":257377528,"ad_link":"https://www.finn.no/realestate/homes/ad.html?finnkode=257377528","ad_type":1,"energy_label":2,"from_year":2018,"lat":70.6521,"local_area_name":null,"lon":23.65363,"number_of_bedrooms":1,"owner_type_description":"Eier (Selveier)","property_type_description":"Leilighet","size_from":54,"to_year":2018,"type":"realestate"},{"Location":"Myrvegen 70B, Jessheim","ad_id":257209365,"ad_link":"https://www.finn.no/realestate/homes/ad.html?finnkode=257209365","ad_type":1,"energy_label":2,"from_year":2018,"lat":60.1449,"local_area_name":"Jessheim","lon":11.194,"number_of_bedrooms":2,"owner_type_description":"Eier (Selveier)","property_type_description":"Leilighet","size_from":68,"to_year":2018,"type":"realestate"},{"Location":"Elletoppen 1, Drøbak","ad_id":257221432,"ad_link":"https://www.finn.no/realestate/homes/ad.html?finnkode=257221432","ad_type":1,"energy_label":2,"from_year":2018,"lat":59.6488,"local_area_name":"Elle","lon":10.6441,"number_of_bedrooms":7,"owner_type_description":"Eier (Selveier)","property_type_description":"Enebolig","size_from":195,"to_year":2018,"type":"realestate"},{"Location":"Barduvegen 1C, Tromsø","ad_id":257191343,"ad_link":"https://www.finn.no/realestate/homes/ad.html?finnkode=257191343","ad_type":1,"energy_label":2,"from_year":2018,"lat":69.65035,"local_area_name":"ELVERHØY","lon":18.92802,"number_of_bedrooms":4,"owner_type_description":"Eier (Selveier)","property_type_description":"Tomannsbolig","size_from":138,"to_year":2018,"type":"realestate"},{"Location":"Vektargata 5I, Verdal","ad_id":257180898,"ad_link":"https://www.finn.no/realestate/homes/ad.html?finnkode=257180898","ad_type":1,"energy_label":2,"from_year":2018,"lat":63.79298,"local_area_name":"Sentrum / Verdal","lon":11.48601,"number_of_bedrooms":2,"owner_type_description":"Andel","property_type_description":"Leilighet","size_from":66,"to_year":2018,"type":"realestate"},{"Location":"Tregata 25, Skotselv","ad_id":257117939,"ad_link":"https://www.finn.no/realestate/homes/ad.html?finnkode=257117939","ad_type":1,"energy_label":2,"from_year":2018,"lat":59.8428,"local_area_name":null,"lon":9.8765,"number_of_bedrooms":3,"owner_type_description":"Eier (Selveier)","property_type_description":"Enebolig","size_from":140,"to_year":2018,"type":"realestate"},{"Location":"St. Marie gate 42, Sarpsborg","ad_id":257095283,"ad_link":"https://www.finn.no/realestate/homes/ad.html?finnkode=257095283","ad_type":1,"energy_label":2,"from_year":2018,"lat":59.28057,"local_area_name":"Sarpsborg sentrum","lon":11.11949,"number_of_bedrooms":1,"owner_type_description":"Andel","property_type_description":"Leilighet","size_from":72,"to_year":2018,"type":"realestate"},{"Location":"Skogfaret 69, Tomter","ad_id":256564667,"ad_link":"https://www.finn.no/realestate/homes/ad.html?finnkode=256564667","ad_type":1,"energy_label":2,"from_year":2018,"lat":59.6649,"local_area_name":null,"lon":10.9965,"number_of_bedrooms":3,"owner_type_description":"Eier (Selveier)","property_type_description":"Rekkehus","size_from":135,"to_year":2018,"type":"realestate"},{"Location":"Johan Arnt Høiseths veg 52, Heimdal","ad_id":255563206,"ad_link":"https://www.finn.no/realestate/homes/ad.html?finnkode=255563206","ad_type":1,"energy_label":2,"from_year":2018,"lat":63.34754,"local_area_name":"Lund Østre/Heimdal","lon":10.32115,"number_of_bedrooms":3,"owner_type_description":"Eier (Selveier)","property_type_description":"Rekkehus","size_from":90,"to_year":2018,"type":"realestate"},{"Location":"Fururingen 39B, Åsgreina","ad_id":254623727,"ad_link":"https://www.finn.no/realestate/homes/ad.html?finnkode=254623727","ad_type":1,"energy_label":2,"from_year":2018,"lat":60.1676,"local_area_name":"Åsgreina","lon":10.9919,"number_of_bedrooms":2,"owner_type_description":"Eier (Selveier)","property_type_description":"Tomannsbolig","size_from":104,"to_year":2018,"type":"realestate"},{"Location":"Smestadbråtan 46, Fjerdingby","ad_id":247851791,"ad_link":"https://www.finn.no/realestate/homes/ad.html?finnkode=247851791","ad_type":1,"energy_label":2,"from_year":2018,"lat":59.9052,"local_area_name":"Velkommen til populære Smestad/Rælingen!","lon":11.09734,"number_of_bedrooms":4,"owner_type_description":"Eier (Selveier)","property_type_description":"Enebolig","size_from":192,"to_year":2018,"type":"realestate"},{"Location":"Arnold Tranaas' vei 54, Rørvik","ad_id":254623443,"ad_link":"https://www.finn.no/realestate/homes/ad.html?finnkode=254623443","ad_type":1,"energy_label":2,"from_year":2018,"lat":64.84986,"local_area_name":null,"lon":11.20446,"number_of_bedrooms":2,"owner_type_description":"Andel","property_type_description":"Leilighet","size_from":75,"to_year":2018,"type":"realestate"},{"Location":"Ferkingstadtunet 15, Stol","ad_id":254180934,"ad_link":"https://www.finn.no/realestate/homes/ad.html?finnkode=254180934","ad_type":1,"energy_label":2,"from_year":2018,"lat":59.226,"local_area_name":"Ferkingstad","lon":5.2005,"number_of_bedrooms":4,"owner_type_description":"Eier (Selveier)","property_type_description":"Enebolig","size_from":126,"to_year":2018,"type":"realestate"},{"Location":"Strømmeveien 56, Kristiansand S","ad_id":254161394,"ad_link":"https://www.finn.no/realestate/homes/ad.html?finnkode=254161394","ad_type":1,"energy_label":2,"from_year":2018,"lat":58.1528,"local_area_name":"Randesund","lon":8.0797,"number_of_bedrooms":1,"owner_type_description":"Eier (Selveier)","property_type_description":"Leilighet","size_from":50,"to_year":2018,"type":"realestate"},{"Location":"Aarstadgaten 49, Egersund","ad_id":253277108,"ad_link":"https://www.finn.no/realestate/homes/ad.html?finnkode=253277108","ad_type":1,"energy_label":2,"from_year":2018,"lat":58.4483,"local_area_name":"Husabø/Rundevoll","lon":6.0031,"number_of_bedrooms":2,"owner_type_description":"Eier (Selveier)","property_type_description":"Tomannsbolig","size_from":72,"to_year":2018,"type":"realestate"},{"Location":"Ytre Åros 2T, Søgne","ad_id":244778844,"ad_link":"https://www.finn.no/realestate/homes/ad.html?finnkode=244778844","ad_type":1,"energy_label":2,"from_year":2018,"lat":58.0776,"local_area_name":"ÅROSSANDEN","lon":7.81965,"number_of_bedrooms":4,"owner_type_description":"Eier (Selveier)","property_type_description":"Leilighet","size_from":125,"to_year":2018,"type":"realestate"},{"Location":"Smitborgvegen 119B, Skreia","ad_id":252211469,"ad_link":"https://www.finn.no/realestate/homes/ad.html?finnkode=252211469","ad_type":1,"energy_label":2,"from_year":2018,"lat":60.66869,"local_area_name":"SKREIA","lon":10.92731,"number_of_bedrooms":3,"owner_type_description":"Eier (Selveier)","property_type_description":"Enebolig","size_from":107,"to_year":2018,"type":"realestate"},{"Location":"Eivind Torps veg 4A, Elverum","ad_id":251485221,"ad_link":"https://www.finn.no/realestate/homes/ad.html?finnkode=251485221","ad_type":1,"energy_label":2,"from_year":2018,"lat":60.88423,"local_area_name":"SENTRUM","lon":11.5581,"number_of_bedrooms":1,"owner_type_description":"Eier (Selveier)","property_type_description":"Leilighet","size_from":48,"to_year":2018,"type":"realestate"},{"Location":"Førresbrekka 21B, Førresfjorden","ad_id":245606136,"ad_link":"https://www.finn.no/realestate/homes/ad.html?finnkode=245606136","ad_type":1,"energy_label":2,"from_year":2018,"lat":59.4217,"local_area_name":"Førre","lon":5.3903,"number_of_bedrooms":4,"owner_type_description":"Eier (Selveier)","property_type_description":"Tomannsbolig","size_from":167,"to_year":2018,"type":"realestate"},{"Location":"Galtenbakken 34, Malmefjorden","ad_id":250203877,"ad_link":"https://www.finn.no/realestate/homes/ad.html?finnkode=250203877","ad_type":1,"energy_label":2,"from_year":2018,"lat":62.817,"local_area_name":null,"lon":7.2448,"number_of_bedrooms":3,"owner_type_description":"Eier (Selveier)","property_type_description":"Tomannsbolig","size_from":124,"to_year":2018,"type":"realestate"},{"Location":"Loftbergveien 22, Jevnaker","ad_id":248585816,"ad_link":"https://www.finn.no/realestate/homes/ad.html?finnkode=248585816","ad_type":1,"energy_label":2,"from_year":2018,"lat":60.2442,"local_area_name":"Bergermarka","lon":10.3577,"number_of_bedrooms":2,"owner_type_description":"Eier (Selveier)","property_type_description":"Leilighet","size_from":72,"to_year":2018,"type":"realestate"},{"Location":"Nygårdsvegen 29, Rørvik","ad_id":247965024,"ad_link":"https://www.finn.no/realestate/homes/ad.html?finnkode=247965024","ad_type":1,"energy_label":2,"from_year":2018,"lat":64.85237,"local_area_name":"Rørvik","lon":11.23891,"number_of_bedrooms":5,"owner_type_description":"Eier (Selveier)","property_type_description":"Enebolig","size_from":160,"to_year":2018,"type":"realestate"},{"Location":"Haukåsveien 5C, Vanse","ad_id":247243094,"ad_link":"https://www.finn.no/realestate/homes/ad.html?finnkode=247243094","ad_type":1,"energy_label":2,"from_year":2018,"lat":58.11028,"local_area_name":"Helvik Boligfelt","lon":6.72785,"number_of_bedrooms":3,"owner_type_description":"Eier (Selveier)","property_type_description":"Rekkehus","size_from":138,"to_year":2018,"type":"realestate"},{"Location":"Mariskovegen 24, Vennesla","ad_id":231997410,"ad_link":"https://www.finn.no/realestate/homes/ad.html?finnkode=231997410","ad_type":1,"energy_label":2,"from_year":2018,"lat":58.26328,"local_area_name":null,"lon":7.94648,"number_of_bedrooms":3,"owner_type_description":"Eier (Selveier)","property_type_description":"Enebolig","size_from":123,"to_year":2018,"type":"realestate"},{"Location":"Bliksåsen 60 - H0203, Froland","ad_id":234372747,"ad_link":"https://www.finn.no/realestate/homes/ad.html?finnkode=234372747","ad_type":1,"energy_label":2,"from_year":2018,"lat":58.50839,"local_area_name":null,"lon":8.61711,"number_of_bedrooms":2,"owner_type_description":"Eier (Selveier)","property_type_description":"Leilighet","size_from":75,"to_year":2018,"type":"realestate"},{"Location":"Åsheim 9A, Sagvåg","ad_id":193290396,"ad_link":"https://www.finn.no/realestate/homes/ad.html?finnkode=193290396","ad_type":1,"energy_label":2,"from_year":2018,"lat":59.7749,"local_area_name":null,"lon":5.3896,"number_of_bedrooms":5,"owner_type_description":"Eier (Selveier)","property_type_description":"Enebolig","size_from":236,"to_year":2018,"type":"realestate"},{"Location":"Nordvarangerveien 2743, Vadsø","ad_id":189316077,"ad_link":"https://www.finn.no/realestate/homes/ad.html?finnkode=189316077","ad_type":1,"energy_label":2,"from_year":2018,"lat":70.06337,"local_area_name":null,"lon":29.85292,"number_of_bedrooms":1,"owner_type_description":"Eier (Selveier)","property_type_description":"Enebolig","size_from":129,"to_year":2018,"type":"realestate"},{"Location":"Myravegen, Aure","ad_id":90066379,"ad_link":"https://www.finn.no/realestate/homes/ad.html?finnkode=90066379","ad_type":1,"energy_label":2,"from_year":2018,"lat":63.27328,"local_area_name":null,"lon":8.54236,"number_of_bedrooms":3,"owner_type_description":"Eier (Selveier)","property_type_description":"Enebolig","size_from":105,"to_year":2018,"type":"realestate"}]