[{"Location":"Presidentgata 3 A, Oslo","ad_id":261277025,"ad_link":"https://www.finn.no/realestate/homes/ad.html?finnkode=261277025","ad_type":1,"energy_label":6,"from_year":1939,"lat":59.93203,"local_area_name":"#TORSHOV","lon":10.76531,"number_of_bedrooms":1,"owner_type_description":"Andel","property_type_description":"Leilighet","size_from":38,"to_year":1939,"type":"realestate"},{"Location":"Parkveien 77, Oslo","ad_id":260798216,"ad_link":"https://www.finn.no/realestate/homes/ad.html?finnkode=260798216","ad_type":1,"energy_label":6,"from_year":1939,"lat":59.9126,"local_area_name":"Frogner / Solli plass","lon":10.719,"number_of_bedrooms":0,"owner_type_description":"Eier (Selveier)","property_type_description":"Leilighet","size_from":38,"to_year":1939,"type":"realestate"},{"Location":"Hedmarksgata 10C, Oslo","ad_id":260823681,"ad_link":"https://www.finn.no/realestate/homes/ad.html?finnkode=260823681","ad_type":1,"energy_label":6,"from_year":1939,"lat":59.9102,"local_area_name":"Vålerenga/Kampen","lon":10.788,"number_of_bedrooms":1,"owner_type_description":"Eier (Selveier)","property_type_description":"Leilighet","size_from":28,"to_year":1939,"type":"realestate"},{"Location":"Olaf Schous vei 5, Oslo","ad_id":260536338,"ad_link":"https://www.finn.no/realestate/homes/ad.html?finnkode=260536338","ad_type":1,"energy_label":6,"from_year":1939,"lat":59.9304,"local_area_name":null,"lon":10.7827,"number_of_bedrooms":0,"owner_type_description":"Eier (Selveier)","property_type_description":"Leilighet","size_from":31,"to_year":1939,"type":"realestate"},{"Location":"Rødstuveien 12, Oslo","ad_id":260659496,"ad_link":"https://www.finn.no/realestate/homes/ad.html?finnkode=260659496","ad_type":1,"energy_label":6,"from_year":1939,"lat":59.93,"local_area_name":"Sinsen","lon":10.7838,"number_of_bedrooms":1,"owner_type_description":"Eier (Selveier)","property_type_description":"Leilighet","size_from":53,"to_year":1939,"type":"realestate"},{"Location":"Johan Svendsens gate 2, Trondheim","ad_id":260527563,"ad_link":"https://www.finn.no/realestate/homes/ad.html?finnkode=260527563","ad_type":1,"energy_label":6,"from_year":1939,"lat":63.4184,"local_area_name":"ØYA/ELGESETER","lon":10.3921,"number_of_bedrooms":3,"owner_type_description":"Eier (Selveier)","property_type_description":"Leilighet","size_from":72,"to_year":1939,"type":"realestate"},{"Location":"Arendalsgata 6, Oslo","ad_id":260632507,"ad_link":"https://www.finn.no/realestate/homes/ad.html?finnkode=260632507","ad_type":1,"energy_label":6,"from_year":1939,"lat":59.93829,"local_area_name":"SAGENE","lon":10.75138,"number_of_bedrooms":0,"owner_type_description":"Eier (Selveier)","property_type_description":"Leilighet","size_from":51,"to_year":1939,"type":"realestate"},{"Location":"Trondheimsveien 69, Oslo","ad_id":260549110,"ad_link":"https://www.finn.no/realestate/homes/ad.html?finnkode=260549110","ad_type":1,"energy_label":6,"from_year":1939,"lat":59.9229,"local_area_name":"Perle på Sofienberg","lon":10.7718,"number_of_bedrooms":2,"owner_type_description":"Andel","property_type_description":"Leilighet","size_from":53,"to_year":1939,"type":"realestate"},{"Location":"Austsidevegen 775, Flå","ad_id":249364566,"ad_link":"https://www.finn.no/realestate/homes/ad.html?finnkode=249364566","ad_type":1,"energy_label":6,"from_year":1939,"lat":60.43198,"local_area_name":"Flå","lon":9.37883,"number_of_bedrooms":3,"owner_type_description":"Eier (Selveier)","property_type_description":"Enebolig","size_from":116,"to_year":1939,"type":"realestate"},{"Location":"Konnerudgata 10 A, Drammen","ad_id":248517704,"ad_link":"https://www.finn.no/realestate/homes/ad.html?finnkode=248517704","ad_type":1,"energy_label":6,"from_year":1939,"lat":59.73934,"local_area_name":null,"lon":10.19795,"number_of_bedrooms":1,"owner_type_description":"Eier (Selveier)","property_type_description":"Leilighet","size_from":45,"to_year":1939,"type":"realestate"}]