[{"Location":"Lundbøen 6, Skodje","ad_id":261513294,"ad_link":"https://www.finn.no/realestate/homes/ad.html?finnkode=261513294","ad_type":1,"energy_label":3,"from_year":2012,"lat":62.50024,"local_area_name":"Skodje","lon":6.7161,"number_of_bedrooms":4,"owner_type_description":"Eier (Selveier)","property_type_description":"Enebolig","size_from":149,"to_year":2012,"type":"realestate"},{"Location":"Leitet 13, Surnadal","ad_id":261469049,"ad_link":"https://www.finn.no/realestate/homes/ad.html?finnkode=261469049","ad_type":1,"energy_label":3,"from_year":2012,"lat":62.97445,"local_area_name":"Skei","lon":8.7334,"number_of_bedrooms":2,"owner_type_description":"Eier (Selveier)","property_type_description":"Leilighet","size_from":66,"to_year":2012,"type":"realestate"},{"Location":"Sigurd Hoels vei 42, Oslo","ad_id":261467157,"ad_link":"https://www.finn.no/realestate/homes/ad.html?finnkode=261467157","ad_type":1,"energy_label":3,"from_year":2012,"lat":59.91785,"local_area_name":"Tiedmannsbyen/Hagekvartalet","lon":10.78585,"number_of_bedrooms":2,"owner_type_description":"Eier (Selveier)","property_type_description":"Leilighet","size_from":66,"to_year":2012,"type":"realestate"},{"Location":"Prestmovegen 65, Stjørdal","ad_id":261323718,"ad_link":"https://www.finn.no/realestate/homes/ad.html?finnkode=261323718","ad_type":1,"energy_label":3,"from_year":2012,"lat":63.44992,"local_area_name":null,"lon":10.98824,"number_of_bedrooms":3,"owner_type_description":"Eier (Selveier)","property_type_description":"Enebolig","size_from":138,"to_year":2012,"type":"realestate"},{"Location":"Tjuvholmen allé 21, Oslo","ad_id":261070581,"ad_link":"https://www.finn.no/realestate/homes/ad.html?finnkode=261070581","ad_type":1,"energy_label":3,"from_year":2012,"lat":59.90698,"local_area_name":"Utsiktsleilighet på Tjuvholmen","lon":10.72039,"number_of_bedrooms":1,"owner_type_description":"Eier (Selveier)","property_type_description":"Leilighet","size_from":45,"to_year":2012,"type":"realestate"},{"Location":"Landgangen 3, Oslo","ad_id":261070560,"ad_link":"https://www.finn.no/realestate/homes/ad.html?finnkode=261070560","ad_type":1,"energy_label":3,"from_year":2012,"lat":59.90791,"local_area_name":"Velkommen til Tjuvholmen","lon":10.72053,"number_of_bedrooms":1,"owner_type_description":"Eier (Selveier)","property_type_description":"Leilighet","size_from":58,"to_year":2012,"type":"realestate"},{"Location":"Arnstein Arnebergs vei 17, Lysaker","ad_id":261055156,"ad_link":"https://www.finn.no/realestate/homes/ad.html?finnkode=261055156","ad_type":1,"energy_label":3,"from_year":2012,"lat":59.90736,"local_area_name":"FORNEBU","lon":10.62573,"number_of_bedrooms":2,"owner_type_description":"Eier (Selveier)","property_type_description":"Leilighet","size_from":87,"to_year":2012,"type":"realestate"},{"Location":"Hedlehaugen 3, Mosterøy","ad_id":261022412,"ad_link":"https://www.finn.no/realestate/homes/ad.html?finnkode=261022412","ad_type":1,"energy_label":3,"from_year":2012,"lat":59.0602,"local_area_name":"Mosterøy","lon":5.69464,"number_of_bedrooms":2,"owner_type_description":"Eier (Selveier)","property_type_description":"Leilighet","size_from":80,"to_year":2012,"type":"realestate"},{"Location":"Steinalderveien 12B, Vinterbro","ad_id":261019119,"ad_link":"https://www.finn.no/realestate/homes/ad.html?finnkode=261019119","ad_type":1,"energy_label":3,"from_year":2012,"lat":59.74065,"local_area_name":"VINTERBO / SJØSKOGEN","lon":10.76101,"number_of_bedrooms":4,"owner_type_description":"Eier (Selveier)","property_type_description":"Enebolig","size_from":183,"to_year":2012,"type":"realestate"},{"Location":"Søster Mathildes gate 18B, Lørenskog","ad_id":261013449,"ad_link":"https://www.finn.no/realestate/homes/ad.html?finnkode=261013449","ad_type":1,"energy_label":3,"from_year":2012,"lat":59.91964,"local_area_name":"LØRENSKOG","lon":10.94736,"number_of_bedrooms":3,"owner_type_description":"Eier (Selveier)","property_type_description":"Leilighet","size_from":103,"to_year":2012,"type":"realestate"},{"Location":"Haugvaldstadveien 26, Mosterøy","ad_id":260769158,"ad_link":"https://www.finn.no/realestate/homes/ad.html?finnkode=260769158","ad_type":1,"energy_label":3,"from_year":2012,"lat":59.098,"local_area_name":"Mosterøy","lon":5.6235,"number_of_bedrooms":4,"owner_type_description":"Eier (Selveier)","property_type_description":"Enebolig","size_from":185,"to_year":2012,"type":"realestate"},{"Location":"Motlandsmarka 252, Nærbø","ad_id":260759572,"ad_link":"https://www.finn.no/realestate/homes/ad.html?finnkode=260759572","ad_type":1,"energy_label":3,"from_year":2012,"lat":58.6548,"local_area_name":"Nærbø","lon":5.6507,"number_of_bedrooms":2,"owner_type_description":"Eier (Selveier)","property_type_description":"Leilighet","size_from":67,"to_year":2012,"type":"realestate"},{"Location":"Vinninglandsvegen 200, Bjerkreim","ad_id":260763317,"ad_link":"https://www.finn.no/realestate/homes/ad.html?finnkode=260763317","ad_type":1,"energy_label":3,"from_year":2012,"lat":58.5555,"local_area_name":"Vinningland","lon":6.045,"number_of_bedrooms":4,"owner_type_description":"Eier (Selveier)","property_type_description":"Enebolig","size_from":178,"to_year":2012,"type":"realestate"},{"Location":"Brit Grytbaks veg 4, Trondheim","ad_id":260828640,"ad_link":"https://www.finn.no/realestate/homes/ad.html?finnkode=260828640","ad_type":1,"energy_label":3,"from_year":2012,"lat":63.40857,"local_area_name":"BERGHEIM","lon":10.45512,"number_of_bedrooms":2,"owner_type_description":"Eier (Selveier)","property_type_description":"Leilighet","size_from":78,"to_year":2012,"type":"realestate"},{"Location":"Sørengkaia 60, Oslo","ad_id":258329226,"ad_link":"https://www.finn.no/realestate/homes/ad.html?finnkode=258329226","ad_type":1,"energy_label":3,"from_year":2012,"lat":59.9027,"local_area_name":"Kanalleilighet på populære Sørenga;","lon":10.756,"number_of_bedrooms":2,"owner_type_description":"Eier (Selveier)","property_type_description":"Leilighet","size_from":106,"to_year":2012,"type":"realestate"},{"Location":"Torggata 12, Sandefjord","ad_id":260754922,"ad_link":"https://www.finn.no/realestate/homes/ad.html?finnkode=260754922","ad_type":1,"energy_label":3,"from_year":2012,"lat":59.1304,"local_area_name":null,"lon":10.2231,"number_of_bedrooms":1,"owner_type_description":"Eier (Selveier)","property_type_description":"Leilighet","size_from":53,"to_year":2012,"type":"realestate"},{"Location":"Askevegen 7C, Volda","ad_id":260648585,"ad_link":"https://www.finn.no/realestate/homes/ad.html?finnkode=260648585","ad_type":1,"energy_label":3,"from_year":2012,"lat":62.153,"local_area_name":"VOLDA/KLEPP","lon":6.0673,"number_of_bedrooms":2,"owner_type_description":"Eier (Selveier)","property_type_description":"Leilighet","size_from":93,"to_year":2012,"type":"realestate"},{"Location":"Verven 4, Kristiansand S","ad_id":260645683,"ad_link":"https://www.finn.no/realestate/homes/ad.html?finnkode=260645683","ad_type":1,"energy_label":3,"from_year":2012,"lat":58.14573,"local_area_name":null,"lon":8.01052,"number_of_bedrooms":2,"owner_type_description":"Eier (Selveier)","property_type_description":"Leilighet","size_from":77,"to_year":2012,"type":"realestate"},{"Location":"Veslelia 13 a, Hvalstad","ad_id":260524105,"ad_link":"https://www.finn.no/realestate/homes/ad.html?finnkode=260524105","ad_type":1,"energy_label":3,"from_year":2012,"lat":59.85329,"local_area_name":"Hvalstad / Asker","lon":10.45986,"number_of_bedrooms":2,"owner_type_description":"Eier (Selveier)","property_type_description":"Enebolig","size_from":82,"to_year":2012,"type":"realestate"},{"Location":"Gladengveien 4G, Oslo","ad_id":260394854,"ad_link":"https://www.finn.no/realestate/homes/ad.html?finnkode=260394854","ad_type":1,"energy_label":3,"from_year":2012,"lat":59.916,"local_area_name":"Ensjø","lon":10.7891,"number_of_bedrooms":3,"owner_type_description":"Andel","property_type_description":"Leilighet","size_from":86,"to_year":2012,"type":"realestate"},{"Location":"Skaramarka 7, Sandnes","ad_id":260436297,"ad_link":"https://www.finn.no/realestate/homes/ad.html?finnkode=260436297","ad_type":1,"energy_label":3,"from_year":2012,"lat":58.8435,"local_area_name":"SKAARLIA","lon":5.7741,"number_of_bedrooms":3,"owner_type_description":"Eier (Selveier)","property_type_description":"Enebolig","size_from":121,"to_year":2012,"type":"realestate"},{"Location":"Bekkevollveien 13A, Oslo","ad_id":258541192,"ad_link":"https://www.finn.no/realestate/homes/ad.html?finnkode=258541192","ad_type":1,"energy_label":3,"from_year":2012,"lat":59.94618,"local_area_name":"HØYBRÅTEN","lon":10.91535,"number_of_bedrooms":5,"owner_type_description":"Eier (Selveier)","property_type_description":"Enebolig","size_from":161,"to_year":2012,"type":"realestate"},{"Location":"Bjørnåsveien 95, Oslo","ad_id":259610701,"ad_link":"https://www.finn.no/realestate/homes/ad.html?finnkode=259610701","ad_type":1,"energy_label":3,"from_year":2012,"lat":59.8279,"local_area_name":"BJØRNDAL","lon":10.8325,"number_of_bedrooms":3,"owner_type_description":"Eier (Selveier)","property_type_description":"Rekkehus","size_from":115,"to_year":2012,"type":"realestate"},{"Location":"Sjøgata 39, Moss","ad_id":259993815,"ad_link":"https://www.finn.no/realestate/homes/ad.html?finnkode=259993815","ad_type":1,"energy_label":3,"from_year":2012,"lat":59.43141,"local_area_name":null,"lon":10.6474,"number_of_bedrooms":2,"owner_type_description":"Eier (Selveier)","property_type_description":"Leilighet","size_from":113,"to_year":2012,"type":"realestate"},{"Location":"Vellebøen 43, Førde","ad_id":259907437,"ad_link":"https://www.finn.no/realestate/homes/ad.html?finnkode=259907437","ad_type":1,"energy_label":3,"from_year":2012,"lat":61.44675,"local_area_name":null,"lon":5.88836,"number_of_bedrooms":2,"owner_type_description":"Eier (Selveier)","property_type_description":"Leilighet","size_from":70,"to_year":2012,"type":"realestate"},{"Location":"Høyvegen 11, Heimdal","ad_id":259763214,"ad_link":"https://www.finn.no/realestate/homes/ad.html?finnkode=259763214","ad_type":1,"energy_label":3,"from_year":2012,"lat":63.35033,"local_area_name":"Lund Østre","lon":10.32977,"number_of_bedrooms":1,"owner_type_description":"Eier (Selveier)","property_type_description":"Leilighet","size_from":44,"to_year":2012,"type":"realestate"},{"Location":"Schwachs gate 10, Skien","ad_id":259722068,"ad_link":"https://www.finn.no/realestate/homes/ad.html?finnkode=259722068","ad_type":1,"energy_label":3,"from_year":2012,"lat":59.2044,"local_area_name":"SKIEN - BAKKEN/HJELLEN","lon":9.6061,"number_of_bedrooms":2,"owner_type_description":"Eier (Selveier)","property_type_description":"Leilighet","size_from":76,"to_year":2012,"type":"realestate"},{"Location":"Nøysomheten 6 A, Risør","ad_id":259674072,"ad_link":"https://www.finn.no/realestate/homes/ad.html?finnkode=259674072","ad_type":1,"energy_label":3,"from_year":2012,"lat":58.71964,"local_area_name":null,"lon":9.21932,"number_of_bedrooms":3,"owner_type_description":"Eier (Selveier)","property_type_description":"Tomannsbolig","size_from":134,"to_year":2012,"type":"realestate"},{"Location":"Skansen 8, Kristiansand S","ad_id":259643162,"ad_link":"https://www.finn.no/realestate/homes/ad.html?finnkode=259643162","ad_type":1,"energy_label":3,"from_year":2012,"lat":58.1462,"local_area_name":null,"lon":8.00973,"number_of_bedrooms":1,"owner_type_description":"Eier (Selveier)","property_type_description":"Leilighet","size_from":54,"to_year":2012,"type":"realestate"},{"Location":"Engelsminnegata 21, Stavanger","ad_id":258867207,"ad_link":"https://www.finn.no/realestate/homes/ad.html?finnkode=258867207","ad_type":1,"energy_label":3,"from_year":2012,"lat":58.966,"local_area_name":"Kannik/Stavanger Vest","lon":5.7284,"number_of_bedrooms":1,"owner_type_description":"Eier (Selveier)","property_type_description":"Leilighet","size_from":113,"to_year":2012,"type":"realestate"},{"Location":"Gladengveien 15C, Oslo","ad_id":255594369,"ad_link":"https://www.finn.no/realestate/homes/ad.html?finnkode=255594369","ad_type":1,"energy_label":3,"from_year":2012,"lat":59.917,"local_area_name":"ENSJØ","lon":10.793,"number_of_bedrooms":2,"owner_type_description":"Eier (Selveier)","property_type_description":"Leilighet","size_from":77,"to_year":2012,"type":"realestate"},{"Location":"Åbolkroken 6, Sandefjord","ad_id":259185057,"ad_link":"https://www.finn.no/realestate/homes/ad.html?finnkode=259185057","ad_type":1,"energy_label":3,"from_year":2012,"lat":59.1558,"local_area_name":"Åbol","lon":10.216,"number_of_bedrooms":8,"owner_type_description":"Eier (Selveier)","property_type_description":"Enebolig","size_from":318,"to_year":2012,"type":"realestate"},{"Location":"Østsynet 3, Moss","ad_id":259045731,"ad_link":"https://www.finn.no/realestate/homes/ad.html?finnkode=259045731","ad_type":1,"energy_label":3,"from_year":2012,"lat":59.4352,"local_area_name":"Jeløy","lon":10.6326,"number_of_bedrooms":3,"owner_type_description":"Eier (Selveier)","property_type_description":"Enebolig","size_from":116,"to_year":2012,"type":"realestate"},{"Location":"Prestmovegen 67, Stjørdal","ad_id":259123764,"ad_link":"https://www.finn.no/realestate/homes/ad.html?finnkode=259123764","ad_type":1,"energy_label":3,"from_year":2012,"lat":63.44987,"local_area_name":null,"lon":10.98845,"number_of_bedrooms":3,"owner_type_description":"Eier (Selveier)","property_type_description":"Enebolig","size_from":133,"to_year":2012,"type":"realestate"},{"Location":"Lervigbrygga 186, Stavanger","ad_id":258952260,"ad_link":"https://www.finn.no/realestate/homes/ad.html?finnkode=258952260","ad_type":1,"energy_label":3,"from_year":2012,"lat":58.9662,"local_area_name":"Stavanger Øst","lon":5.7664,"number_of_bedrooms":2,"owner_type_description":"Eier (Selveier)","property_type_description":"Leilighet","size_from":68,"to_year":2012,"type":"realestate"},{"Location":"Tristilsvingen 24, Fjerdingby","ad_id":258402603,"ad_link":"https://www.finn.no/realestate/homes/ad.html?finnkode=258402603","ad_type":1,"energy_label":3,"from_year":2012,"lat":59.9032,"local_area_name":"Hektneråsen","lon":11.0856,"number_of_bedrooms":4,"owner_type_description":"Eier (Selveier)","property_type_description":"Enebolig","size_from":124,"to_year":2012,"type":"realestate"},{"Location":"Solstadveien 67, Larkollen","ad_id":256502496,"ad_link":"https://www.finn.no/realestate/homes/ad.html?finnkode=256502496","ad_type":1,"energy_label":3,"from_year":2012,"lat":59.32306,"local_area_name":null,"lon":10.68938,"number_of_bedrooms":4,"owner_type_description":"Eier (Selveier)","property_type_description":"Enebolig","size_from":182,"to_year":2012,"type":"realestate"},{"Location":"Branderudveien 127C, Leirsund","ad_id":257365559,"ad_link":"https://www.finn.no/realestate/homes/ad.html?finnkode=257365559","ad_type":1,"energy_label":3,"from_year":2012,"lat":59.9894,"local_area_name":null,"lon":11.1068,"number_of_bedrooms":3,"owner_type_description":"Eier (Selveier)","property_type_description":"Enebolig","size_from":146,"to_year":2012,"type":"realestate"},{"Location":"Skansen 8, 4. etg, Kristiansand S","ad_id":257370262,"ad_link":"https://www.finn.no/realestate/homes/ad.html?finnkode=257370262","ad_type":1,"energy_label":3,"from_year":2012,"lat":58.1462,"local_area_name":"Bystranda / Tangen","lon":8.00973,"number_of_bedrooms":1,"owner_type_description":"Eier (Selveier)","property_type_description":"Leilighet","size_from":54,"to_year":2012,"type":"realestate"},{"Location":"Luftå 27, Sandnes","ad_id":257119185,"ad_link":"https://www.finn.no/realestate/homes/ad.html?finnkode=257119185","ad_type":1,"energy_label":3,"from_year":2012,"lat":58.8211,"local_area_name":"Ganddal","lon":5.705,"number_of_bedrooms":2,"owner_type_description":"Eier (Selveier)","property_type_description":"Leilighet","size_from":65,"to_year":2012,"type":"realestate"},{"Location":"Stongsvingen 87, Åkrehamn","ad_id":256488481,"ad_link":"https://www.finn.no/realestate/homes/ad.html?finnkode=256488481","ad_type":1,"energy_label":3,"from_year":2012,"lat":59.25256,"local_area_name":"Åkrehamn","lon":5.18567,"number_of_bedrooms":2,"owner_type_description":"Eier (Selveier)","property_type_description":"Leilighet","size_from":85,"to_year":2012,"type":"realestate"},{"Location":"Blokkhusgata 11, Kristiansand S","ad_id":256308906,"ad_link":"https://www.finn.no/realestate/homes/ad.html?finnkode=256308906","ad_type":1,"energy_label":3,"from_year":2012,"lat":58.14653,"local_area_name":null,"lon":8.01057,"number_of_bedrooms":2,"owner_type_description":"Eier (Selveier)","property_type_description":"Leilighet","size_from":44,"to_year":2012,"type":"realestate"},{"Location":"Myklabergbakken 42, Røyneberg","ad_id":220012612,"ad_link":"https://www.finn.no/realestate/homes/ad.html?finnkode=220012612","ad_type":1,"energy_label":3,"from_year":2012,"lat":58.9059,"local_area_name":"Sola","lon":5.6673,"number_of_bedrooms":1,"owner_type_description":"Andel","property_type_description":"Leilighet","size_from":66,"to_year":2012,"type":"realestate"},{"Location":"Dvergsnesknatten 24, Kristiansand S","ad_id":246222639,"ad_link":"https://www.finn.no/realestate/homes/ad.html?finnkode=246222639","ad_type":1,"energy_label":3,"from_year":2012,"lat":58.12869,"local_area_name":"Påmeldingsvisning man.30/5!","lon":8.07183,"number_of_bedrooms":3,"owner_type_description":"Eier (Selveier)","property_type_description":"Leilighet","size_from":88,"to_year":2012,"type":"realestate"},{"Location":"Vikens gate 7A, Sarpsborg","ad_id":255700960,"ad_link":"https://www.finn.no/realestate/homes/ad.html?finnkode=255700960","ad_type":1,"energy_label":3,"from_year":2012,"lat":59.28817,"local_area_name":"#FRITZNERBAKKEN","lon":11.11235,"number_of_bedrooms":2,"owner_type_description":"Eier (Selveier)","property_type_description":"Leilighet","size_from":89,"to_year":2012,"type":"realestate"},{"Location":"Bjørkelivegen 2, Arnavik","ad_id":250538502,"ad_link":"https://www.finn.no/realestate/homes/ad.html?finnkode=250538502","ad_type":1,"energy_label":3,"from_year":2012,"lat":59.7471,"local_area_name":null,"lon":5.7458,"number_of_bedrooms":2,"owner_type_description":"Eier (Selveier)","property_type_description":"Enebolig","size_from":68,"to_year":2012,"type":"realestate"},{"Location":"Kirkegata 57, Levanger","ad_id":235969237,"ad_link":"https://www.finn.no/realestate/homes/ad.html?finnkode=235969237","ad_type":1,"energy_label":3,"from_year":2012,"lat":63.74802,"local_area_name":"Levanger sentrum","lon":11.30133,"number_of_bedrooms":2,"owner_type_description":"Andel","property_type_description":"Leilighet","size_from":88,"to_year":2012,"type":"realestate"},{"Location":"Remman, Hugla, Vikholmen","ad_id":232202763,"ad_link":"https://www.finn.no/realestate/homes/ad.html?finnkode=232202763","ad_type":1,"energy_label":3,"from_year":2012,"lat":66.18499,"local_area_name":null,"lon":12.94988,"number_of_bedrooms":3,"owner_type_description":"Eier (Selveier)","property_type_description":"Enebolig","size_from":200,"to_year":2012,"type":"realestate"}]