[{"Location":"Orresteinen 3G, Isdalstø","ad_id":260897024,"ad_link":"https://www.finn.no/realestate/homes/ad.html?finnkode=260897024","ad_type":1,"energy_label":3,"from_year":2007,"lat":60.5542,"local_area_name":"Knarvik","lon":5.2776,"number_of_bedrooms":4,"owner_type_description":"Eier (Selveier)","property_type_description":"Rekkehus","size_from":114,"to_year":2007,"type":"realestate"},{"Location":"Tyvenlia 112, Rypefjord","ad_id":260597163,"ad_link":"https://www.finn.no/realestate/homes/ad.html?finnkode=260597163","ad_type":1,"energy_label":3,"from_year":2007,"lat":70.63736,"local_area_name":null,"lon":23.68207,"number_of_bedrooms":3,"owner_type_description":"Eier (Selveier)","property_type_description":"Enebolig","size_from":195,"to_year":2007,"type":"realestate"},{"Location":"Gjørtlervegen 1 A, Trondheim","ad_id":259751249,"ad_link":"https://www.finn.no/realestate/homes/ad.html?finnkode=259751249","ad_type":1,"energy_label":3,"from_year":2007,"lat":63.40454,"local_area_name":null,"lon":10.35805,"number_of_bedrooms":1,"owner_type_description":"Eier (Selveier)","property_type_description":"Leilighet","size_from":40,"to_year":2007,"type":"realestate"},{"Location":"Presthusvegen 28, Ranheim","ad_id":260984382,"ad_link":"https://www.finn.no/realestate/homes/ad.html?finnkode=260984382","ad_type":1,"energy_label":3,"from_year":2007,"lat":63.42301,"local_area_name":"RANHEIM","lon":10.51717,"number_of_bedrooms":3,"owner_type_description":"Eier (Selveier)","property_type_description":"Tomannsbolig","size_from":144,"to_year":2007,"type":"realestate"},{"Location":"Kirkeåsveien 19B, Oslo","ad_id":260914395,"ad_link":"https://www.finn.no/realestate/homes/ad.html?finnkode=260914395","ad_type":1,"energy_label":3,"from_year":2007,"lat":59.8832,"local_area_name":"Bekkelaget","lon":10.7905,"number_of_bedrooms":4,"owner_type_description":"Eier (Selveier)","property_type_description":"Tomannsbolig","size_from":173,"to_year":2007,"type":"realestate"},{"Location":"Strømsveien 79C, Strømmen","ad_id":260948990,"ad_link":"https://www.finn.no/realestate/homes/ad.html?finnkode=260948990","ad_type":1,"energy_label":3,"from_year":2007,"lat":59.9507,"local_area_name":"Strømmen","lon":11.011,"number_of_bedrooms":1,"owner_type_description":"Andel","property_type_description":"Leilighet","size_from":39,"to_year":2007,"type":"realestate"},{"Location":"Songdalsvegen 105B, Nodeland","ad_id":260934718,"ad_link":"https://www.finn.no/realestate/homes/ad.html?finnkode=260934718","ad_type":1,"energy_label":3,"from_year":2007,"lat":58.15583,"local_area_name":"Nodeland","lon":7.83446,"number_of_bedrooms":3,"owner_type_description":"Eier (Selveier)","property_type_description":"Leilighet","size_from":125,"to_year":2007,"type":"realestate"},{"Location":"Maihaugen 2, Ottestad","ad_id":260643368,"ad_link":"https://www.finn.no/realestate/homes/ad.html?finnkode=260643368","ad_type":1,"energy_label":3,"from_year":2007,"lat":60.77,"local_area_name":null,"lon":11.125,"number_of_bedrooms":3,"owner_type_description":"Eier (Selveier)","property_type_description":"Enebolig","size_from":126,"to_year":2007,"type":"realestate"},{"Location":"Johanne Borgens veg 6E, Kløfta","ad_id":260873021,"ad_link":"https://www.finn.no/realestate/homes/ad.html?finnkode=260873021","ad_type":1,"energy_label":3,"from_year":2007,"lat":60.10118,"local_area_name":"Borgen","lon":11.22108,"number_of_bedrooms":2,"owner_type_description":"Andel","property_type_description":"Leilighet","size_from":62,"to_year":2007,"type":"realestate"},{"Location":"Vidsynvegen 33, Ålesund","ad_id":260772266,"ad_link":"https://www.finn.no/realestate/homes/ad.html?finnkode=260772266","ad_type":1,"energy_label":3,"from_year":2007,"lat":62.4664,"local_area_name":"LERSTAD","lon":6.289,"number_of_bedrooms":4,"owner_type_description":"Eier (Selveier)","property_type_description":"Tomannsbolig","size_from":121,"to_year":2007,"type":"realestate"},{"Location":"Kyavegen 19, Trondheim","ad_id":260650109,"ad_link":"https://www.finn.no/realestate/homes/ad.html?finnkode=260650109","ad_type":1,"energy_label":3,"from_year":2007,"lat":63.4326,"local_area_name":"PERSAUNET","lon":10.4459,"number_of_bedrooms":3,"owner_type_description":"Andel","property_type_description":"Leilighet","size_from":110,"to_year":2007,"type":"realestate"},{"Location":"Margarethas vei 2, Lørenskog","ad_id":260695792,"ad_link":"https://www.finn.no/realestate/homes/ad.html?finnkode=260695792","ad_type":1,"energy_label":3,"from_year":2007,"lat":59.9285,"local_area_name":"Lørenskog","lon":10.9491,"number_of_bedrooms":1,"owner_type_description":"Andel","property_type_description":"Leilighet","size_from":43,"to_year":2007,"type":"realestate"},{"Location":"Karlstadgata 29, Oslo","ad_id":248099825,"ad_link":"https://www.finn.no/realestate/homes/ad.html?finnkode=248099825","ad_type":1,"energy_label":3,"from_year":2007,"lat":59.92492,"local_area_name":"Grünerløkka/Rodeløkka","lon":10.7638,"number_of_bedrooms":2,"owner_type_description":"Eier (Selveier)","property_type_description":"Leilighet","size_from":71,"to_year":2007,"type":"realestate"},{"Location":"Nedre Ila 5, Trondheim","ad_id":260664274,"ad_link":"https://www.finn.no/realestate/homes/ad.html?finnkode=260664274","ad_type":1,"energy_label":3,"from_year":2007,"lat":63.43127,"local_area_name":"Ila","lon":10.37187,"number_of_bedrooms":2,"owner_type_description":"Andel","property_type_description":"Leilighet","size_from":69,"to_year":2007,"type":"realestate"},{"Location":"Pilestredet Park 18, Oslo","ad_id":260522903,"ad_link":"https://www.finn.no/realestate/homes/ad.html?finnkode=260522903","ad_type":1,"energy_label":3,"from_year":2007,"lat":59.9201,"local_area_name":"Pilestredet Park","lon":10.7393,"number_of_bedrooms":2,"owner_type_description":"Andel","property_type_description":"Leilighet","size_from":53,"to_year":2007,"type":"realestate"},{"Location":"Wilhelm K. Størens veg 46, Trondheim","ad_id":260119704,"ad_link":"https://www.finn.no/realestate/homes/ad.html?finnkode=260119704","ad_type":1,"energy_label":3,"from_year":2007,"lat":63.4141,"local_area_name":"ANGELLTRØA/GRANÅSLIA","lon":10.4716,"number_of_bedrooms":5,"owner_type_description":"Eier (Selveier)","property_type_description":"Rekkehus","size_from":151,"to_year":2007,"type":"realestate"},{"Location":"Strømsveien 57, Strømmen","ad_id":260407768,"ad_link":"https://www.finn.no/realestate/homes/ad.html?finnkode=260407768","ad_type":1,"energy_label":3,"from_year":2007,"lat":59.9474,"local_area_name":null,"lon":11.0097,"number_of_bedrooms":1,"owner_type_description":"Andel","property_type_description":"Leilighet","size_from":36,"to_year":2007,"type":"realestate"},{"Location":"Løkkegata 10, Lillehammer","ad_id":260385324,"ad_link":"https://www.finn.no/realestate/homes/ad.html?finnkode=260385324","ad_type":1,"energy_label":3,"from_year":2007,"lat":61.1189,"local_area_name":"Lillehammer","lon":10.45564,"number_of_bedrooms":1,"owner_type_description":"Andel","property_type_description":"Leilighet","size_from":45,"to_year":2007,"type":"realestate"},{"Location":"Svarttrosttoppen 9B, Sørumsand","ad_id":260168716,"ad_link":"https://www.finn.no/realestate/homes/ad.html?finnkode=260168716","ad_type":1,"energy_label":3,"from_year":2007,"lat":59.96908,"local_area_name":"Sørumsand","lon":11.24535,"number_of_bedrooms":0,"owner_type_description":"Eier (Selveier)","property_type_description":"Tomannsbolig","size_from":168,"to_year":2007,"type":"realestate"},{"Location":"Nedre Ila 5, Trondheim","ad_id":260108948,"ad_link":"https://www.finn.no/realestate/homes/ad.html?finnkode=260108948","ad_type":1,"energy_label":3,"from_year":2007,"lat":63.43127,"local_area_name":"ILA","lon":10.37187,"number_of_bedrooms":1,"owner_type_description":"Andel","property_type_description":"Leilighet","size_from":50,"to_year":2007,"type":"realestate"},{"Location":"Tangeodden 8A, Steinberg","ad_id":250583312,"ad_link":"https://www.finn.no/realestate/homes/ad.html?finnkode=250583312","ad_type":1,"energy_label":3,"from_year":2007,"lat":59.76256,"local_area_name":"Steinberg","lon":9.96099,"number_of_bedrooms":6,"owner_type_description":"Eier (Selveier)","property_type_description":"Tomannsbolig","size_from":264,"to_year":2007,"type":"realestate"},{"Location":"Anders Søyseths veg 14 G, Ranheim","ad_id":260017821,"ad_link":"https://www.finn.no/realestate/homes/ad.html?finnkode=260017821","ad_type":1,"energy_label":3,"from_year":2007,"lat":63.43112,"local_area_name":"Ranheim","lon":10.51261,"number_of_bedrooms":2,"owner_type_description":"Andel","property_type_description":"Leilighet","size_from":62,"to_year":2007,"type":"realestate"},{"Location":"Sørkedalsveien 252C, Oslo","ad_id":258360789,"ad_link":"https://www.finn.no/realestate/homes/ad.html?finnkode=258360789","ad_type":1,"energy_label":3,"from_year":2007,"lat":59.9599,"local_area_name":"Røa / Bogstad","lon":10.6406,"number_of_bedrooms":4,"owner_type_description":"Eier (Selveier)","property_type_description":"Tomannsbolig","size_from":156,"to_year":2007,"type":"realestate"},{"Location":"Klypevegen 10B, Notodden","ad_id":260001650,"ad_link":"https://www.finn.no/realestate/homes/ad.html?finnkode=260001650","ad_type":1,"energy_label":3,"from_year":2007,"lat":59.5667,"local_area_name":"Kaasa Terrasse","lon":9.2888,"number_of_bedrooms":4,"owner_type_description":"Eier (Selveier)","property_type_description":"Tomannsbolig","size_from":142,"to_year":2007,"type":"realestate"},{"Location":"Lerkerinden 24, Bergen","ad_id":253162640,"ad_link":"https://www.finn.no/realestate/homes/ad.html?finnkode=253162640","ad_type":1,"energy_label":3,"from_year":2007,"lat":60.33972,"local_area_name":null,"lon":5.36304,"number_of_bedrooms":1,"owner_type_description":"Andel","property_type_description":"Leilighet","size_from":33,"to_year":2007,"type":"realestate"},{"Location":"Apeltunhaugene 58, Rådal","ad_id":259751113,"ad_link":"https://www.finn.no/realestate/homes/ad.html?finnkode=259751113","ad_type":1,"energy_label":3,"from_year":2007,"lat":60.29065,"local_area_name":null,"lon":5.3408,"number_of_bedrooms":3,"owner_type_description":"Eier (Selveier)","property_type_description":"Rekkehus","size_from":132,"to_year":2007,"type":"realestate"},{"Location":"Grønliveien 27, Strømmen","ad_id":259081680,"ad_link":"https://www.finn.no/realestate/homes/ad.html?finnkode=259081680","ad_type":1,"energy_label":3,"from_year":2007,"lat":59.9482,"local_area_name":null,"lon":10.9996,"number_of_bedrooms":1,"owner_type_description":"Andel","property_type_description":"Leilighet","size_from":40,"to_year":2007,"type":"realestate"},{"Location":"Sjøgata 6, Bodø","ad_id":258930355,"ad_link":"https://www.finn.no/realestate/homes/ad.html?finnkode=258930355","ad_type":1,"energy_label":3,"from_year":2007,"lat":67.2838,"local_area_name":null,"lon":14.3769,"number_of_bedrooms":1,"owner_type_description":"Andel","property_type_description":"Leilighet","size_from":50,"to_year":2007,"type":"realestate"},{"Location":"Tyrivegen 22, Elverum","ad_id":258861941,"ad_link":"https://www.finn.no/realestate/homes/ad.html?finnkode=258861941","ad_type":1,"energy_label":3,"from_year":2007,"lat":60.90016,"local_area_name":"SØBAKKEN","lon":11.57286,"number_of_bedrooms":4,"owner_type_description":"Eier (Selveier)","property_type_description":"Enebolig","size_from":82,"to_year":2007,"type":"realestate"},{"Location":"Kyrkjeveien 13B, Randaberg","ad_id":257886623,"ad_link":"https://www.finn.no/realestate/homes/ad.html?finnkode=257886623","ad_type":1,"energy_label":3,"from_year":2007,"lat":58.9977,"local_area_name":"Randaberg sentrum","lon":5.6207,"number_of_bedrooms":3,"owner_type_description":"Eier (Selveier)","property_type_description":"Rekkehus","size_from":143,"to_year":2007,"type":"realestate"},{"Location":"Sølbergvegen 103, Fannrem","ad_id":257069293,"ad_link":"https://www.finn.no/realestate/homes/ad.html?finnkode=257069293","ad_type":1,"energy_label":3,"from_year":2007,"lat":63.26406,"local_area_name":null,"lon":9.77228,"number_of_bedrooms":2,"owner_type_description":"Eier (Selveier)","property_type_description":"Enebolig","size_from":106,"to_year":2007,"type":"realestate"},{"Location":"Bjønnesmoen 15, Ankenes","ad_id":257025636,"ad_link":"https://www.finn.no/realestate/homes/ad.html?finnkode=257025636","ad_type":1,"energy_label":3,"from_year":2007,"lat":68.40209,"local_area_name":null,"lon":17.32668,"number_of_bedrooms":3,"owner_type_description":"Eier (Selveier)","property_type_description":"Enebolig","size_from":142,"to_year":2007,"type":"realestate"},{"Location":"Eftelandsveien 75, Helleland","ad_id":256017021,"ad_link":"https://www.finn.no/realestate/homes/ad.html?finnkode=256017021","ad_type":1,"energy_label":3,"from_year":2007,"lat":58.5365,"local_area_name":"Helleland","lon":6.1304,"number_of_bedrooms":3,"owner_type_description":"Eier (Selveier)","property_type_description":"Enebolig","size_from":166,"to_year":2007,"type":"realestate"},{"Location":"Heimdalsgata 10A, Oslo","ad_id":247796716,"ad_link":"https://www.finn.no/realestate/homes/ad.html?finnkode=247796716","ad_type":1,"energy_label":3,"from_year":2007,"lat":59.9179,"local_area_name":"Grünerløkka","lon":10.7626,"number_of_bedrooms":1,"owner_type_description":"Andel","property_type_description":"Leilighet","size_from":33,"to_year":2007,"type":"realestate"},{"Location":"Nedre Holmegate 9A, Stavanger","ad_id":254648860,"ad_link":"https://www.finn.no/realestate/homes/ad.html?finnkode=254648860","ad_type":1,"energy_label":3,"from_year":2007,"lat":58.9731,"local_area_name":"Stavanger sentrum","lon":5.7312,"number_of_bedrooms":2,"owner_type_description":"Eier (Selveier)","property_type_description":"Leilighet","size_from":79,"to_year":2007,"type":"realestate"},{"Location":"Smørhamnsvegen 413, Bremanger","ad_id":249948509,"ad_link":"https://www.finn.no/realestate/homes/ad.html?finnkode=249948509","ad_type":1,"energy_label":3,"from_year":2007,"lat":61.82072,"local_area_name":null,"lon":4.9609,"number_of_bedrooms":5,"owner_type_description":"Eier (Selveier)","property_type_description":"Enebolig","size_from":181,"to_year":2007,"type":"realestate"},{"Location":"Ringveien 4 A, Rognan","ad_id":232893477,"ad_link":"https://www.finn.no/realestate/homes/ad.html?finnkode=232893477","ad_type":1,"energy_label":3,"from_year":2007,"lat":67.10197,"local_area_name":null,"lon":15.4044,"number_of_bedrooms":3,"owner_type_description":"Andel","property_type_description":"Leilighet","size_from":79,"to_year":2007,"type":"realestate"},{"Location":"Jøriberget 52, Frei","ad_id":246308653,"ad_link":"https://www.finn.no/realestate/homes/ad.html?finnkode=246308653","ad_type":1,"energy_label":3,"from_year":2007,"lat":63.09874,"local_area_name":"Jørihaugen","lon":7.81064,"number_of_bedrooms":4,"owner_type_description":"Eier (Selveier)","property_type_description":"Enebolig","size_from":208,"to_year":2007,"type":"realestate"}]