[{"Location":"Camilla Colletts vei 5, Oslo","ad_id":260645771,"ad_link":"https://www.finn.no/realestate/homes/ad.html?finnkode=260645771","ad_type":1,"energy_label":7,"from_year":1897,"lat":59.9198,"local_area_name":"Frogner","lon":10.7212,"number_of_bedrooms":3,"owner_type_description":"Eier (Selveier)","property_type_description":"Leilighet","size_from":158,"to_year":1897,"type":"realestate"},{"Location":"Frognerveien 1B, Oslo","ad_id":254846741,"ad_link":"https://www.finn.no/realestate/homes/ad.html?finnkode=254846741","ad_type":1,"energy_label":7,"from_year":1897,"lat":59.91536,"local_area_name":"SOLLI PLASS / FROGNER","lon":10.71734,"number_of_bedrooms":6,"owner_type_description":"Eier (Selveier)","property_type_description":"Leilighet","size_from":180,"to_year":1897,"type":"realestate"},{"Location":"Toftes gate 32, Oslo","ad_id":261359458,"ad_link":"https://www.finn.no/realestate/homes/ad.html?finnkode=261359458","ad_type":1,"energy_label":7,"from_year":1897,"lat":59.92684,"local_area_name":"# GRÜNERLØKKA / BIRKELUNDEN","lon":10.76125,"number_of_bedrooms":1,"owner_type_description":"Andel","property_type_description":"Leilighet","size_from":37,"to_year":1897,"type":"realestate"},{"Location":"Torshovgata 1B, Oslo","ad_id":261084063,"ad_link":"https://www.finn.no/realestate/homes/ad.html?finnkode=261084063","ad_type":1,"energy_label":7,"from_year":1897,"lat":59.93395,"local_area_name":"I hjertet av Torshov","lon":10.76197,"number_of_bedrooms":1,"owner_type_description":"Andel","property_type_description":"Leilighet","size_from":49,"to_year":1897,"type":"realestate"},{"Location":"Dælenenggata 38B, Oslo","ad_id":260903180,"ad_link":"https://www.finn.no/realestate/homes/ad.html?finnkode=260903180","ad_type":1,"energy_label":7,"from_year":1897,"lat":59.9286,"local_area_name":"ØVRE GRÛNERLØKKA","lon":10.7675,"number_of_bedrooms":1,"owner_type_description":"Andel","property_type_description":"Leilighet","size_from":35,"to_year":1897,"type":"realestate"},{"Location":"Trondheimsveien 18B, Oslo","ad_id":260882180,"ad_link":"https://www.finn.no/realestate/homes/ad.html?finnkode=260882180","ad_type":1,"energy_label":7,"from_year":1897,"lat":59.9199,"local_area_name":"GRÜNERLØKKA","lon":10.7656,"number_of_bedrooms":1,"owner_type_description":"Andel","property_type_description":"Leilighet","size_from":55,"to_year":1897,"type":"realestate"},{"Location":"Wessels gate 28B, Trondheim","ad_id":260889783,"ad_link":"https://www.finn.no/realestate/homes/ad.html?finnkode=260889783","ad_type":1,"energy_label":7,"from_year":1897,"lat":63.433,"local_area_name":"Møllenberg","lon":10.419,"number_of_bedrooms":2,"owner_type_description":"Andel","property_type_description":"Leilighet","size_from":74,"to_year":1897,"type":"realestate"},{"Location":"Dælenenggata 38C, Oslo","ad_id":260048235,"ad_link":"https://www.finn.no/realestate/homes/ad.html?finnkode=260048235","ad_type":1,"energy_label":7,"from_year":1897,"lat":59.9285,"local_area_name":"Grünerløkka","lon":10.7677,"number_of_bedrooms":1,"owner_type_description":"Andel","property_type_description":"Leilighet","size_from":41,"to_year":1897,"type":"realestate"},{"Location":"Sarpsborggata 1D, Oslo","ad_id":259740264,"ad_link":"https://www.finn.no/realestate/homes/ad.html?finnkode=259740264","ad_type":1,"energy_label":7,"from_year":1897,"lat":59.94183,"local_area_name":"Sagene/Bjølsen","lon":10.75813,"number_of_bedrooms":2,"owner_type_description":"Eier (Selveier)","property_type_description":"Leilighet","size_from":50,"to_year":1897,"type":"realestate"},{"Location":"Skovveien 13A, Oslo","ad_id":252368571,"ad_link":"https://www.finn.no/realestate/homes/ad.html?finnkode=252368571","ad_type":1,"energy_label":7,"from_year":1897,"lat":59.9176,"local_area_name":"FROGNER","lon":10.7183,"number_of_bedrooms":2,"owner_type_description":"Eier (Selveier)","property_type_description":"Leilighet","size_from":145,"to_year":1897,"type":"realestate"},{"Location":"Stangevegen 98, Hamar","ad_id":259709799,"ad_link":"https://www.finn.no/realestate/homes/ad.html?finnkode=259709799","ad_type":1,"energy_label":7,"from_year":1897,"lat":60.79139,"local_area_name":null,"lon":11.09095,"number_of_bedrooms":5,"owner_type_description":"Eier (Selveier)","property_type_description":"Enebolig","size_from":194,"to_year":1897,"type":"realestate"},{"Location":"Akersbakken 25D, Oslo","ad_id":258308865,"ad_link":"https://www.finn.no/realestate/homes/ad.html?finnkode=258308865","ad_type":1,"energy_label":7,"from_year":1897,"lat":59.9241,"local_area_name":"ST. HANSHAUGEN","lon":10.746,"number_of_bedrooms":1,"owner_type_description":"Eier (Selveier)","property_type_description":"Leilighet","size_from":59,"to_year":1897,"type":"realestate"},{"Location":"Bogstadveien 58, Oslo","ad_id":259556715,"ad_link":"https://www.finn.no/realestate/homes/ad.html?finnkode=259556715","ad_type":1,"energy_label":7,"from_year":1897,"lat":59.92814,"local_area_name":null,"lon":10.71737,"number_of_bedrooms":2,"owner_type_description":"Eier (Selveier)","property_type_description":"Leilighet","size_from":88,"to_year":1897,"type":"realestate"},{"Location":"Arbos gate 1D, Oslo","ad_id":259089126,"ad_link":"https://www.finn.no/realestate/homes/ad.html?finnkode=259089126","ad_type":1,"energy_label":7,"from_year":1897,"lat":59.9287,"local_area_name":"Majorstuen","lon":10.7136,"number_of_bedrooms":1,"owner_type_description":"Andel","property_type_description":"Leilighet","size_from":35,"to_year":1897,"type":"realestate"}]