[{"Location":"Vadmyrveien 28, Loddefjord","ad_id":261476174,"ad_link":"https://www.finn.no/realestate/homes/ad.html?finnkode=261476174","ad_type":1,"energy_label":6,"from_year":1971,"lat":60.36253,"local_area_name":"Bergen Vest","lon":5.22784,"number_of_bedrooms":2,"owner_type_description":"Andel","property_type_description":"Leilighet","size_from":72,"to_year":1971,"type":"realestate"},{"Location":"Adolf Øiens veg 7A, Trondheim","ad_id":261471557,"ad_link":"https://www.finn.no/realestate/homes/ad.html?finnkode=261471557","ad_type":1,"energy_label":6,"from_year":1971,"lat":63.39594,"local_area_name":"RISVOLLAN","lon":10.42367,"number_of_bedrooms":4,"owner_type_description":"Andel","property_type_description":"Rekkehus","size_from":142,"to_year":1971,"type":"realestate"},{"Location":"Hoffsveien 43A, Oslo","ad_id":261471172,"ad_link":"https://www.finn.no/realestate/homes/ad.html?finnkode=261471172","ad_type":1,"energy_label":6,"from_year":1971,"lat":59.93188,"local_area_name":"SMESTAD","lon":10.67727,"number_of_bedrooms":3,"owner_type_description":"Eier (Selveier)","property_type_description":"Leilighet","size_from":104,"to_year":1971,"type":"realestate"},{"Location":"Ravnkollbakken 51, Oslo","ad_id":261454476,"ad_link":"https://www.finn.no/realestate/homes/ad.html?finnkode=261454476","ad_type":1,"energy_label":6,"from_year":1971,"lat":59.96617,"local_area_name":null,"lon":10.89101,"number_of_bedrooms":2,"owner_type_description":"Andel","property_type_description":"Leilighet","size_from":79,"to_year":1971,"type":"realestate"},{"Location":"Ringveien 41A, Nittedal","ad_id":261317147,"ad_link":"https://www.finn.no/realestate/homes/ad.html?finnkode=261317147","ad_type":1,"energy_label":6,"from_year":1971,"lat":60.0613,"local_area_name":"Rotnes/Sørli","lon":10.8524,"number_of_bedrooms":4,"owner_type_description":"Eier (Selveier)","property_type_description":"Enebolig","size_from":205,"to_year":1971,"type":"realestate"},{"Location":"Hovseterveien 52A, Oslo","ad_id":260771632,"ad_link":"https://www.finn.no/realestate/homes/ad.html?finnkode=260771632","ad_type":1,"energy_label":6,"from_year":1971,"lat":59.9491,"local_area_name":"Hovseter / Meklenborg","lon":10.6518,"number_of_bedrooms":2,"owner_type_description":"Andel","property_type_description":"Leilighet","size_from":83,"to_year":1971,"type":"realestate"},{"Location":"Vestre Vadmyra 35, Loddefjord","ad_id":261349484,"ad_link":"https://www.finn.no/realestate/homes/ad.html?finnkode=261349484","ad_type":1,"energy_label":6,"from_year":1971,"lat":60.3637,"local_area_name":"Bergen Vest","lon":5.2221,"number_of_bedrooms":2,"owner_type_description":"Andel","property_type_description":"Leilighet","size_from":71,"to_year":1971,"type":"realestate"},{"Location":"Sørdalsveien 1126, Åfjord","ad_id":247141964,"ad_link":"https://www.finn.no/realestate/homes/ad.html?finnkode=247141964","ad_type":1,"energy_label":6,"from_year":1971,"lat":63.92405,"local_area_name":"SØRDALEN/ÅFJORD","lon":10.40986,"number_of_bedrooms":3,"owner_type_description":"Eier (Selveier)","property_type_description":"Enebolig","size_from":101,"to_year":1971,"type":"realestate"},{"Location":"Fagerlivegen 4 A, Ålesund","ad_id":261311819,"ad_link":"https://www.finn.no/realestate/homes/ad.html?finnkode=261311819","ad_type":1,"energy_label":6,"from_year":1971,"lat":62.47249,"local_area_name":"Fagerlia","lon":6.22141,"number_of_bedrooms":1,"owner_type_description":"Eier (Selveier)","property_type_description":"Leilighet","size_from":30,"to_year":1971,"type":"realestate"},{"Location":"Skåreråsen 12, Lørenskog","ad_id":261261008,"ad_link":"https://www.finn.no/realestate/homes/ad.html?finnkode=261261008","ad_type":1,"energy_label":6,"from_year":1971,"lat":59.9228,"local_area_name":"Skårer/Lørenskog","lon":10.962,"number_of_bedrooms":2,"owner_type_description":"Andel","property_type_description":"Leilighet","size_from":73,"to_year":1971,"type":"realestate"},{"Location":"Oles veg 143, Skarnes","ad_id":261184550,"ad_link":"https://www.finn.no/realestate/homes/ad.html?finnkode=261184550","ad_type":1,"energy_label":6,"from_year":1971,"lat":60.22277,"local_area_name":"Skarnes","lon":11.60977,"number_of_bedrooms":3,"owner_type_description":"Eier (Selveier)","property_type_description":"Enebolig","size_from":123,"to_year":1971,"type":"realestate"},{"Location":"Larsbråtveien 99, Oslo","ad_id":260846122,"ad_link":"https://www.finn.no/realestate/homes/ad.html?finnkode=260846122","ad_type":1,"energy_label":6,"from_year":1971,"lat":59.9163,"local_area_name":"FAMILIEBOLIG PÅ HAUGERUD","lon":10.8581,"number_of_bedrooms":3,"owner_type_description":"Andel","property_type_description":"Rekkehus","size_from":95,"to_year":1971,"type":"realestate"},{"Location":"Nordgårdsvegen 16, Skage i Namdalen","ad_id":260956599,"ad_link":"https://www.finn.no/realestate/homes/ad.html?finnkode=260956599","ad_type":1,"energy_label":6,"from_year":1971,"lat":64.46621,"local_area_name":null,"lon":11.79252,"number_of_bedrooms":3,"owner_type_description":"Eier (Selveier)","property_type_description":"Enebolig","size_from":141,"to_year":1971,"type":"realestate"},{"Location":"Rødbergvegen 12, Selbu","ad_id":260950806,"ad_link":"https://www.finn.no/realestate/homes/ad.html?finnkode=260950806","ad_type":1,"energy_label":6,"from_year":1971,"lat":63.22547,"local_area_name":null,"lon":11.02817,"number_of_bedrooms":5,"owner_type_description":"Eier (Selveier)","property_type_description":"Enebolig","size_from":285,"to_year":1971,"type":"realestate"},{"Location":"Rudsdalen 106, Gjettum","ad_id":260937069,"ad_link":"https://www.finn.no/realestate/homes/ad.html?finnkode=260937069","ad_type":1,"energy_label":6,"from_year":1971,"lat":59.9054,"local_area_name":"GJETTUM","lon":10.50308,"number_of_bedrooms":3,"owner_type_description":"Eier (Selveier)","property_type_description":"Rekkehus","size_from":94,"to_year":1971,"type":"realestate"},{"Location":"Saksviklia 67, Saksvik","ad_id":260934854,"ad_link":"https://www.finn.no/realestate/homes/ad.html?finnkode=260934854","ad_type":1,"energy_label":6,"from_year":1971,"lat":63.43375,"local_area_name":"Saksvik","lon":10.60977,"number_of_bedrooms":3,"owner_type_description":"Eier (Selveier)","property_type_description":"Enebolig","size_from":156,"to_year":1971,"type":"realestate"},{"Location":"Harald Sohlbergs vei 20, Oslo","ad_id":260777143,"ad_link":"https://www.finn.no/realestate/homes/ad.html?finnkode=260777143","ad_type":1,"energy_label":6,"from_year":1971,"lat":59.9346,"local_area_name":"Karihaugen/ Ellingsrud","lon":10.9213,"number_of_bedrooms":2,"owner_type_description":"Andel","property_type_description":"Leilighet","size_from":71,"to_year":1971,"type":"realestate"},{"Location":"Leikvangvegen 58, Breistein","ad_id":260890261,"ad_link":"https://www.finn.no/realestate/homes/ad.html?finnkode=260890261","ad_type":1,"energy_label":6,"from_year":1971,"lat":60.49289,"local_area_name":null,"lon":5.38694,"number_of_bedrooms":1,"owner_type_description":"Eier (Selveier)","property_type_description":"Leilighet","size_from":31,"to_year":1971,"type":"realestate"},{"Location":"Theodor Kollers vei 11C, Gamle Fredrikstad","ad_id":260871856,"ad_link":"https://www.finn.no/realestate/homes/ad.html?finnkode=260871856","ad_type":1,"energy_label":6,"from_year":1971,"lat":59.2129,"local_area_name":"Haugsten","lon":10.9854,"number_of_bedrooms":2,"owner_type_description":"Andel","property_type_description":"Leilighet","size_from":78,"to_year":1971,"type":"realestate"},{"Location":"Runden 6, Roa","ad_id":260714582,"ad_link":"https://www.finn.no/realestate/homes/ad.html?finnkode=260714582","ad_type":1,"energy_label":6,"from_year":1971,"lat":60.29056,"local_area_name":null,"lon":10.61011,"number_of_bedrooms":3,"owner_type_description":"Eier (Selveier)","property_type_description":"Enebolig","size_from":94,"to_year":1971,"type":"realestate"},{"Location":"Vådanvegen 25, Trondheim","ad_id":260686407,"ad_link":"https://www.finn.no/realestate/homes/ad.html?finnkode=260686407","ad_type":1,"energy_label":6,"from_year":1971,"lat":63.39464,"local_area_name":null,"lon":10.32687,"number_of_bedrooms":2,"owner_type_description":"Andel","property_type_description":"Leilighet","size_from":61,"to_year":1971,"type":"realestate"},{"Location":"Leistadgrenda 15, Trondheim","ad_id":260680435,"ad_link":"https://www.finn.no/realestate/homes/ad.html?finnkode=260680435","ad_type":1,"energy_label":6,"from_year":1971,"lat":63.42004,"local_area_name":"BRUNDALEN","lon":10.47902,"number_of_bedrooms":3,"owner_type_description":"Andel","property_type_description":"Leilighet","size_from":99,"to_year":1971,"type":"realestate"},{"Location":"Vadmyrveien 4, Loddefjord","ad_id":260409229,"ad_link":"https://www.finn.no/realestate/homes/ad.html?finnkode=260409229","ad_type":1,"energy_label":6,"from_year":1971,"lat":60.3613,"local_area_name":null,"lon":5.2294,"number_of_bedrooms":2,"owner_type_description":"Andel","property_type_description":"Leilighet","size_from":67,"to_year":1971,"type":"realestate"},{"Location":"Riperbakken 9 C, Hønefoss","ad_id":252089836,"ad_link":"https://www.finn.no/realestate/homes/ad.html?finnkode=252089836","ad_type":1,"energy_label":6,"from_year":1971,"lat":60.16648,"local_area_name":null,"lon":10.24847,"number_of_bedrooms":2,"owner_type_description":"Eier (Selveier)","property_type_description":"Rekkehus","size_from":105,"to_year":1971,"type":"realestate"},{"Location":"Hubroveien 5, Vikersund","ad_id":260037806,"ad_link":"https://www.finn.no/realestate/homes/ad.html?finnkode=260037806","ad_type":1,"energy_label":6,"from_year":1971,"lat":59.9779,"local_area_name":"Vikersund","lon":9.9923,"number_of_bedrooms":4,"owner_type_description":"Eier (Selveier)","property_type_description":"Enebolig","size_from":106,"to_year":1971,"type":"realestate"},{"Location":"Dalveien 114B, Greåker","ad_id":260022176,"ad_link":"https://www.finn.no/realestate/homes/ad.html?finnkode=260022176","ad_type":1,"energy_label":6,"from_year":1971,"lat":59.2807,"local_area_name":"Greåker","lon":11.0478,"number_of_bedrooms":1,"owner_type_description":"Andel","property_type_description":"Leilighet","size_from":51,"to_year":1971,"type":"realestate"},{"Location":"Bjørnebærstien 43, Rykkinn","ad_id":259745254,"ad_link":"https://www.finn.no/realestate/homes/ad.html?finnkode=259745254","ad_type":1,"energy_label":6,"from_year":1971,"lat":59.9272,"local_area_name":"Rykkinn","lon":10.4803,"number_of_bedrooms":0,"owner_type_description":"Andel","property_type_description":"Leilighet","size_from":26,"to_year":1971,"type":"realestate"},{"Location":"Håvardsvegen 6A, Øvre Årdal","ad_id":260015818,"ad_link":"https://www.finn.no/realestate/homes/ad.html?finnkode=260015818","ad_type":1,"energy_label":6,"from_year":1971,"lat":61.3079,"local_area_name":null,"lon":7.7929,"number_of_bedrooms":4,"owner_type_description":"Eier (Selveier)","property_type_description":"Tomannsbolig","size_from":140,"to_year":1971,"type":"realestate"},{"Location":"Øvre Rømmesbakkan 2, Orkanger","ad_id":260002676,"ad_link":"https://www.finn.no/realestate/homes/ad.html?finnkode=260002676","ad_type":1,"energy_label":6,"from_year":1971,"lat":63.30312,"local_area_name":null,"lon":9.85553,"number_of_bedrooms":4,"owner_type_description":"Eier (Selveier)","property_type_description":"Enebolig","size_from":170,"to_year":1971,"type":"realestate"},{"Location":"Glåmvegen 2, Våler i Solør","ad_id":259615240,"ad_link":"https://www.finn.no/realestate/homes/ad.html?finnkode=259615240","ad_type":1,"energy_label":6,"from_year":1971,"lat":60.6699,"local_area_name":null,"lon":11.8312,"number_of_bedrooms":3,"owner_type_description":"Eier (Selveier)","property_type_description":"Enebolig","size_from":225,"to_year":1971,"type":"realestate"},{"Location":"Adolf Øiens veg 7D, Trondheim","ad_id":259715337,"ad_link":"https://www.finn.no/realestate/homes/ad.html?finnkode=259715337","ad_type":1,"energy_label":6,"from_year":1971,"lat":63.3958,"local_area_name":"Risvollan","lon":10.4237,"number_of_bedrooms":4,"owner_type_description":"Andel","property_type_description":"Rekkehus","size_from":108,"to_year":1971,"type":"realestate"},{"Location":"Søbakkvegen 5, Elverum","ad_id":259610328,"ad_link":"https://www.finn.no/realestate/homes/ad.html?finnkode=259610328","ad_type":1,"energy_label":6,"from_year":1971,"lat":60.9001,"local_area_name":"Søbakken","lon":11.5625,"number_of_bedrooms":6,"owner_type_description":"Eier (Selveier)","property_type_description":"Enebolig","size_from":253,"to_year":1971,"type":"realestate"},{"Location":"Knappenveien 36, Straumsgrend","ad_id":251550968,"ad_link":"https://www.finn.no/realestate/homes/ad.html?finnkode=251550968","ad_type":1,"energy_label":6,"from_year":1971,"lat":60.3232,"local_area_name":"Søreide / Straumsgrend - Bør sees!","lon":5.2631,"number_of_bedrooms":2,"owner_type_description":"Eier (Selveier)","property_type_description":"Enebolig","size_from":154,"to_year":1971,"type":"realestate"},{"Location":"Tord Pedersens gate 83A, Drammen","ad_id":259149860,"ad_link":"https://www.finn.no/realestate/homes/ad.html?finnkode=259149860","ad_type":1,"energy_label":6,"from_year":1971,"lat":59.7519,"local_area_name":"Strøtvedt","lon":10.21726,"number_of_bedrooms":1,"owner_type_description":"Eier (Selveier)","property_type_description":"Leilighet","size_from":53,"to_year":1971,"type":"realestate"},{"Location":"Gamle Dusavikveien 27, Stavanger","ad_id":258210082,"ad_link":"https://www.finn.no/realestate/homes/ad.html?finnkode=258210082","ad_type":1,"energy_label":6,"from_year":1971,"lat":58.9952,"local_area_name":null,"lon":5.6777,"number_of_bedrooms":5,"owner_type_description":"Eier (Selveier)","property_type_description":"Tomannsbolig","size_from":140,"to_year":1971,"type":"realestate"},{"Location":"Vesteråsveien 42 B, Dilling","ad_id":258350784,"ad_link":"https://www.finn.no/realestate/homes/ad.html?finnkode=258350784","ad_type":1,"energy_label":6,"from_year":1971,"lat":59.38305,"local_area_name":"VANG","lon":10.68851,"number_of_bedrooms":1,"owner_type_description":"Eier (Selveier)","property_type_description":"Tomannsbolig","size_from":33,"to_year":1971,"type":"realestate"},{"Location":"Vågaleitet 4A, Straume","ad_id":258328471,"ad_link":"https://www.finn.no/realestate/homes/ad.html?finnkode=258328471","ad_type":1,"energy_label":6,"from_year":1971,"lat":60.38144,"local_area_name":"Foldnes","lon":5.11579,"number_of_bedrooms":5,"owner_type_description":"Eier (Selveier)","property_type_description":"Enebolig","size_from":148,"to_year":1971,"type":"realestate"},{"Location":"Brynelia 4, Vanse","ad_id":255322627,"ad_link":"https://www.finn.no/realestate/homes/ad.html?finnkode=255322627","ad_type":1,"energy_label":6,"from_year":1971,"lat":58.09761,"local_area_name":null,"lon":6.70055,"number_of_bedrooms":3,"owner_type_description":"Eier (Selveier)","property_type_description":"Enebolig","size_from":160,"to_year":1971,"type":"realestate"},{"Location":"Sportsveien 22C, Sandefjord","ad_id":255698038,"ad_link":"https://www.finn.no/realestate/homes/ad.html?finnkode=255698038","ad_type":1,"energy_label":6,"from_year":1971,"lat":59.1324,"local_area_name":"Bugården","lon":10.1852,"number_of_bedrooms":2,"owner_type_description":"Andel","property_type_description":"Leilighet","size_from":67,"to_year":1971,"type":"realestate"},{"Location":"Sondrevegen 3 J, Oslo","ad_id":246603814,"ad_link":"https://www.finn.no/realestate/homes/ad.html?finnkode=246603814","ad_type":1,"energy_label":6,"from_year":1971,"lat":59.93513,"local_area_name":"MONTEBELLO/ULLERN","lon":10.663,"number_of_bedrooms":3,"owner_type_description":"Eier (Selveier)","property_type_description":"Leilighet","size_from":156,"to_year":1971,"type":"realestate"},{"Location":"Reinsdyrveien 41, Sandnes","ad_id":254601109,"ad_link":"https://www.finn.no/realestate/homes/ad.html?finnkode=254601109","ad_type":1,"energy_label":6,"from_year":1971,"lat":58.8238,"local_area_name":"Ganddal/Stokkelandsvannet","lon":5.7305,"number_of_bedrooms":2,"owner_type_description":"Eier (Selveier)","property_type_description":"Enebolig","size_from":118,"to_year":1971,"type":"realestate"},{"Location":"Venåsvegen 139, Meisingset","ad_id":234911215,"ad_link":"https://www.finn.no/realestate/homes/ad.html?finnkode=234911215","ad_type":1,"energy_label":6,"from_year":1971,"lat":62.85434,"local_area_name":"Meisingset","lon":8.25671,"number_of_bedrooms":3,"owner_type_description":"Eier (Selveier)","property_type_description":"Enebolig","size_from":150,"to_year":1971,"type":"realestate"},{"Location":"Karakkas gate 1, Vadsø","ad_id":197869342,"ad_link":"https://www.finn.no/realestate/homes/ad.html?finnkode=197869342","ad_type":1,"energy_label":6,"from_year":1971,"lat":70.07801,"local_area_name":null,"lon":29.78717,"number_of_bedrooms":4,"owner_type_description":"Eier (Selveier)","property_type_description":"Enebolig","size_from":130,"to_year":1971,"type":"realestate"}]