[{"Location":"Ringshusstubben 6C, Oslo","ad_id":261442053,"ad_link":"https://www.finn.no/realestate/homes/ad.html?finnkode=261442053","ad_type":1,"energy_label":4,"from_year":2009,"lat":59.8797,"local_area_name":"Bekkelagshøgda/Nordstrand","lon":10.7993,"number_of_bedrooms":2,"owner_type_description":"Eier (Selveier)","property_type_description":"Enebolig","size_from":150,"to_year":2009,"type":"realestate"},{"Location":"Dr. Backers veg 22C, Skien","ad_id":261439189,"ad_link":"https://www.finn.no/realestate/homes/ad.html?finnkode=261439189","ad_type":1,"energy_label":4,"from_year":2009,"lat":59.21035,"local_area_name":"Frogner","lon":9.61879,"number_of_bedrooms":3,"owner_type_description":"Eier (Selveier)","property_type_description":"Tomannsbolig","size_from":104,"to_year":2009,"type":"realestate"},{"Location":"Sandakerveien 74B, Oslo","ad_id":261203001,"ad_link":"https://www.finn.no/realestate/homes/ad.html?finnkode=261203001","ad_type":1,"energy_label":4,"from_year":2009,"lat":59.94315,"local_area_name":"#SANDAKER / NYDALEN","lon":10.76963,"number_of_bedrooms":3,"owner_type_description":"Eier (Selveier)","property_type_description":"Leilighet","size_from":84,"to_year":2009,"type":"realestate"},{"Location":"EKORNVEGEN 11, Sande i Sunnfjord","ad_id":261135889,"ad_link":"https://www.finn.no/realestate/homes/ad.html?finnkode=261135889","ad_type":1,"energy_label":4,"from_year":2009,"lat":61.31815,"local_area_name":null,"lon":5.79968,"number_of_bedrooms":3,"owner_type_description":"Eier (Selveier)","property_type_description":"Enebolig","size_from":132,"to_year":2009,"type":"realestate"},{"Location":"Storgata 60, Horten","ad_id":261092657,"ad_link":"https://www.finn.no/realestate/homes/ad.html?finnkode=261092657","ad_type":1,"energy_label":4,"from_year":2009,"lat":59.41178,"local_area_name":null,"lon":10.47962,"number_of_bedrooms":2,"owner_type_description":"Andel","property_type_description":"Leilighet","size_from":93,"to_year":2009,"type":"realestate"},{"Location":"Darres gate 16, Oslo","ad_id":261069272,"ad_link":"https://www.finn.no/realestate/homes/ad.html?finnkode=261069272","ad_type":1,"energy_label":4,"from_year":2009,"lat":59.92802,"local_area_name":"#WALDEMARS HAGE","lon":10.75431,"number_of_bedrooms":2,"owner_type_description":"Eier (Selveier)","property_type_description":"Leilighet","size_from":70,"to_year":2009,"type":"realestate"},{"Location":"Bjørkvegen 4, Løten","ad_id":260638284,"ad_link":"https://www.finn.no/realestate/homes/ad.html?finnkode=260638284","ad_type":1,"energy_label":4,"from_year":2009,"lat":60.8346,"local_area_name":null,"lon":11.3062,"number_of_bedrooms":2,"owner_type_description":"Eier (Selveier)","property_type_description":"Tomannsbolig","size_from":79,"to_year":2009,"type":"realestate"},{"Location":"Valgrindvegen 24, Trondheim","ad_id":260914978,"ad_link":"https://www.finn.no/realestate/homes/ad.html?finnkode=260914978","ad_type":1,"energy_label":4,"from_year":2009,"lat":63.41004,"local_area_name":"Lerkendal","lon":10.39955,"number_of_bedrooms":1,"owner_type_description":"Eier (Selveier)","property_type_description":"Leilighet","size_from":40,"to_year":2009,"type":"realestate"},{"Location":"Ratvikvegen 91A, Ålesund","ad_id":260720248,"ad_link":"https://www.finn.no/realestate/homes/ad.html?finnkode=260720248","ad_type":1,"energy_label":4,"from_year":2009,"lat":62.46286,"local_area_name":"Ratvika","lon":6.25775,"number_of_bedrooms":2,"owner_type_description":"Eier (Selveier)","property_type_description":"Leilighet","size_from":77,"to_year":2009,"type":"realestate"},{"Location":"Darres gate 14, Oslo","ad_id":260516182,"ad_link":"https://www.finn.no/realestate/homes/ad.html?finnkode=260516182","ad_type":1,"energy_label":4,"from_year":2009,"lat":59.928,"local_area_name":"WALDEMARS HAGE V/KIELLANDS PLASS","lon":10.7541,"number_of_bedrooms":2,"owner_type_description":"Eier (Selveier)","property_type_description":"Leilighet","size_from":71,"to_year":2009,"type":"realestate"},{"Location":"Skjergardsvegen 1382, Ågotnes","ad_id":260491013,"ad_link":"https://www.finn.no/realestate/homes/ad.html?finnkode=260491013","ad_type":1,"energy_label":4,"from_year":2009,"lat":60.4032,"local_area_name":"Ågotnes torg","lon":5.0004,"number_of_bedrooms":1,"owner_type_description":"Andel","property_type_description":"Leilighet","size_from":61,"to_year":2009,"type":"realestate"},{"Location":"Indrehovdevegen 28C, Hovdebygda","ad_id":259718403,"ad_link":"https://www.finn.no/realestate/homes/ad.html?finnkode=259718403","ad_type":1,"energy_label":4,"from_year":2009,"lat":62.1852,"local_area_name":"HOVDEBYGDA","lon":6.0892,"number_of_bedrooms":5,"owner_type_description":"Eier (Selveier)","property_type_description":"Leilighet","size_from":127,"to_year":2009,"type":"realestate"},{"Location":"Torget 11, Eidsvoll","ad_id":259761140,"ad_link":"https://www.finn.no/realestate/homes/ad.html?finnkode=259761140","ad_type":1,"energy_label":4,"from_year":2009,"lat":60.332,"local_area_name":"EIDSVOLL SENTRUM","lon":11.2565,"number_of_bedrooms":2,"owner_type_description":"Eier (Selveier)","property_type_description":"Leilighet","size_from":62,"to_year":2009,"type":"realestate"},{"Location":"Høvlerigata 1, Årnes","ad_id":260028578,"ad_link":"https://www.finn.no/realestate/homes/ad.html?finnkode=260028578","ad_type":1,"energy_label":4,"from_year":2009,"lat":60.1248,"local_area_name":"ÅRNES SENTRUM","lon":11.468,"number_of_bedrooms":2,"owner_type_description":"Eier (Selveier)","property_type_description":"Leilighet","size_from":61,"to_year":2009,"type":"realestate"},{"Location":"Harald Johnsens vei 10, Oppegård","ad_id":259750974,"ad_link":"https://www.finn.no/realestate/homes/ad.html?finnkode=259750974","ad_type":1,"energy_label":4,"from_year":2009,"lat":59.7719,"local_area_name":"Øvreskogen/Oppegård","lon":10.8275,"number_of_bedrooms":3,"owner_type_description":"Eier (Selveier)","property_type_description":"Enebolig","size_from":137,"to_year":2009,"type":"realestate"},{"Location":"Østre Strandgate 84, Kristiansand S","ad_id":252466986,"ad_link":"https://www.finn.no/realestate/homes/ad.html?finnkode=252466986","ad_type":1,"energy_label":4,"from_year":2009,"lat":58.14838,"local_area_name":null,"lon":8.00709,"number_of_bedrooms":2,"owner_type_description":"Eier (Selveier)","property_type_description":"Leilighet","size_from":77,"to_year":2009,"type":"realestate"},{"Location":"Rotevikshaugen 28, Frekhaug","ad_id":239066623,"ad_link":"https://www.finn.no/realestate/homes/ad.html?finnkode=239066623","ad_type":1,"energy_label":4,"from_year":2009,"lat":60.54015,"local_area_name":null,"lon":5.06349,"number_of_bedrooms":5,"owner_type_description":"Eier (Selveier)","property_type_description":"Enebolig","size_from":238,"to_year":2009,"type":"realestate"},{"Location":"Sandgata 24B, Trondheim","ad_id":258865075,"ad_link":"https://www.finn.no/realestate/homes/ad.html?finnkode=258865075","ad_type":1,"energy_label":4,"from_year":2009,"lat":63.432,"local_area_name":"SENTRUM","lon":10.3868,"number_of_bedrooms":2,"owner_type_description":"Eier (Selveier)","property_type_description":"Leilighet","size_from":55,"to_year":2009,"type":"realestate"},{"Location":"Stiftelsesgata 4, Stavanger","ad_id":258714547,"ad_link":"https://www.finn.no/realestate/homes/ad.html?finnkode=258714547","ad_type":1,"energy_label":4,"from_year":2009,"lat":58.9674,"local_area_name":null,"lon":5.7354,"number_of_bedrooms":1,"owner_type_description":"Eier (Selveier)","property_type_description":"Leilighet","size_from":38,"to_year":2009,"type":"realestate"},{"Location":"Brekkeveien 19, Oslo","ad_id":254422213,"ad_link":"https://www.finn.no/realestate/homes/ad.html?finnkode=254422213","ad_type":1,"energy_label":4,"from_year":2009,"lat":59.9689,"local_area_name":"Brekke/Frysja v/marka","lon":10.7738,"number_of_bedrooms":3,"owner_type_description":"Eier (Selveier)","property_type_description":"Leilighet","size_from":118,"to_year":2009,"type":"realestate"},{"Location":"Søndregata 6A, Stjørdal","ad_id":252493213,"ad_link":"https://www.finn.no/realestate/homes/ad.html?finnkode=252493213","ad_type":1,"energy_label":4,"from_year":2009,"lat":63.4695,"local_area_name":null,"lon":10.9197,"number_of_bedrooms":2,"owner_type_description":"Eier (Selveier)","property_type_description":"Leilighet","size_from":86,"to_year":2009,"type":"realestate"},{"Location":"Jadarvegen 11, Nærbø","ad_id":258347000,"ad_link":"https://www.finn.no/realestate/homes/ad.html?finnkode=258347000","ad_type":1,"energy_label":4,"from_year":2009,"lat":58.6648,"local_area_name":"Nærbø","lon":5.6386,"number_of_bedrooms":2,"owner_type_description":"Eier (Selveier)","property_type_description":"Leilighet","size_from":62,"to_year":2009,"type":"realestate"},{"Location":"Madlastokken 1, Hafrsfjord","ad_id":218277555,"ad_link":"https://www.finn.no/realestate/homes/ad.html?finnkode=218277555","ad_type":1,"energy_label":4,"from_year":2009,"lat":58.9523,"local_area_name":"Madla","lon":5.6748,"number_of_bedrooms":2,"owner_type_description":"Eier (Selveier)","property_type_description":"Leilighet","size_from":98,"to_year":2009,"type":"realestate"},{"Location":"Vollenetoppen 8, Arendal","ad_id":250994144,"ad_link":"https://www.finn.no/realestate/homes/ad.html?finnkode=250994144","ad_type":1,"energy_label":4,"from_year":2009,"lat":58.46554,"local_area_name":null,"lon":8.78342,"number_of_bedrooms":2,"owner_type_description":"Andel","property_type_description":"Leilighet","size_from":66,"to_year":2009,"type":"realestate"},{"Location":"Nedre Storøyni 33C, Øvre Årdal","ad_id":250777567,"ad_link":"https://www.finn.no/realestate/homes/ad.html?finnkode=250777567","ad_type":1,"energy_label":4,"from_year":2009,"lat":61.3214,"local_area_name":null,"lon":7.8454,"number_of_bedrooms":2,"owner_type_description":"Eier (Selveier)","property_type_description":"Leilighet","size_from":51,"to_year":2009,"type":"realestate"},{"Location":"Breiløkvegen 39, Molde","ad_id":250671358,"ad_link":"https://www.finn.no/realestate/homes/ad.html?finnkode=250671358","ad_type":1,"energy_label":4,"from_year":2009,"lat":62.7772,"local_area_name":null,"lon":6.9783,"number_of_bedrooms":3,"owner_type_description":"Eier (Selveier)","property_type_description":"Enebolig","size_from":140,"to_year":2009,"type":"realestate"},{"Location":"Politimester Bendixens gate 15 A, Kristiansund N","ad_id":142553911,"ad_link":"https://www.finn.no/realestate/homes/ad.html?finnkode=142553911","ad_type":1,"energy_label":4,"from_year":2009,"lat":63.11344,"local_area_name":"Kirkelandet","lon":7.72784,"number_of_bedrooms":1,"owner_type_description":"Andel","property_type_description":"Leilighet","size_from":42,"to_year":2009,"type":"realestate"},{"Location":"Bretlandsgata 47, Stavanger","ad_id":164426043,"ad_link":"https://www.finn.no/realestate/homes/ad.html?finnkode=164426043","ad_type":1,"energy_label":4,"from_year":2009,"lat":58.96394,"local_area_name":"EIGANES","lon":5.70964,"number_of_bedrooms":2,"owner_type_description":"Eier (Selveier)","property_type_description":"Leilighet","size_from":101,"to_year":2009,"type":"realestate"},{"Location":"Deanugeaidnu 3838, Tana","ad_id":225378072,"ad_link":"https://www.finn.no/realestate/homes/ad.html?finnkode=225378072","ad_type":1,"energy_label":4,"from_year":2009,"lat":70.06039,"local_area_name":null,"lon":27.54868,"number_of_bedrooms":3,"owner_type_description":"Eier (Selveier)","property_type_description":"Enebolig","size_from":125,"to_year":2009,"type":"realestate"},{"Location":"Tungeteigen 5, Årdalstangen","ad_id":113735354,"ad_link":"https://www.finn.no/realestate/homes/ad.html?finnkode=113735354","ad_type":1,"energy_label":4,"from_year":2009,"lat":61.2481,"local_area_name":null,"lon":7.6487,"number_of_bedrooms":5,"owner_type_description":"Eier (Selveier)","property_type_description":"Enebolig","size_from":269,"to_year":2009,"type":"realestate"}]