[{"Location":"Kallrustadskauen 22, Nordre Toten","ad_id":261354049,"ad_link":"https://www.finn.no/realestate/homes/ad.html?finnkode=261354049","ad_type":1,"energy_label":7,"from_year":1981,"lat":60.7412,"local_area_name":"NORDLIA","lon":10.7578,"number_of_bedrooms":2,"owner_type_description":"Eier (Selveier)","property_type_description":"Tomannsbolig","size_from":90,"to_year":1981,"type":"realestate"},{"Location":"Fjellværsøyveien 199, Knarrlagsund","ad_id":261336138,"ad_link":"https://www.finn.no/realestate/homes/ad.html?finnkode=261336138","ad_type":1,"energy_label":7,"from_year":1981,"lat":63.64535,"local_area_name":"Velkommen til Fjellværsøya","lon":9.12555,"number_of_bedrooms":2,"owner_type_description":"Eier (Selveier)","property_type_description":"Enebolig","size_from":96,"to_year":1981,"type":"realestate"},{"Location":"Hallagerbakken 38, Oslo","ad_id":260935919,"ad_link":"https://www.finn.no/realestate/homes/ad.html?finnkode=260935919","ad_type":1,"energy_label":7,"from_year":1981,"lat":59.83903,"local_area_name":null,"lon":10.7918,"number_of_bedrooms":3,"owner_type_description":"Andel","property_type_description":"Leilighet","size_from":89,"to_year":1981,"type":"realestate"},{"Location":"Liljevegen 31, Kleppe","ad_id":260909792,"ad_link":"https://www.finn.no/realestate/homes/ad.html?finnkode=260909792","ad_type":1,"energy_label":7,"from_year":1981,"lat":58.7718,"local_area_name":"Kleppe","lon":5.6417,"number_of_bedrooms":5,"owner_type_description":"Eier (Selveier)","property_type_description":"Enebolig","size_from":263,"to_year":1981,"type":"realestate"},{"Location":"Nordskogen 2D, Horten","ad_id":260879772,"ad_link":"https://www.finn.no/realestate/homes/ad.html?finnkode=260879772","ad_type":1,"energy_label":7,"from_year":1981,"lat":59.4181,"local_area_name":"Horten/Nordskogen","lon":10.4538,"number_of_bedrooms":2,"owner_type_description":"Eier (Selveier)","property_type_description":"Leilighet","size_from":85,"to_year":1981,"type":"realestate"},{"Location":"Olsvikmarken 24, Olsvik","ad_id":260870435,"ad_link":"https://www.finn.no/realestate/homes/ad.html?finnkode=260870435","ad_type":1,"energy_label":7,"from_year":1981,"lat":60.3848,"local_area_name":"Olsvik","lon":5.2141,"number_of_bedrooms":3,"owner_type_description":"Andel","property_type_description":"Leilighet","size_from":94,"to_year":1981,"type":"realestate"},{"Location":"Kruttmølleveien 18, Trollåsen","ad_id":258432903,"ad_link":"https://www.finn.no/realestate/homes/ad.html?finnkode=258432903","ad_type":1,"energy_label":7,"from_year":1981,"lat":59.81414,"local_area_name":null,"lon":10.78755,"number_of_bedrooms":4,"owner_type_description":"Eier (Selveier)","property_type_description":"Enebolig","size_from":181,"to_year":1981,"type":"realestate"},{"Location":"Feiselveien 1, Kongsberg","ad_id":259104930,"ad_link":"https://www.finn.no/realestate/homes/ad.html?finnkode=259104930","ad_type":1,"energy_label":7,"from_year":1981,"lat":59.6269,"local_area_name":"Saggrenda","lon":9.608,"number_of_bedrooms":4,"owner_type_description":"Eier (Selveier)","property_type_description":"Enebolig","size_from":190,"to_year":1981,"type":"realestate"},{"Location":"Røsslyngveien 31, Vear","ad_id":258885131,"ad_link":"https://www.finn.no/realestate/homes/ad.html?finnkode=258885131","ad_type":1,"energy_label":7,"from_year":1981,"lat":59.2589,"local_area_name":"Vear","lon":10.3669,"number_of_bedrooms":6,"owner_type_description":"Eier (Selveier)","property_type_description":"Enebolig","size_from":258,"to_year":1981,"type":"realestate"},{"Location":"Bølgebakken 4, Kristiansund N","ad_id":256382129,"ad_link":"https://www.finn.no/realestate/homes/ad.html?finnkode=256382129","ad_type":1,"energy_label":7,"from_year":1981,"lat":63.1033,"local_area_name":null,"lon":7.7257,"number_of_bedrooms":5,"owner_type_description":"Eier (Selveier)","property_type_description":"Enebolig","size_from":163,"to_year":1981,"type":"realestate"},{"Location":"Myrullveien 50A, Alta","ad_id":257256318,"ad_link":"https://www.finn.no/realestate/homes/ad.html?finnkode=257256318","ad_type":1,"energy_label":7,"from_year":1981,"lat":69.95687,"local_area_name":null,"lon":23.38312,"number_of_bedrooms":1,"owner_type_description":"Andel","property_type_description":"Leilighet","size_from":47,"to_year":1981,"type":"realestate"},{"Location":"Sørskogbygdvegen 269, Hernes","ad_id":255656756,"ad_link":"https://www.finn.no/realestate/homes/ad.html?finnkode=255656756","ad_type":1,"energy_label":7,"from_year":1981,"lat":60.9333,"local_area_name":"Sørskogbygda","lon":11.7229,"number_of_bedrooms":3,"owner_type_description":"Eier (Selveier)","property_type_description":"Enebolig","size_from":122,"to_year":1981,"type":"realestate"},{"Location":"Haugerudhagan 36D, Oslo","ad_id":245753056,"ad_link":"https://www.finn.no/realestate/homes/ad.html?finnkode=245753056","ad_type":1,"energy_label":7,"from_year":1981,"lat":59.92196,"local_area_name":"HAUGERUD","lon":10.84929,"number_of_bedrooms":10,"owner_type_description":"Eier (Selveier)","property_type_description":"Tomannsbolig","size_from":267,"to_year":1981,"type":"realestate"}]