[{"Location":"Stasjonsveien 23B, Strømmen","ad_id":261493271,"ad_link":"https://www.finn.no/realestate/homes/ad.html?finnkode=261493271","ad_type":1,"energy_label":4,"from_year":2007,"lat":59.94615,"local_area_name":"Strømmen sentrum","lon":11.00682,"number_of_bedrooms":2,"owner_type_description":"Eier (Selveier)","property_type_description":"Leilighet","size_from":69,"to_year":2007,"type":"realestate"},{"Location":"Støverveien 55 F, Bodø","ad_id":255621834,"ad_link":"https://www.finn.no/realestate/homes/ad.html?finnkode=255621834","ad_type":1,"energy_label":4,"from_year":2007,"lat":67.29046,"local_area_name":"Støver","lon":14.60623,"number_of_bedrooms":2,"owner_type_description":"Andel","property_type_description":"Leilighet","size_from":55,"to_year":2007,"type":"realestate"},{"Location":"Mandalls gate 18, Oslo","ad_id":261322279,"ad_link":"https://www.finn.no/realestate/homes/ad.html?finnkode=261322279","ad_type":1,"energy_label":4,"from_year":2007,"lat":59.9106,"local_area_name":"Teaterkvartalet/Grønland","lon":10.7627,"number_of_bedrooms":2,"owner_type_description":"Eier (Selveier)","property_type_description":"Leilighet","size_from":59,"to_year":2007,"type":"realestate"},{"Location":"Akselhagen 36A, Sandnes","ad_id":261404359,"ad_link":"https://www.finn.no/realestate/homes/ad.html?finnkode=261404359","ad_type":1,"energy_label":4,"from_year":2007,"lat":58.8209,"local_area_name":"Ganddal","lon":5.7076,"number_of_bedrooms":2,"owner_type_description":"Eier (Selveier)","property_type_description":"Leilighet","size_from":51,"to_year":2007,"type":"realestate"},{"Location":"Wilhelm K. Størens veg 25, Trondheim","ad_id":261417903,"ad_link":"https://www.finn.no/realestate/homes/ad.html?finnkode=261417903","ad_type":1,"energy_label":4,"from_year":2007,"lat":63.41298,"local_area_name":null,"lon":10.47269,"number_of_bedrooms":1,"owner_type_description":"Eier (Selveier)","property_type_description":"Leilighet","size_from":35,"to_year":2007,"type":"realestate"},{"Location":"Vollenlia 110 A, Vollen","ad_id":261342724,"ad_link":"https://www.finn.no/realestate/homes/ad.html?finnkode=261342724","ad_type":1,"energy_label":4,"from_year":2007,"lat":59.8052,"local_area_name":"Vollen","lon":10.48399,"number_of_bedrooms":1,"owner_type_description":"Eier (Selveier)","property_type_description":"Leilighet","size_from":44,"to_year":2007,"type":"realestate"},{"Location":"Strandgata 62, Hammerfest","ad_id":260882552,"ad_link":"https://www.finn.no/realestate/homes/ad.html?finnkode=260882552","ad_type":1,"energy_label":4,"from_year":2007,"lat":70.66656,"local_area_name":null,"lon":23.69384,"number_of_bedrooms":2,"owner_type_description":"Eier (Selveier)","property_type_description":"Leilighet","size_from":73,"to_year":2007,"type":"realestate"},{"Location":"Høgeholvegen 116, Tjelta","ad_id":261285417,"ad_link":"https://www.finn.no/realestate/homes/ad.html?finnkode=261285417","ad_type":1,"energy_label":4,"from_year":2007,"lat":58.842,"local_area_name":"Tjelta","lon":5.596,"number_of_bedrooms":2,"owner_type_description":"Eier (Selveier)","property_type_description":"Leilighet","size_from":114,"to_year":2007,"type":"realestate"},{"Location":"Jordstjerneveien 61, Oslo","ad_id":261195409,"ad_link":"https://www.finn.no/realestate/homes/ad.html?finnkode=261195409","ad_type":1,"energy_label":4,"from_year":2007,"lat":59.8468,"local_area_name":"Mortensrudhøyden","lon":10.8184,"number_of_bedrooms":3,"owner_type_description":"Eier (Selveier)","property_type_description":"Rekkehus","size_from":114,"to_year":2007,"type":"realestate"},{"Location":"Lillian Byes veg 61, Trondheim","ad_id":261075309,"ad_link":"https://www.finn.no/realestate/homes/ad.html?finnkode=261075309","ad_type":1,"energy_label":4,"from_year":2007,"lat":63.38888,"local_area_name":"UTLEIR","lon":10.43344,"number_of_bedrooms":3,"owner_type_description":"Andel","property_type_description":"Rekkehus","size_from":112,"to_year":2007,"type":"realestate"},{"Location":"Rolf Presthus vei 77, Oppegård","ad_id":260984052,"ad_link":"https://www.finn.no/realestate/homes/ad.html?finnkode=260984052","ad_type":1,"energy_label":4,"from_year":2007,"lat":59.77036,"local_area_name":null,"lon":10.82624,"number_of_bedrooms":3,"owner_type_description":"Eier (Selveier)","property_type_description":"Leilighet","size_from":109,"to_year":2007,"type":"realestate"},{"Location":"Bjørkelunden 10, Drammen","ad_id":260952089,"ad_link":"https://www.finn.no/realestate/homes/ad.html?finnkode=260952089","ad_type":1,"energy_label":4,"from_year":2007,"lat":59.70133,"local_area_name":"Knive","lon":10.2668,"number_of_bedrooms":2,"owner_type_description":"Eier (Selveier)","property_type_description":"Leilighet","size_from":65,"to_year":2007,"type":"realestate"},{"Location":"Prost Refsums veg 8B, Rælingen","ad_id":260942484,"ad_link":"https://www.finn.no/realestate/homes/ad.html?finnkode=260942484","ad_type":1,"energy_label":4,"from_year":2007,"lat":59.9419,"local_area_name":null,"lon":11.0547,"number_of_bedrooms":1,"owner_type_description":"Andel","property_type_description":"Leilighet","size_from":55,"to_year":2007,"type":"realestate"},{"Location":"Kalfarveien 66, Bergen","ad_id":260947933,"ad_link":"https://www.finn.no/realestate/homes/ad.html?finnkode=260947933","ad_type":1,"energy_label":4,"from_year":2007,"lat":60.38693,"local_area_name":null,"lon":5.34685,"number_of_bedrooms":1,"owner_type_description":"Andel","property_type_description":"Leilighet","size_from":62,"to_year":2007,"type":"realestate"},{"Location":"Innspurten 4A, Oslo","ad_id":260892223,"ad_link":"https://www.finn.no/realestate/homes/ad.html?finnkode=260892223","ad_type":1,"energy_label":4,"from_year":2007,"lat":59.9172,"local_area_name":"HOVIN/ENSJØ","lon":10.8016,"number_of_bedrooms":2,"owner_type_description":"Andel","property_type_description":"Leilighet","size_from":65,"to_year":2007,"type":"realestate"},{"Location":"Jernvinna 39, Lillehammer","ad_id":260870554,"ad_link":"https://www.finn.no/realestate/homes/ad.html?finnkode=260870554","ad_type":1,"energy_label":4,"from_year":2007,"lat":61.1374,"local_area_name":"Nordre Ål","lon":10.4647,"number_of_bedrooms":4,"owner_type_description":"Eier (Selveier)","property_type_description":"Rekkehus","size_from":108,"to_year":2007,"type":"realestate"},{"Location":"Dælenenggata 20B, Oslo","ad_id":260788906,"ad_link":"https://www.finn.no/realestate/homes/ad.html?finnkode=260788906","ad_type":1,"energy_label":4,"from_year":2007,"lat":59.9266,"local_area_name":"Rodeløkka","lon":10.772,"number_of_bedrooms":1,"owner_type_description":"Eier (Selveier)","property_type_description":"Leilighet","size_from":51,"to_year":2007,"type":"realestate"},{"Location":"Lifjellvegen 399B, Bø i Telemark","ad_id":260667977,"ad_link":"https://www.finn.no/realestate/homes/ad.html?finnkode=260667977","ad_type":1,"energy_label":4,"from_year":2007,"lat":59.4558,"local_area_name":"Bø - Lifjell","lon":9.0305,"number_of_bedrooms":2,"owner_type_description":"Eier (Selveier)","property_type_description":"Leilighet","size_from":71,"to_year":2007,"type":"realestate"},{"Location":"Tritonveien 19, Hafslundsøy","ad_id":260821726,"ad_link":"https://www.finn.no/realestate/homes/ad.html?finnkode=260821726","ad_type":1,"energy_label":4,"from_year":2007,"lat":59.2976,"local_area_name":"Hafslundsøy","lon":11.1472,"number_of_bedrooms":3,"owner_type_description":"Eier (Selveier)","property_type_description":"Enebolig","size_from":158,"to_year":2007,"type":"realestate"},{"Location":"Laberget 90, Stavanger","ad_id":260626314,"ad_link":"https://www.finn.no/realestate/homes/ad.html?finnkode=260626314","ad_type":1,"energy_label":4,"from_year":2007,"lat":58.9169,"local_area_name":"Hinna Park","lon":5.7377,"number_of_bedrooms":1,"owner_type_description":"Eier (Selveier)","property_type_description":"Leilighet","size_from":44,"to_year":2007,"type":"realestate"},{"Location":"Oredalsveien 106B, Fredrikstad","ad_id":260900813,"ad_link":"https://www.finn.no/realestate/homes/ad.html?finnkode=260900813","ad_type":1,"energy_label":4,"from_year":2007,"lat":59.23426,"local_area_name":"Oredalen / Fredrikstad","lon":10.94287,"number_of_bedrooms":3,"owner_type_description":"Eier (Selveier)","property_type_description":"Leilighet","size_from":111,"to_year":2007,"type":"realestate"},{"Location":"Nedre Bankegate 30, Halden","ad_id":260899723,"ad_link":"https://www.finn.no/realestate/homes/ad.html?finnkode=260899723","ad_type":1,"energy_label":4,"from_year":2007,"lat":59.12229,"local_area_name":"Banken","lon":11.3821,"number_of_bedrooms":2,"owner_type_description":"Eier (Selveier)","property_type_description":"Leilighet","size_from":110,"to_year":2007,"type":"realestate"},{"Location":"Såvegen 13, Jessheim","ad_id":260763613,"ad_link":"https://www.finn.no/realestate/homes/ad.html?finnkode=260763613","ad_type":1,"energy_label":4,"from_year":2007,"lat":60.1416,"local_area_name":"Jessheim","lon":11.1657,"number_of_bedrooms":1,"owner_type_description":"Eier (Selveier)","property_type_description":"Leilighet","size_from":39,"to_year":2007,"type":"realestate"},{"Location":"Fabrikkgata 11, Lillestrøm","ad_id":260885980,"ad_link":"https://www.finn.no/realestate/homes/ad.html?finnkode=260885980","ad_type":1,"energy_label":4,"from_year":2007,"lat":59.95308,"local_area_name":"Lillestrøm","lon":11.05342,"number_of_bedrooms":2,"owner_type_description":"Eier (Selveier)","property_type_description":"Leilighet","size_from":69,"to_year":2007,"type":"realestate"},{"Location":"Haugerudhagan 82, Oslo","ad_id":260812955,"ad_link":"https://www.finn.no/realestate/homes/ad.html?finnkode=260812955","ad_type":1,"energy_label":4,"from_year":2007,"lat":59.9248,"local_area_name":"Skjermet på Haugerud","lon":10.8564,"number_of_bedrooms":2,"owner_type_description":"Andel","property_type_description":"Leilighet","size_from":51,"to_year":2007,"type":"realestate"},{"Location":"Kirsebærhagan 49 B, Sande i Vestfold","ad_id":260422371,"ad_link":"https://www.finn.no/realestate/homes/ad.html?finnkode=260422371","ad_type":1,"energy_label":4,"from_year":2007,"lat":59.58561,"local_area_name":"Sande sentrum","lon":10.20657,"number_of_bedrooms":3,"owner_type_description":"Eier (Selveier)","property_type_description":"Leilighet","size_from":105,"to_year":2007,"type":"realestate"},{"Location":"Bjerkehaugen 44, Lommedalen","ad_id":260799746,"ad_link":"https://www.finn.no/realestate/homes/ad.html?finnkode=260799746","ad_type":1,"energy_label":4,"from_year":2007,"lat":59.9634,"local_area_name":"Lommedalen","lon":10.4659,"number_of_bedrooms":4,"owner_type_description":"Eier (Selveier)","property_type_description":"Enebolig","size_from":231,"to_year":2007,"type":"realestate"},{"Location":"Jærveien 17, Sandnes","ad_id":260570159,"ad_link":"https://www.finn.no/realestate/homes/ad.html?finnkode=260570159","ad_type":1,"energy_label":4,"from_year":2007,"lat":58.85,"local_area_name":"Sentrum","lon":5.7313,"number_of_bedrooms":1,"owner_type_description":"Andel","property_type_description":"Leilighet","size_from":45,"to_year":2007,"type":"realestate"},{"Location":"Wolffs gate 14, Bergen","ad_id":260805894,"ad_link":"https://www.finn.no/realestate/homes/ad.html?finnkode=260805894","ad_type":1,"energy_label":4,"from_year":2007,"lat":60.38254,"local_area_name":null,"lon":5.32303,"number_of_bedrooms":1,"owner_type_description":"Andel","property_type_description":"Leilighet","size_from":39,"to_year":2007,"type":"realestate"},{"Location":"Søndre Evjuvei 8A, Hvittingfoss","ad_id":260777487,"ad_link":"https://www.finn.no/realestate/homes/ad.html?finnkode=260777487","ad_type":1,"energy_label":4,"from_year":2007,"lat":59.4874,"local_area_name":"Hvittingfoss","lon":10.0061,"number_of_bedrooms":2,"owner_type_description":"Eier (Selveier)","property_type_description":"Tomannsbolig","size_from":73,"to_year":2007,"type":"realestate"},{"Location":"Sandheimsbakken 37D, Lillehammer","ad_id":255680284,"ad_link":"https://www.finn.no/realestate/homes/ad.html?finnkode=255680284","ad_type":1,"energy_label":4,"from_year":2007,"lat":61.127,"local_area_name":"Lillehammer","lon":10.4425,"number_of_bedrooms":2,"owner_type_description":"Eier (Selveier)","property_type_description":"Leilighet","size_from":64,"to_year":2007,"type":"realestate"},{"Location":"Sauafjellsvegen 10B, Skogsvåg","ad_id":260671487,"ad_link":"https://www.finn.no/realestate/homes/ad.html?finnkode=260671487","ad_type":1,"energy_label":4,"from_year":2007,"lat":60.2637,"local_area_name":null,"lon":5.0859,"number_of_bedrooms":2,"owner_type_description":"Andel","property_type_description":"Leilighet","size_from":68,"to_year":2007,"type":"realestate"},{"Location":"Elvebakken 56 B, Sortland","ad_id":260666754,"ad_link":"https://www.finn.no/realestate/homes/ad.html?finnkode=260666754","ad_type":1,"energy_label":4,"from_year":2007,"lat":68.68141,"local_area_name":null,"lon":15.37698,"number_of_bedrooms":2,"owner_type_description":"Andel","property_type_description":"Leilighet","size_from":69,"to_year":2007,"type":"realestate"},{"Location":"Glomma Terrasse 5, Årnes","ad_id":260523645,"ad_link":"https://www.finn.no/realestate/homes/ad.html?finnkode=260523645","ad_type":1,"energy_label":4,"from_year":2007,"lat":60.1216,"local_area_name":"Årnes","lon":11.462,"number_of_bedrooms":2,"owner_type_description":"Eier (Selveier)","property_type_description":"Leilighet","size_from":84,"to_year":2007,"type":"realestate"},{"Location":"Vangsgutua 9, Lunner","ad_id":260685924,"ad_link":"https://www.finn.no/realestate/homes/ad.html?finnkode=260685924","ad_type":1,"energy_label":4,"from_year":2007,"lat":60.2909,"local_area_name":"Kalvsjø","lon":10.5706,"number_of_bedrooms":3,"owner_type_description":"Eier (Selveier)","property_type_description":"Enebolig","size_from":159,"to_year":2007,"type":"realestate"},{"Location":"Hvalenvegen 57, Porsgrunn","ad_id":260700773,"ad_link":"https://www.finn.no/realestate/homes/ad.html?finnkode=260700773","ad_type":1,"energy_label":4,"from_year":2007,"lat":59.09051,"local_area_name":"Porsgrunn - Hvalen","lon":9.69351,"number_of_bedrooms":3,"owner_type_description":"Eier (Selveier)","property_type_description":"Tomannsbolig","size_from":88,"to_year":2007,"type":"realestate"},{"Location":"Vækerøveien 211A, Oslo","ad_id":255753636,"ad_link":"https://www.finn.no/realestate/homes/ad.html?finnkode=255753636","ad_type":1,"energy_label":4,"from_year":2007,"lat":59.9489,"local_area_name":"Sjelden mulighet på Røa/ Røa Sentrum","lon":10.6445,"number_of_bedrooms":2,"owner_type_description":"Eier (Selveier)","property_type_description":"Leilighet","size_from":105,"to_year":2007,"type":"realestate"},{"Location":"Rossalandtunet 3B, Sandnes","ad_id":260633782,"ad_link":"https://www.finn.no/realestate/homes/ad.html?finnkode=260633782","ad_type":1,"energy_label":4,"from_year":2007,"lat":58.869,"local_area_name":"LURA/Rundeskogen","lon":5.7279,"number_of_bedrooms":2,"owner_type_description":"Eier (Selveier)","property_type_description":"Leilighet","size_from":58,"to_year":2007,"type":"realestate"},{"Location":"Slipelvvegen 18, Tromsdalen","ad_id":260519140,"ad_link":"https://www.finn.no/realestate/homes/ad.html?finnkode=260519140","ad_type":1,"energy_label":4,"from_year":2007,"lat":69.623,"local_area_name":"Visning onsdag 08.06, kl. 17.00","lon":18.9489,"number_of_bedrooms":2,"owner_type_description":"Andel","property_type_description":"Leilighet","size_from":79,"to_year":2007,"type":"realestate"},{"Location":"Østre Klyveveg 44, Porsgrunn","ad_id":257091478,"ad_link":"https://www.finn.no/realestate/homes/ad.html?finnkode=257091478","ad_type":1,"energy_label":4,"from_year":2007,"lat":59.14706,"local_area_name":"PORSGRUNN - VESTSIDEN","lon":9.63522,"number_of_bedrooms":3,"owner_type_description":"Andel","property_type_description":"Leilighet","size_from":120,"to_year":2007,"type":"realestate"},{"Location":"Knoph's vei 11B, Bjerka","ad_id":260504389,"ad_link":"https://www.finn.no/realestate/homes/ad.html?finnkode=260504389","ad_type":1,"energy_label":4,"from_year":2007,"lat":66.14827,"local_area_name":null,"lon":13.83726,"number_of_bedrooms":3,"owner_type_description":"Andel","property_type_description":"Leilighet","size_from":107,"to_year":2007,"type":"realestate"},{"Location":"Edelgranveien 35, Bekkestua","ad_id":256539476,"ad_link":"https://www.finn.no/realestate/homes/ad.html?finnkode=256539476","ad_type":1,"energy_label":4,"from_year":2007,"lat":59.9282,"local_area_name":null,"lon":10.55433,"number_of_bedrooms":2,"owner_type_description":"Eier (Selveier)","property_type_description":"Leilighet","size_from":88,"to_year":2007,"type":"realestate"},{"Location":"Mortensvegen 32, Røyneberg","ad_id":257257235,"ad_link":"https://www.finn.no/realestate/homes/ad.html?finnkode=257257235","ad_type":1,"energy_label":4,"from_year":2007,"lat":58.91366,"local_area_name":"Røyneberg / Sørnes","lon":5.6731,"number_of_bedrooms":4,"owner_type_description":"Eier (Selveier)","property_type_description":"Enebolig","size_from":153,"to_year":2007,"type":"realestate"},{"Location":"Fartein Valens vei 31, leil nr. 102, Sandnes","ad_id":260086817,"ad_link":"https://www.finn.no/realestate/homes/ad.html?finnkode=260086817","ad_type":1,"energy_label":4,"from_year":2007,"lat":58.85038,"local_area_name":"Stangeland","lon":5.7132,"number_of_bedrooms":1,"owner_type_description":"Andel","property_type_description":"Leilighet","size_from":49,"to_year":2007,"type":"realestate"},{"Location":"Sjøstranda 143, Tromsø","ad_id":259520757,"ad_link":"https://www.finn.no/realestate/homes/ad.html?finnkode=259520757","ad_type":1,"energy_label":4,"from_year":2007,"lat":69.6366,"local_area_name":"SJØSTRANDA","lon":18.9362,"number_of_bedrooms":2,"owner_type_description":"Andel","property_type_description":"Leilighet","size_from":65,"to_year":2007,"type":"realestate"},{"Location":"Bakkeliveien 13B, Askim","ad_id":260027496,"ad_link":"https://www.finn.no/realestate/homes/ad.html?finnkode=260027496","ad_type":1,"energy_label":4,"from_year":2007,"lat":59.5805,"local_area_name":"Askim - Gurud","lon":11.14359,"number_of_bedrooms":2,"owner_type_description":"Andel","property_type_description":"Leilighet","size_from":63,"to_year":2007,"type":"realestate"},{"Location":"Hårstadringen 29, Tiller","ad_id":259837544,"ad_link":"https://www.finn.no/realestate/homes/ad.html?finnkode=259837544","ad_type":1,"energy_label":4,"from_year":2007,"lat":63.3475,"local_area_name":"Tiller","lon":10.3884,"number_of_bedrooms":3,"owner_type_description":"Eier (Selveier)","property_type_description":"Tomannsbolig","size_from":115,"to_year":2007,"type":"realestate"},{"Location":"Sollivegen 104, Molde","ad_id":217522847,"ad_link":"https://www.finn.no/realestate/homes/ad.html?finnkode=217522847","ad_type":1,"energy_label":4,"from_year":2007,"lat":62.7459,"local_area_name":"Farstadplassen","lon":7.1648,"number_of_bedrooms":2,"owner_type_description":"Andel","property_type_description":"Leilighet","size_from":108,"to_year":2007,"type":"realestate"},{"Location":"Frida Hansens vei 12, Stavanger","ad_id":259493847,"ad_link":"https://www.finn.no/realestate/homes/ad.html?finnkode=259493847","ad_type":1,"energy_label":4,"from_year":2007,"lat":58.9506,"local_area_name":"Hillevåg","lon":5.7408,"number_of_bedrooms":2,"owner_type_description":"Eier (Selveier)","property_type_description":"Leilighet","size_from":88,"to_year":2007,"type":"realestate"},{"Location":"Rolf Presthus vei 79, Oppegård","ad_id":259508360,"ad_link":"https://www.finn.no/realestate/homes/ad.html?finnkode=259508360","ad_type":1,"energy_label":4,"from_year":2007,"lat":59.76986,"local_area_name":"Øvreskogen","lon":10.8261,"number_of_bedrooms":3,"owner_type_description":"Eier (Selveier)","property_type_description":"Leilighet","size_from":108,"to_year":2007,"type":"realestate"},{"Location":"Elvarheimgata 4A, Elverum","ad_id":259488712,"ad_link":"https://www.finn.no/realestate/homes/ad.html?finnkode=259488712","ad_type":1,"energy_label":4,"from_year":2007,"lat":60.87974,"local_area_name":"SENTRUM","lon":11.56146,"number_of_bedrooms":2,"owner_type_description":"Andel","property_type_description":"Leilighet","size_from":87,"to_year":2007,"type":"realestate"},{"Location":"Fåresoppveien 8, Frogner","ad_id":254668943,"ad_link":"https://www.finn.no/realestate/homes/ad.html?finnkode=254668943","ad_type":1,"energy_label":4,"from_year":2007,"lat":60.0113,"local_area_name":"Lunderåsen","lon":11.1473,"number_of_bedrooms":4,"owner_type_description":"Eier (Selveier)","property_type_description":"Enebolig","size_from":181,"to_year":2007,"type":"realestate"},{"Location":"Kvibakken 1, H0101, Nærbø","ad_id":259169070,"ad_link":"https://www.finn.no/realestate/homes/ad.html?finnkode=259169070","ad_type":1,"energy_label":4,"from_year":2007,"lat":58.66077,"local_area_name":"NÆRBØ","lon":5.65576,"number_of_bedrooms":2,"owner_type_description":"Eier (Selveier)","property_type_description":"Leilighet","size_from":54,"to_year":2007,"type":"realestate"},{"Location":"Bankvegen 6, Lampeland","ad_id":259091424,"ad_link":"https://www.finn.no/realestate/homes/ad.html?finnkode=259091424","ad_type":1,"energy_label":4,"from_year":2007,"lat":59.8343,"local_area_name":null,"lon":9.5812,"number_of_bedrooms":2,"owner_type_description":"Eier (Selveier)","property_type_description":"Rekkehus","size_from":96,"to_year":2007,"type":"realestate"},{"Location":"Hundvågveien 51, Hundvåg","ad_id":258869599,"ad_link":"https://www.finn.no/realestate/homes/ad.html?finnkode=258869599","ad_type":1,"energy_label":4,"from_year":2007,"lat":58.994,"local_area_name":"Hundvåg","lon":5.731,"number_of_bedrooms":2,"owner_type_description":"Eier (Selveier)","property_type_description":"Leilighet","size_from":83,"to_year":2007,"type":"realestate"},{"Location":"Klokkehattveien 27, Bjorbekk","ad_id":258860313,"ad_link":"https://www.finn.no/realestate/homes/ad.html?finnkode=258860313","ad_type":1,"energy_label":4,"from_year":2007,"lat":58.44189,"local_area_name":null,"lon":8.71816,"number_of_bedrooms":1,"owner_type_description":"Eier (Selveier)","property_type_description":"Tomannsbolig","size_from":51,"to_year":2007,"type":"realestate"},{"Location":"Ramstadåsen 14, Fetsund","ad_id":257361933,"ad_link":"https://www.finn.no/realestate/homes/ad.html?finnkode=257361933","ad_type":1,"energy_label":4,"from_year":2007,"lat":59.92692,"local_area_name":"Ramstad","lon":11.19583,"number_of_bedrooms":7,"owner_type_description":"Eier (Selveier)","property_type_description":"Enebolig","size_from":306,"to_year":2007,"type":"realestate"},{"Location":"Alnagata 16, Oslo","ad_id":258699411,"ad_link":"https://www.finn.no/realestate/homes/ad.html?finnkode=258699411","ad_type":1,"energy_label":4,"from_year":2007,"lat":59.9035,"local_area_name":"BAGLERBYEN/NYE GAMLEBYEN","lon":10.77445,"number_of_bedrooms":3,"owner_type_description":"Andel","property_type_description":"Leilighet","size_from":80,"to_year":2007,"type":"realestate"},{"Location":"Nybø 3, Leikanger","ad_id":258693119,"ad_link":"https://www.finn.no/realestate/homes/ad.html?finnkode=258693119","ad_type":1,"energy_label":4,"from_year":2007,"lat":61.18619,"local_area_name":null,"lon":6.82958,"number_of_bedrooms":2,"owner_type_description":"Eier (Selveier)","property_type_description":"Leilighet","size_from":64,"to_year":2007,"type":"realestate"},{"Location":"Gamle Somavei 36B, Sandnes","ad_id":258386141,"ad_link":"https://www.finn.no/realestate/homes/ad.html?finnkode=258386141","ad_type":1,"energy_label":4,"from_year":2007,"lat":58.8707,"local_area_name":"Lura","lon":5.7201,"number_of_bedrooms":3,"owner_type_description":"Eier (Selveier)","property_type_description":"Tomannsbolig","size_from":115,"to_year":2007,"type":"realestate"},{"Location":"Smedbakken 1 B, Sætre","ad_id":257863349,"ad_link":"https://www.finn.no/realestate/homes/ad.html?finnkode=257863349","ad_type":1,"energy_label":4,"from_year":2007,"lat":59.67251,"local_area_name":null,"lon":10.54616,"number_of_bedrooms":1,"owner_type_description":"Eier (Selveier)","property_type_description":"Andre","size_from":51,"to_year":2007,"type":"realestate"},{"Location":"Håkenstadvegen 15 B, Ottestad","ad_id":233587782,"ad_link":"https://www.finn.no/realestate/homes/ad.html?finnkode=233587782","ad_type":1,"energy_label":4,"from_year":2007,"lat":60.7751,"local_area_name":"Ottestad","lon":11.1173,"number_of_bedrooms":1,"owner_type_description":"Eier (Selveier)","property_type_description":"Leilighet","size_from":30,"to_year":2007,"type":"realestate"},{"Location":"Christian Monsens gate 4, Trondheim","ad_id":253977517,"ad_link":"https://www.finn.no/realestate/homes/ad.html?finnkode=253977517","ad_type":1,"energy_label":4,"from_year":2007,"lat":63.43132,"local_area_name":"Rosenborg","lon":10.42396,"number_of_bedrooms":2,"owner_type_description":"Eier (Selveier)","property_type_description":"Leilighet","size_from":83,"to_year":2007,"type":"realestate"},{"Location":"Silurveien 47, Oslo","ad_id":256884162,"ad_link":"https://www.finn.no/realestate/homes/ad.html?finnkode=256884162","ad_type":1,"energy_label":4,"from_year":2007,"lat":59.93181,"local_area_name":"Ullern - Silurveien Panorama","lon":10.6548,"number_of_bedrooms":2,"owner_type_description":"Eier (Selveier)","property_type_description":"Leilighet","size_from":83,"to_year":2007,"type":"realestate"},{"Location":"Øyvegen 23 B, Hell","ad_id":256473847,"ad_link":"https://www.finn.no/realestate/homes/ad.html?finnkode=256473847","ad_type":1,"energy_label":4,"from_year":2007,"lat":63.44494,"local_area_name":"Hell","lon":10.901,"number_of_bedrooms":2,"owner_type_description":"Eier (Selveier)","property_type_description":"Leilighet","size_from":75,"to_year":2007,"type":"realestate"},{"Location":"Granstien 16, Bardu","ad_id":256223358,"ad_link":"https://www.finn.no/realestate/homes/ad.html?finnkode=256223358","ad_type":1,"energy_label":4,"from_year":2007,"lat":68.87205,"local_area_name":null,"lon":18.33648,"number_of_bedrooms":4,"owner_type_description":"Eier (Selveier)","property_type_description":"Enebolig","size_from":135,"to_year":2007,"type":"realestate"},{"Location":"Torggata 135B, Hamar","ad_id":256100793,"ad_link":"https://www.finn.no/realestate/homes/ad.html?finnkode=256100793","ad_type":1,"energy_label":4,"from_year":2007,"lat":60.79554,"local_area_name":null,"lon":11.06143,"number_of_bedrooms":3,"owner_type_description":"Andel","property_type_description":"Leilighet","size_from":127,"to_year":2007,"type":"realestate"},{"Location":"Elvarheimgata 4D, Elverum","ad_id":254076600,"ad_link":"https://www.finn.no/realestate/homes/ad.html?finnkode=254076600","ad_type":1,"energy_label":4,"from_year":2007,"lat":60.8797,"local_area_name":null,"lon":11.5615,"number_of_bedrooms":1,"owner_type_description":"Andel","property_type_description":"Leilighet","size_from":36,"to_year":2007,"type":"realestate"},{"Location":"Søndre Tollbodgate 15A, Tromsø","ad_id":254665291,"ad_link":"https://www.finn.no/realestate/homes/ad.html?finnkode=254665291","ad_type":1,"energy_label":4,"from_year":2007,"lat":69.6522,"local_area_name":"INDRE HAVN - TROMSØ SENTRUM","lon":18.9645,"number_of_bedrooms":2,"owner_type_description":"Eier (Selveier)","property_type_description":"Leilighet","size_from":176,"to_year":2007,"type":"realestate"},{"Location":"Tyttebærveien 11, Kodal","ad_id":236219208,"ad_link":"https://www.finn.no/realestate/homes/ad.html?finnkode=236219208","ad_type":1,"energy_label":4,"from_year":2007,"lat":59.207,"local_area_name":"Kodal","lon":10.1389,"number_of_bedrooms":4,"owner_type_description":"Eier (Selveier)","property_type_description":"Enebolig","size_from":265,"to_year":2007,"type":"realestate"},{"Location":"Granheimtunet 11, Ski","ad_id":253945570,"ad_link":"https://www.finn.no/realestate/homes/ad.html?finnkode=253945570","ad_type":1,"energy_label":4,"from_year":2007,"lat":59.71848,"local_area_name":null,"lon":10.79935,"number_of_bedrooms":3,"owner_type_description":"Eier (Selveier)","property_type_description":"Leilighet","size_from":95,"to_year":2007,"type":"realestate"},{"Location":"Ørstrandveien 21, Svensby","ad_id":232680089,"ad_link":"https://www.finn.no/realestate/homes/ad.html?finnkode=232680089","ad_type":1,"energy_label":4,"from_year":2007,"lat":69.8151,"local_area_name":"Lenangsøyra","lon":19.983,"number_of_bedrooms":2,"owner_type_description":"Eier (Selveier)","property_type_description":"Tomannsbolig","size_from":108,"to_year":2007,"type":"realestate"},{"Location":"Farmoveien 9, Lindesnes","ad_id":252359982,"ad_link":"https://www.finn.no/realestate/homes/ad.html?finnkode=252359982","ad_type":1,"energy_label":4,"from_year":2007,"lat":58.0875,"local_area_name":"Vigeland","lon":7.3084,"number_of_bedrooms":2,"owner_type_description":"Andel","property_type_description":"Leilighet","size_from":59,"to_year":2007,"type":"realestate"},{"Location":"Turngata 7, Honningsvåg","ad_id":253125123,"ad_link":"https://www.finn.no/realestate/homes/ad.html?finnkode=253125123","ad_type":1,"energy_label":4,"from_year":2007,"lat":70.97769,"local_area_name":null,"lon":25.97382,"number_of_bedrooms":6,"owner_type_description":"Eier (Selveier)","property_type_description":"Andre","size_from":258,"to_year":2007,"type":"realestate"},{"Location":"Sølvspennetunet 40, Stavanger","ad_id":238495813,"ad_link":"https://www.finn.no/realestate/homes/ad.html?finnkode=238495813","ad_type":1,"energy_label":4,"from_year":2007,"lat":58.90631,"local_area_name":"Gausel","lon":5.73231,"number_of_bedrooms":2,"owner_type_description":"Andel","property_type_description":"Leilighet","size_from":112,"to_year":2007,"type":"realestate"},{"Location":"Orreveien 1, Ytre Enebakk","ad_id":252137858,"ad_link":"https://www.finn.no/realestate/homes/ad.html?finnkode=252137858","ad_type":1,"energy_label":4,"from_year":2007,"lat":59.7308,"local_area_name":null,"lon":11.0336,"number_of_bedrooms":4,"owner_type_description":"Eier (Selveier)","property_type_description":"Enebolig","size_from":190,"to_year":2007,"type":"realestate"},{"Location":"Remmafaret 18, Elnesvågen","ad_id":252090912,"ad_link":"https://www.finn.no/realestate/homes/ad.html?finnkode=252090912","ad_type":1,"energy_label":4,"from_year":2007,"lat":62.86218,"local_area_name":"Dalelia","lon":7.18286,"number_of_bedrooms":2,"owner_type_description":"Eier (Selveier)","property_type_description":"Tomannsbolig","size_from":66,"to_year":2007,"type":"realestate"},{"Location":"Nedre Sørlia 11, Fosnavåg","ad_id":250543900,"ad_link":"https://www.finn.no/realestate/homes/ad.html?finnkode=250543900","ad_type":1,"energy_label":4,"from_year":2007,"lat":62.32324,"local_area_name":"Toftestøa","lon":5.62933,"number_of_bedrooms":3,"owner_type_description":"Eier (Selveier)","property_type_description":"Enebolig","size_from":114,"to_year":2007,"type":"realestate"},{"Location":"Sæ 28, Stord","ad_id":245987694,"ad_link":"https://www.finn.no/realestate/homes/ad.html?finnkode=245987694","ad_type":1,"energy_label":4,"from_year":2007,"lat":59.7828,"local_area_name":"Leirvik","lon":5.4981,"number_of_bedrooms":2,"owner_type_description":"Eier (Selveier)","property_type_description":"Leilighet","size_from":97,"to_year":2007,"type":"realestate"},{"Location":"Holbergs gate 33, Sandnes","ad_id":246113386,"ad_link":"https://www.finn.no/realestate/homes/ad.html?finnkode=246113386","ad_type":1,"energy_label":4,"from_year":2007,"lat":58.8512,"local_area_name":"Sentrum","lon":5.7408,"number_of_bedrooms":1,"owner_type_description":"Eier (Selveier)","property_type_description":"Leilighet","size_from":31,"to_year":2007,"type":"realestate"},{"Location":"Stengjena 42, Klokkarvik","ad_id":220769617,"ad_link":"https://www.finn.no/realestate/homes/ad.html?finnkode=220769617","ad_type":1,"energy_label":4,"from_year":2007,"lat":60.1887,"local_area_name":"Kleppe","lon":5.1293,"number_of_bedrooms":3,"owner_type_description":"Eier (Selveier)","property_type_description":"Enebolig","size_from":121,"to_year":2007,"type":"realestate"},{"Location":"Sandåveien 5, Rennebu","ad_id":181752485,"ad_link":"https://www.finn.no/realestate/homes/ad.html?finnkode=181752485","ad_type":1,"energy_label":4,"from_year":2007,"lat":62.88328,"local_area_name":"Rennebu","lon":9.84021,"number_of_bedrooms":6,"owner_type_description":"Eier (Selveier)","property_type_description":"Enebolig","size_from":197,"to_year":2007,"type":"realestate"}]