[{"Location":"Sprintveien 11A, Sandefjord","ad_id":261015436,"ad_link":"https://www.finn.no/realestate/homes/ad.html?finnkode=261015436","ad_type":1,"energy_label":5,"from_year":1971,"lat":59.1323,"local_area_name":"Bugården/Krokemoa","lon":10.1779,"number_of_bedrooms":3,"owner_type_description":"Andel","property_type_description":"Rekkehus","size_from":139,"to_year":1971,"type":"realestate"},{"Location":"Øvre Stokkavei 82A, Stavanger","ad_id":260976042,"ad_link":"https://www.finn.no/realestate/homes/ad.html?finnkode=260976042","ad_type":1,"energy_label":5,"from_year":1971,"lat":58.9631,"local_area_name":"Stokka","lon":5.695,"number_of_bedrooms":2,"owner_type_description":"Eier (Selveier)","property_type_description":"Enebolig","size_from":155,"to_year":1971,"type":"realestate"},{"Location":"Hellig Olavs gate 59, Ålesund","ad_id":260932756,"ad_link":"https://www.finn.no/realestate/homes/ad.html?finnkode=260932756","ad_type":1,"energy_label":5,"from_year":1971,"lat":62.4635,"local_area_name":"Skarbøvika","lon":6.1085,"number_of_bedrooms":4,"owner_type_description":"Eier (Selveier)","property_type_description":"Enebolig","size_from":222,"to_year":1971,"type":"realestate"},{"Location":"Dues vei 38, Stavanger","ad_id":260916192,"ad_link":"https://www.finn.no/realestate/homes/ad.html?finnkode=260916192","ad_type":1,"energy_label":5,"from_year":1971,"lat":58.96378,"local_area_name":"Eiganes","lon":5.7061,"number_of_bedrooms":1,"owner_type_description":"Eier (Selveier)","property_type_description":"Leilighet","size_from":50,"to_year":1971,"type":"realestate"},{"Location":"Tuftedalen 30, Ulefoss","ad_id":260911673,"ad_link":"https://www.finn.no/realestate/homes/ad.html?finnkode=260911673","ad_type":1,"energy_label":5,"from_year":1971,"lat":59.26886,"local_area_name":null,"lon":9.28119,"number_of_bedrooms":3,"owner_type_description":"Eier (Selveier)","property_type_description":"Enebolig","size_from":85,"to_year":1971,"type":"realestate"},{"Location":"Bekkefaret 23, Årnes","ad_id":260764675,"ad_link":"https://www.finn.no/realestate/homes/ad.html?finnkode=260764675","ad_type":1,"energy_label":5,"from_year":1971,"lat":60.1174,"local_area_name":null,"lon":11.4874,"number_of_bedrooms":5,"owner_type_description":"Eier (Selveier)","property_type_description":"Enebolig","size_from":169,"to_year":1971,"type":"realestate"},{"Location":"Røværgata 11, Haugesund","ad_id":260429577,"ad_link":"https://www.finn.no/realestate/homes/ad.html?finnkode=260429577","ad_type":1,"energy_label":5,"from_year":1971,"lat":59.3954,"local_area_name":"Raglatua","lon":5.3176,"number_of_bedrooms":4,"owner_type_description":"Eier (Selveier)","property_type_description":"Enebolig","size_from":211,"to_year":1971,"type":"realestate"},{"Location":"Korsvika 2, Ålesund","ad_id":260388857,"ad_link":"https://www.finn.no/realestate/homes/ad.html?finnkode=260388857","ad_type":1,"energy_label":5,"from_year":1971,"lat":62.4545,"local_area_name":"Hessa","lon":6.1054,"number_of_bedrooms":3,"owner_type_description":"Eier (Selveier)","property_type_description":"Enebolig","size_from":166,"to_year":1971,"type":"realestate"},{"Location":"Kolstadflata 7C, Saupstad","ad_id":260402484,"ad_link":"https://www.finn.no/realestate/homes/ad.html?finnkode=260402484","ad_type":1,"energy_label":5,"from_year":1971,"lat":63.36886,"local_area_name":"Kolstad","lon":10.34793,"number_of_bedrooms":1,"owner_type_description":"Andel","property_type_description":"Leilighet","size_from":50,"to_year":1971,"type":"realestate"},{"Location":"Heggedalsveien 175, Heggedal","ad_id":259352779,"ad_link":"https://www.finn.no/realestate/homes/ad.html?finnkode=259352779","ad_type":1,"energy_label":5,"from_year":1971,"lat":59.8008,"local_area_name":"Heggedal","lon":10.4178,"number_of_bedrooms":6,"owner_type_description":"Eier (Selveier)","property_type_description":"Enebolig","size_from":236,"to_year":1971,"type":"realestate"},{"Location":"Tante Ulrikkes vei 26A, Oslo","ad_id":259927601,"ad_link":"https://www.finn.no/realestate/homes/ad.html?finnkode=259927601","ad_type":1,"energy_label":5,"from_year":1971,"lat":59.961,"local_area_name":"Stovner","lon":10.9165,"number_of_bedrooms":1,"owner_type_description":"Andel","property_type_description":"Leilighet","size_from":62,"to_year":1971,"type":"realestate"},{"Location":"Oredalsåsen 62, Fredrikstad","ad_id":260048930,"ad_link":"https://www.finn.no/realestate/homes/ad.html?finnkode=260048930","ad_type":1,"energy_label":5,"from_year":1971,"lat":59.23403,"local_area_name":"Oredalsåsen","lon":10.94513,"number_of_bedrooms":3,"owner_type_description":"Eier (Selveier)","property_type_description":"Rekkehus","size_from":112,"to_year":1971,"type":"realestate"},{"Location":"Helge Ingstads vei 27, Spydeberg","ad_id":259643153,"ad_link":"https://www.finn.no/realestate/homes/ad.html?finnkode=259643153","ad_type":1,"energy_label":5,"from_year":1971,"lat":59.6222,"local_area_name":"Spydeberg / Grini","lon":11.0898,"number_of_bedrooms":5,"owner_type_description":"Eier (Selveier)","property_type_description":"Enebolig","size_from":227,"to_year":1971,"type":"realestate"},{"Location":"Tussefaret 6B, Drøbak","ad_id":259875018,"ad_link":"https://www.finn.no/realestate/homes/ad.html?finnkode=259875018","ad_type":1,"energy_label":5,"from_year":1971,"lat":59.6607,"local_area_name":"Sogsti","lon":10.6421,"number_of_bedrooms":5,"owner_type_description":"Eier (Selveier)","property_type_description":"Enebolig","size_from":215,"to_year":1971,"type":"realestate"},{"Location":"Nygårdsbakken 8F, Nittedal","ad_id":259644235,"ad_link":"https://www.finn.no/realestate/homes/ad.html?finnkode=259644235","ad_type":1,"energy_label":5,"from_year":1971,"lat":60.0487,"local_area_name":"Rotnes","lon":10.8675,"number_of_bedrooms":2,"owner_type_description":"Andel","property_type_description":"Rekkehus","size_from":125,"to_year":1971,"type":"realestate"},{"Location":"Ståle Kyllingstads vei 4D, Sandnes","ad_id":259633789,"ad_link":"https://www.finn.no/realestate/homes/ad.html?finnkode=259633789","ad_type":1,"energy_label":5,"from_year":1971,"lat":58.8674,"local_area_name":"Varatun","lon":5.7354,"number_of_bedrooms":1,"owner_type_description":"Andel","property_type_description":"Leilighet","size_from":55,"to_year":1971,"type":"realestate"},{"Location":"Jaktlia 32, Østerås","ad_id":256907315,"ad_link":"https://www.finn.no/realestate/homes/ad.html?finnkode=256907315","ad_type":1,"energy_label":5,"from_year":1971,"lat":59.94473,"local_area_name":"Østerås/Hosle","lon":10.59919,"number_of_bedrooms":3,"owner_type_description":"Eier (Selveier)","property_type_description":"Enebolig","size_from":239,"to_year":1971,"type":"realestate"},{"Location":"Bakkevegen 10A, Øyer","ad_id":259469403,"ad_link":"https://www.finn.no/realestate/homes/ad.html?finnkode=259469403","ad_type":1,"energy_label":5,"from_year":1971,"lat":61.24532,"local_area_name":null,"lon":10.44411,"number_of_bedrooms":0,"owner_type_description":"Eier (Selveier)","property_type_description":"Enebolig","size_from":157,"to_year":1971,"type":"realestate"},{"Location":"Berglyveien 6, Husøysund","ad_id":258843399,"ad_link":"https://www.finn.no/realestate/homes/ad.html?finnkode=258843399","ad_type":1,"energy_label":5,"from_year":1971,"lat":59.2375,"local_area_name":"I vannkanten på Føynland","lon":10.4389,"number_of_bedrooms":4,"owner_type_description":"Eier (Selveier)","property_type_description":"Enebolig","size_from":327,"to_year":1971,"type":"realestate"},{"Location":"ÅSLANDVEGEN 4, Flatdal","ad_id":257964952,"ad_link":"https://www.finn.no/realestate/homes/ad.html?finnkode=257964952","ad_type":1,"energy_label":5,"from_year":1971,"lat":59.55991,"local_area_name":null,"lon":8.58053,"number_of_bedrooms":4,"owner_type_description":"Eier (Selveier)","property_type_description":"Enebolig","size_from":151,"to_year":1971,"type":"realestate"},{"Location":"Fullriggerveien 24, Egersund","ad_id":258026728,"ad_link":"https://www.finn.no/realestate/homes/ad.html?finnkode=258026728","ad_type":1,"energy_label":5,"from_year":1971,"lat":58.453,"local_area_name":"Eigerøy","lon":5.9704,"number_of_bedrooms":5,"owner_type_description":"Eier (Selveier)","property_type_description":"Enebolig","size_from":195,"to_year":1971,"type":"realestate"},{"Location":"Symrevegen 12, Verdal","ad_id":258006696,"ad_link":"https://www.finn.no/realestate/homes/ad.html?finnkode=258006696","ad_type":1,"energy_label":5,"from_year":1971,"lat":63.80914,"local_area_name":"Ydsedalen","lon":11.46572,"number_of_bedrooms":3,"owner_type_description":"Eier (Selveier)","property_type_description":"Enebolig","size_from":127,"to_year":1971,"type":"realestate"},{"Location":"Øvre Sørliveg 11A, Steinkjer","ad_id":256474546,"ad_link":"https://www.finn.no/realestate/homes/ad.html?finnkode=256474546","ad_type":1,"energy_label":5,"from_year":1971,"lat":63.99396,"local_area_name":null,"lon":11.46605,"number_of_bedrooms":4,"owner_type_description":"Eier (Selveier)","property_type_description":"Rekkehus","size_from":131,"to_year":1971,"type":"realestate"},{"Location":"Liaveien 27, Solbergmoen","ad_id":255699509,"ad_link":"https://www.finn.no/realestate/homes/ad.html?finnkode=255699509","ad_type":1,"energy_label":5,"from_year":1971,"lat":59.76303,"local_area_name":"Solbergmoen","lon":10.0551,"number_of_bedrooms":4,"owner_type_description":"Eier (Selveier)","property_type_description":"Enebolig","size_from":212,"to_year":1971,"type":"realestate"},{"Location":"Gladvollveien 36C, Oslo","ad_id":244912660,"ad_link":"https://www.finn.no/realestate/homes/ad.html?finnkode=244912660","ad_type":1,"energy_label":5,"from_year":1971,"lat":59.84925,"local_area_name":null,"lon":10.78452,"number_of_bedrooms":3,"owner_type_description":"Eier (Selveier)","property_type_description":"Rekkehus","size_from":210,"to_year":1971,"type":"realestate"},{"Location":"Kometveien 23, Tønsberg","ad_id":249552621,"ad_link":"https://www.finn.no/realestate/homes/ad.html?finnkode=249552621","ad_type":1,"energy_label":5,"from_year":1971,"lat":59.26245,"local_area_name":null,"lon":10.44541,"number_of_bedrooms":6,"owner_type_description":"Eier (Selveier)","property_type_description":"Enebolig","size_from":185,"to_year":1971,"type":"realestate"},{"Location":"Lyngdalsveien 234, Farsund","ad_id":231365345,"ad_link":"https://www.finn.no/realestate/homes/ad.html?finnkode=231365345","ad_type":1,"energy_label":5,"from_year":1971,"lat":58.10131,"local_area_name":null,"lon":6.83943,"number_of_bedrooms":5,"owner_type_description":"Eier (Selveier)","property_type_description":"Enebolig","size_from":238,"to_year":1971,"type":"realestate"},{"Location":"Håvardsvegen 2B, Øvre Årdal","ad_id":236643462,"ad_link":"https://www.finn.no/realestate/homes/ad.html?finnkode=236643462","ad_type":1,"energy_label":5,"from_year":1971,"lat":61.3082,"local_area_name":null,"lon":7.7938,"number_of_bedrooms":3,"owner_type_description":"Eier (Selveier)","property_type_description":"Tomannsbolig","size_from":111,"to_year":1971,"type":"realestate"}]