[{"Location":"Eggavegen 27, Ålen","ad_id":261457219,"ad_link":"https://www.finn.no/realestate/homes/ad.html?finnkode=261457219","ad_type":1,"energy_label":7,"from_year":1972,"lat":62.84008,"local_area_name":"Ålen Sentrum","lon":11.30156,"number_of_bedrooms":4,"owner_type_description":"Eier (Selveier)","property_type_description":"Enebolig","size_from":96,"to_year":1972,"type":"realestate"},{"Location":"Dag Hammarskjölds vei 171, Fyllingsdalen","ad_id":261426564,"ad_link":"https://www.finn.no/realestate/homes/ad.html?finnkode=261426564","ad_type":1,"energy_label":7,"from_year":1972,"lat":60.34799,"local_area_name":null,"lon":5.29414,"number_of_bedrooms":0,"owner_type_description":"Andel","property_type_description":"Leilighet","size_from":33,"to_year":1972,"type":"realestate"},{"Location":"Bjørnemyr terrasse 9D, Bjørnemyr","ad_id":257075225,"ad_link":"https://www.finn.no/realestate/homes/ad.html?finnkode=257075225","ad_type":1,"energy_label":7,"from_year":1972,"lat":59.8343,"local_area_name":null,"lon":10.6455,"number_of_bedrooms":2,"owner_type_description":"Eier (Selveier)","property_type_description":"Rekkehus","size_from":96,"to_year":1972,"type":"realestate"},{"Location":"Rørvikveien 23 B, Rypefjord","ad_id":260940431,"ad_link":"https://www.finn.no/realestate/homes/ad.html?finnkode=260940431","ad_type":1,"energy_label":7,"from_year":1972,"lat":70.64786,"local_area_name":null,"lon":23.66525,"number_of_bedrooms":1,"owner_type_description":"Andel","property_type_description":"Rekkehus","size_from":52,"to_year":1972,"type":"realestate"},{"Location":"Bekkebergvegen 35, Gjerdrum","ad_id":261178548,"ad_link":"https://www.finn.no/realestate/homes/ad.html?finnkode=261178548","ad_type":1,"energy_label":7,"from_year":1972,"lat":60.08823,"local_area_name":null,"lon":11.00669,"number_of_bedrooms":0,"owner_type_description":"Eier (Selveier)","property_type_description":"Enebolig","size_from":147,"to_year":1972,"type":"realestate"},{"Location":"Knattåsveien 18, Grålum","ad_id":260977077,"ad_link":"https://www.finn.no/realestate/homes/ad.html?finnkode=260977077","ad_type":1,"energy_label":7,"from_year":1972,"lat":59.2899,"local_area_name":"Gralum","lon":11.0588,"number_of_bedrooms":4,"owner_type_description":"Eier (Selveier)","property_type_description":"Enebolig","size_from":125,"to_year":1972,"type":"realestate"},{"Location":"Hauglandsheia 2C, Arendal","ad_id":260930236,"ad_link":"https://www.finn.no/realestate/homes/ad.html?finnkode=260930236","ad_type":1,"energy_label":7,"from_year":1972,"lat":58.46331,"local_area_name":null,"lon":8.75243,"number_of_bedrooms":2,"owner_type_description":"Eier (Selveier)","property_type_description":"Leilighet","size_from":44,"to_year":1972,"type":"realestate"},{"Location":"Frøyas gate 10A, Oslo","ad_id":253283249,"ad_link":"https://www.finn.no/realestate/homes/ad.html?finnkode=253283249","ad_type":1,"energy_label":7,"from_year":1972,"lat":59.91765,"local_area_name":"Skarpsno/Frogner","lon":10.69412,"number_of_bedrooms":3,"owner_type_description":"Eier (Selveier)","property_type_description":"Leilighet","size_from":95,"to_year":1972,"type":"realestate"},{"Location":"Christies vei 13, Kongsberg","ad_id":260839510,"ad_link":"https://www.finn.no/realestate/homes/ad.html?finnkode=260839510","ad_type":1,"energy_label":7,"from_year":1972,"lat":59.6792,"local_area_name":null,"lon":9.6501,"number_of_bedrooms":3,"owner_type_description":"Eier (Selveier)","property_type_description":"Enebolig","size_from":136,"to_year":1972,"type":"realestate"},{"Location":"Bodals vei 70, Klavestadhaugen","ad_id":253354363,"ad_link":"https://www.finn.no/realestate/homes/ad.html?finnkode=253354363","ad_type":1,"energy_label":7,"from_year":1972,"lat":59.2448,"local_area_name":null,"lon":11.2007,"number_of_bedrooms":4,"owner_type_description":"Eier (Selveier)","property_type_description":"Enebolig","size_from":118,"to_year":1972,"type":"realestate"},{"Location":"Blaklihøgda 10B, Trondheim","ad_id":260698122,"ad_link":"https://www.finn.no/realestate/homes/ad.html?finnkode=260698122","ad_type":1,"energy_label":7,"from_year":1972,"lat":63.39425,"local_area_name":"RISVOLLAN","lon":10.43613,"number_of_bedrooms":2,"owner_type_description":"Andel","property_type_description":"Leilighet","size_from":91,"to_year":1972,"type":"realestate"},{"Location":"Sandved terrasse 13, Sandnes","ad_id":256010803,"ad_link":"https://www.finn.no/realestate/homes/ad.html?finnkode=256010803","ad_type":1,"energy_label":7,"from_year":1972,"lat":58.8391,"local_area_name":"Sandved","lon":5.7166,"number_of_bedrooms":4,"owner_type_description":"Eier (Selveier)","property_type_description":"Enebolig","size_from":173,"to_year":1972,"type":"realestate"},{"Location":"Øvre Hagaveg 68, Årnes","ad_id":255663633,"ad_link":"https://www.finn.no/realestate/homes/ad.html?finnkode=255663633","ad_type":1,"energy_label":7,"from_year":1972,"lat":60.1145,"local_area_name":null,"lon":11.4657,"number_of_bedrooms":3,"owner_type_description":"Eier (Selveier)","property_type_description":"Enebolig","size_from":211,"to_year":1972,"type":"realestate"},{"Location":"Torstvedtåsen 26, Larvik","ad_id":260053310,"ad_link":"https://www.finn.no/realestate/homes/ad.html?finnkode=260053310","ad_type":1,"energy_label":7,"from_year":1972,"lat":59.07473,"local_area_name":"Torstvedt","lon":10.04664,"number_of_bedrooms":4,"owner_type_description":"Eier (Selveier)","property_type_description":"Enebolig","size_from":151,"to_year":1972,"type":"realestate"},{"Location":"Sjøstrand 9, Sandefjord","ad_id":259755340,"ad_link":"https://www.finn.no/realestate/homes/ad.html?finnkode=259755340","ad_type":1,"energy_label":7,"from_year":1972,"lat":59.1135,"local_area_name":"Utsikt på Ranvik","lon":10.2184,"number_of_bedrooms":2,"owner_type_description":"Obligasjon","property_type_description":"Leilighet","size_from":93,"to_year":1972,"type":"realestate"},{"Location":"Rørvikveien 23 G, Rypefjord","ad_id":257328410,"ad_link":"https://www.finn.no/realestate/homes/ad.html?finnkode=257328410","ad_type":1,"energy_label":7,"from_year":1972,"lat":70.64776,"local_area_name":"Rypefjord","lon":23.66518,"number_of_bedrooms":0,"owner_type_description":"Andel","property_type_description":"Leilighet","size_from":53,"to_year":1972,"type":"realestate"},{"Location":"Bergfrueveien 14E, Rolvsøy","ad_id":256857859,"ad_link":"https://www.finn.no/realestate/homes/ad.html?finnkode=256857859","ad_type":1,"energy_label":7,"from_year":1972,"lat":59.2596,"local_area_name":null,"lon":11.0015,"number_of_bedrooms":3,"owner_type_description":"Andel","property_type_description":"Leilighet","size_from":84,"to_year":1972,"type":"realestate"},{"Location":"Sporveisgata 8A, Oslo","ad_id":256206298,"ad_link":"https://www.finn.no/realestate/homes/ad.html?finnkode=256206298","ad_type":1,"energy_label":7,"from_year":1972,"lat":59.926,"local_area_name":"BISLETT / MAJORSTUEN","lon":10.7289,"number_of_bedrooms":3,"owner_type_description":"Andel","property_type_description":"Leilighet","size_from":106,"to_year":1972,"type":"realestate"},{"Location":"VENGSØYA 203, Vengsøy","ad_id":252513992,"ad_link":"https://www.finn.no/realestate/homes/ad.html?finnkode=252513992","ad_type":1,"energy_label":7,"from_year":1972,"lat":69.8329,"local_area_name":null,"lon":18.58993,"number_of_bedrooms":3,"owner_type_description":"Eier (Selveier)","property_type_description":"Enebolig","size_from":153,"to_year":1972,"type":"realestate"},{"Location":"Sporveisgata 8A, Oslo","ad_id":250004171,"ad_link":"https://www.finn.no/realestate/homes/ad.html?finnkode=250004171","ad_type":1,"energy_label":7,"from_year":1972,"lat":59.926,"local_area_name":"BISLETT / MAJORSTUEN","lon":10.7289,"number_of_bedrooms":2,"owner_type_description":"Andel","property_type_description":"Leilighet","size_from":65,"to_year":1972,"type":"realestate"},{"Location":"Haakon VII`s gate 36, Tromsø","ad_id":250214690,"ad_link":"https://www.finn.no/realestate/homes/ad.html?finnkode=250214690","ad_type":1,"energy_label":7,"from_year":1972,"lat":69.65481,"local_area_name":null,"lon":18.93917,"number_of_bedrooms":3,"owner_type_description":"Eier (Selveier)","property_type_description":"Enebolig","size_from":171,"to_year":1972,"type":"realestate"}]