[{"Location":"Hellebakkane 4, Lysekloster","ad_id":261521722,"ad_link":"https://www.finn.no/realestate/homes/ad.html?finnkode=261521722","ad_type":1,"energy_label":6,"from_year":1983,"lat":60.21335,"local_area_name":null,"lon":5.3895,"number_of_bedrooms":5,"owner_type_description":"Eier (Selveier)","property_type_description":"Enebolig","size_from":183,"to_year":1983,"type":"realestate"},{"Location":"Demma 15, Bodø","ad_id":261464216,"ad_link":"https://www.finn.no/realestate/homes/ad.html?finnkode=261464216","ad_type":1,"energy_label":6,"from_year":1983,"lat":67.31212,"local_area_name":"Løpsmark","lon":14.4524,"number_of_bedrooms":4,"owner_type_description":"Eier (Selveier)","property_type_description":"Enebolig","size_from":185,"to_year":1983,"type":"realestate"},{"Location":"Lønneveien 29, Åsgårdstrand","ad_id":261389997,"ad_link":"https://www.finn.no/realestate/homes/ad.html?finnkode=261389997","ad_type":1,"energy_label":6,"from_year":1983,"lat":59.347,"local_area_name":"NYHET!","lon":10.4575,"number_of_bedrooms":6,"owner_type_description":"Eier (Selveier)","property_type_description":"Enebolig","size_from":222,"to_year":1983,"type":"realestate"},{"Location":"Grindhaugvegen 59B, Hjellestad","ad_id":258960579,"ad_link":"https://www.finn.no/realestate/homes/ad.html?finnkode=258960579","ad_type":1,"energy_label":6,"from_year":1983,"lat":60.2591,"local_area_name":null,"lon":5.24859,"number_of_bedrooms":4,"owner_type_description":"Eier (Selveier)","property_type_description":"Tomannsbolig","size_from":128,"to_year":1983,"type":"realestate"},{"Location":"Hanserabben 5A, Borgenhaugen","ad_id":261363005,"ad_link":"https://www.finn.no/realestate/homes/ad.html?finnkode=261363005","ad_type":1,"energy_label":6,"from_year":1983,"lat":59.2624,"local_area_name":null,"lon":11.1351,"number_of_bedrooms":3,"owner_type_description":"Eier (Selveier)","property_type_description":"Enebolig","size_from":114,"to_year":1983,"type":"realestate"},{"Location":"Festningsgata 52, Kristiansand S","ad_id":261262899,"ad_link":"https://www.finn.no/realestate/homes/ad.html?finnkode=261262899","ad_type":1,"energy_label":6,"from_year":1983,"lat":58.1494,"local_area_name":null,"lon":7.99328,"number_of_bedrooms":1,"owner_type_description":"Eier (Selveier)","property_type_description":"Leilighet","size_from":40,"to_year":1983,"type":"realestate"},{"Location":"Breimyra 162, Flaktveit","ad_id":253092607,"ad_link":"https://www.finn.no/realestate/homes/ad.html?finnkode=253092607","ad_type":1,"energy_label":6,"from_year":1983,"lat":60.46244,"local_area_name":"Flaktveit","lon":5.36232,"number_of_bedrooms":1,"owner_type_description":"Andel","property_type_description":"Leilighet","size_from":62,"to_year":1983,"type":"realestate"},{"Location":"Furustubben 6, Grua","ad_id":261218311,"ad_link":"https://www.finn.no/realestate/homes/ad.html?finnkode=261218311","ad_type":1,"energy_label":6,"from_year":1983,"lat":60.2559,"local_area_name":null,"lon":10.6544,"number_of_bedrooms":3,"owner_type_description":"Eier (Selveier)","property_type_description":"Tomannsbolig","size_from":105,"to_year":1983,"type":"realestate"},{"Location":"Åsstubben 23, Oslo","ad_id":261240447,"ad_link":"https://www.finn.no/realestate/homes/ad.html?finnkode=261240447","ad_type":1,"energy_label":6,"from_year":1983,"lat":59.92929,"local_area_name":"ULLERN / ÅSJORDET","lon":10.64966,"number_of_bedrooms":3,"owner_type_description":"Eier (Selveier)","property_type_description":"Leilighet","size_from":116,"to_year":1983,"type":"realestate"},{"Location":"Hamangskogen 73, Sandvika","ad_id":261182094,"ad_link":"https://www.finn.no/realestate/homes/ad.html?finnkode=261182094","ad_type":1,"energy_label":6,"from_year":1983,"lat":59.89586,"local_area_name":"SANDVIKA - HAMANG","lon":10.50921,"number_of_bedrooms":2,"owner_type_description":"Eier (Selveier)","property_type_description":"Leilighet","size_from":91,"to_year":1983,"type":"realestate"},{"Location":"Olaf Bulls vei 74, Oslo","ad_id":261174101,"ad_link":"https://www.finn.no/realestate/homes/ad.html?finnkode=261174101","ad_type":1,"energy_label":6,"from_year":1983,"lat":59.97029,"local_area_name":"Voksenskog","lon":10.64216,"number_of_bedrooms":2,"owner_type_description":"Eier (Selveier)","property_type_description":"Leilighet","size_from":97,"to_year":1983,"type":"realestate"},{"Location":"Tromsøgata 21, Oslo","ad_id":260891100,"ad_link":"https://www.finn.no/realestate/homes/ad.html?finnkode=260891100","ad_type":1,"energy_label":6,"from_year":1983,"lat":59.9249,"local_area_name":"RODELØKKA","lon":10.7729,"number_of_bedrooms":2,"owner_type_description":"Eier (Selveier)","property_type_description":"Leilighet","size_from":71,"to_year":1983,"type":"realestate"},{"Location":"Grefsenkollveien 7A, Oslo","ad_id":260644548,"ad_link":"https://www.finn.no/realestate/homes/ad.html?finnkode=260644548","ad_type":1,"energy_label":6,"from_year":1983,"lat":59.9508,"local_area_name":"Grefsen","lon":10.796,"number_of_bedrooms":2,"owner_type_description":"Andel","property_type_description":"Leilighet","size_from":58,"to_year":1983,"type":"realestate"},{"Location":"Sørheimveien 43, Rørvik","ad_id":260955890,"ad_link":"https://www.finn.no/realestate/homes/ad.html?finnkode=260955890","ad_type":1,"energy_label":6,"from_year":1983,"lat":64.90821,"local_area_name":"Lauvøya","lon":11.28818,"number_of_bedrooms":4,"owner_type_description":"Eier (Selveier)","property_type_description":"Enebolig","size_from":124,"to_year":1983,"type":"realestate"},{"Location":"Godthåpvegen 1B, Tromsø","ad_id":260792315,"ad_link":"https://www.finn.no/realestate/homes/ad.html?finnkode=260792315","ad_type":1,"energy_label":6,"from_year":1983,"lat":69.6671,"local_area_name":"Guleng","lon":18.9646,"number_of_bedrooms":2,"owner_type_description":"Eier (Selveier)","property_type_description":"Tomannsbolig","size_from":83,"to_year":1983,"type":"realestate"},{"Location":"Vågsmyrgata 69, Stavanger","ad_id":260906985,"ad_link":"https://www.finn.no/realestate/homes/ad.html?finnkode=260906985","ad_type":1,"energy_label":6,"from_year":1983,"lat":58.9188,"local_area_name":"Hinna","lon":5.7235,"number_of_bedrooms":2,"owner_type_description":"Andel","property_type_description":"Leilighet","size_from":81,"to_year":1983,"type":"realestate"},{"Location":"Skonhovdvegen 237, Hunndalen","ad_id":260927727,"ad_link":"https://www.finn.no/realestate/homes/ad.html?finnkode=260927727","ad_type":1,"energy_label":6,"from_year":1983,"lat":60.7816,"local_area_name":"Gjøvik / Skonhovd","lon":10.5687,"number_of_bedrooms":3,"owner_type_description":"Eier (Selveier)","property_type_description":"Enebolig","size_from":174,"to_year":1983,"type":"realestate"},{"Location":"Balders vei 7, Arendal","ad_id":260924702,"ad_link":"https://www.finn.no/realestate/homes/ad.html?finnkode=260924702","ad_type":1,"energy_label":6,"from_year":1983,"lat":58.47912,"local_area_name":null,"lon":8.7541,"number_of_bedrooms":3,"owner_type_description":"Eier (Selveier)","property_type_description":"Enebolig","size_from":118,"to_year":1983,"type":"realestate"},{"Location":"Donevikveien 23, Hafrsfjord","ad_id":260902290,"ad_link":"https://www.finn.no/realestate/homes/ad.html?finnkode=260902290","ad_type":1,"energy_label":6,"from_year":1983,"lat":58.9625,"local_area_name":"Nord Sunde / Kvernevik","lon":5.6054,"number_of_bedrooms":4,"owner_type_description":"Eier (Selveier)","property_type_description":"Enebolig","size_from":279,"to_year":1983,"type":"realestate"},{"Location":"Nedre Malthaug 4, Hafrsfjord","ad_id":260882487,"ad_link":"https://www.finn.no/realestate/homes/ad.html?finnkode=260882487","ad_type":1,"energy_label":6,"from_year":1983,"lat":58.9588,"local_area_name":null,"lon":5.6196,"number_of_bedrooms":3,"owner_type_description":"Eier (Selveier)","property_type_description":"Enebolig","size_from":153,"to_year":1983,"type":"realestate"},{"Location":"Leirfossvegen 43C, Trondheim","ad_id":260743537,"ad_link":"https://www.finn.no/realestate/homes/ad.html?finnkode=260743537","ad_type":1,"energy_label":6,"from_year":1983,"lat":63.38899,"local_area_name":"FOSSEGRENDA","lon":10.39435,"number_of_bedrooms":3,"owner_type_description":"Eier (Selveier)","property_type_description":"Enebolig","size_from":146,"to_year":1983,"type":"realestate"},{"Location":"Grindstuveien 41, Rykkinn","ad_id":258339514,"ad_link":"https://www.finn.no/realestate/homes/ad.html?finnkode=258339514","ad_type":1,"energy_label":6,"from_year":1983,"lat":59.9199,"local_area_name":null,"lon":10.4792,"number_of_bedrooms":6,"owner_type_description":"Eier (Selveier)","property_type_description":"Enebolig","size_from":189,"to_year":1983,"type":"realestate"},{"Location":"Solveien 148A, Oslo","ad_id":259145318,"ad_link":"https://www.finn.no/realestate/homes/ad.html?finnkode=259145318","ad_type":1,"energy_label":6,"from_year":1983,"lat":59.8538,"local_area_name":"NORDSTRAND","lon":10.7863,"number_of_bedrooms":3,"owner_type_description":"Eier (Selveier)","property_type_description":"Tomannsbolig","size_from":188,"to_year":1983,"type":"realestate"},{"Location":"Trollkleiva 14, Kristiansand S","ad_id":254182417,"ad_link":"https://www.finn.no/realestate/homes/ad.html?finnkode=254182417","ad_type":1,"energy_label":6,"from_year":1983,"lat":58.1443,"local_area_name":"Søm","lon":8.0663,"number_of_bedrooms":3,"owner_type_description":"Eier (Selveier)","property_type_description":"Leilighet","size_from":99,"to_year":1983,"type":"realestate"},{"Location":"Bakkeli 6, Kløfta","ad_id":258339377,"ad_link":"https://www.finn.no/realestate/homes/ad.html?finnkode=258339377","ad_type":1,"energy_label":6,"from_year":1983,"lat":60.0663,"local_area_name":"Bo godt på Kløfta!","lon":11.1337,"number_of_bedrooms":1,"owner_type_description":"Andel","property_type_description":"Leilighet","size_from":62,"to_year":1983,"type":"realestate"},{"Location":"Hamangskogen 69, Sandvika","ad_id":260449747,"ad_link":"https://www.finn.no/realestate/homes/ad.html?finnkode=260449747","ad_type":1,"energy_label":6,"from_year":1983,"lat":59.8955,"local_area_name":"SANDVIKA / ØVRE HAMANG","lon":10.5105,"number_of_bedrooms":2,"owner_type_description":"Eier (Selveier)","property_type_description":"Leilighet","size_from":69,"to_year":1983,"type":"realestate"},{"Location":"Nebbejordet 5, Oslo","ad_id":259348395,"ad_link":"https://www.finn.no/realestate/homes/ad.html?finnkode=259348395","ad_type":1,"energy_label":6,"from_year":1983,"lat":59.8434,"local_area_name":"Øvre Prinsdal/Hauketo","lon":10.8121,"number_of_bedrooms":1,"owner_type_description":"Andel","property_type_description":"Leilighet","size_from":67,"to_year":1983,"type":"realestate"},{"Location":"Grindbakken 26, Oslo","ad_id":260522824,"ad_link":"https://www.finn.no/realestate/homes/ad.html?finnkode=260522824","ad_type":1,"energy_label":6,"from_year":1983,"lat":59.97007,"local_area_name":null,"lon":10.64665,"number_of_bedrooms":3,"owner_type_description":"Andel","property_type_description":"Leilighet","size_from":91,"to_year":1983,"type":"realestate"},{"Location":"Akebakkeskogen 11 B, Oslo","ad_id":260360587,"ad_link":"https://www.finn.no/realestate/homes/ad.html?finnkode=260360587","ad_type":1,"energy_label":6,"from_year":1983,"lat":59.95122,"local_area_name":"Idylliske Akebakkeskogen","lon":10.79685,"number_of_bedrooms":2,"owner_type_description":"Andel","property_type_description":"Leilighet","size_from":58,"to_year":1983,"type":"realestate"},{"Location":"Nedre Silkestrå 24, Oslo","ad_id":260236505,"ad_link":"https://www.finn.no/realestate/homes/ad.html?finnkode=260236505","ad_type":1,"energy_label":6,"from_year":1983,"lat":59.92868,"local_area_name":"Skøyen/ Nedre Silkestrå","lon":10.68307,"number_of_bedrooms":3,"owner_type_description":"Andel","property_type_description":"Leilighet","size_from":91,"to_year":1983,"type":"realestate"},{"Location":"Bregnevegen 7, Kleppe","ad_id":259800943,"ad_link":"https://www.finn.no/realestate/homes/ad.html?finnkode=259800943","ad_type":1,"energy_label":6,"from_year":1983,"lat":58.7863,"local_area_name":"Verdalen","lon":5.6076,"number_of_bedrooms":2,"owner_type_description":"Eier (Selveier)","property_type_description":"Enebolig","size_from":218,"to_year":1983,"type":"realestate"},{"Location":"Kirkegata 52 B, Trondheim","ad_id":259741744,"ad_link":"https://www.finn.no/realestate/homes/ad.html?finnkode=259741744","ad_type":1,"energy_label":6,"from_year":1983,"lat":63.43501,"local_area_name":"Møllenberg","lon":10.4168,"number_of_bedrooms":1,"owner_type_description":"Eier (Selveier)","property_type_description":"Leilighet","size_from":39,"to_year":1983,"type":"realestate"},{"Location":"Vidars vei 1, Holmestrand","ad_id":259758446,"ad_link":"https://www.finn.no/realestate/homes/ad.html?finnkode=259758446","ad_type":1,"energy_label":6,"from_year":1983,"lat":59.5046,"local_area_name":"Gullhaug","lon":10.2464,"number_of_bedrooms":6,"owner_type_description":"Eier (Selveier)","property_type_description":"Enebolig","size_from":234,"to_year":1983,"type":"realestate"},{"Location":"Arhaugvegen 16, Bølandet","ad_id":259752575,"ad_link":"https://www.finn.no/realestate/homes/ad.html?finnkode=259752575","ad_type":1,"energy_label":6,"from_year":1983,"lat":62.3524,"local_area_name":null,"lon":5.7389,"number_of_bedrooms":3,"owner_type_description":"Eier (Selveier)","property_type_description":"Enebolig","size_from":167,"to_year":1983,"type":"realestate"},{"Location":"Lunneveien 17, Dilling","ad_id":259749808,"ad_link":"https://www.finn.no/realestate/homes/ad.html?finnkode=259749808","ad_type":1,"energy_label":6,"from_year":1983,"lat":59.37184,"local_area_name":null,"lon":10.66652,"number_of_bedrooms":4,"owner_type_description":"Eier (Selveier)","property_type_description":"Enebolig","size_from":287,"to_year":1983,"type":"realestate"},{"Location":"Strupvegen 20C, Brumunddal","ad_id":259747904,"ad_link":"https://www.finn.no/realestate/homes/ad.html?finnkode=259747904","ad_type":1,"energy_label":6,"from_year":1983,"lat":60.90524,"local_area_name":"#BRUMUNDDAL","lon":10.96607,"number_of_bedrooms":1,"owner_type_description":"Andel","property_type_description":"Rekkehus","size_from":50,"to_year":1983,"type":"realestate"},{"Location":"Arnstein Arnebergs vei 7, Oslo","ad_id":259145361,"ad_link":"https://www.finn.no/realestate/homes/ad.html?finnkode=259145361","ad_type":1,"energy_label":6,"from_year":1983,"lat":59.9266,"local_area_name":"Madserud/Frognerparken","lon":10.6957,"number_of_bedrooms":1,"owner_type_description":"Eier (Selveier)","property_type_description":"Leilighet","size_from":45,"to_year":1983,"type":"realestate"},{"Location":"Vindalsåsen 20A, Skien","ad_id":259604132,"ad_link":"https://www.finn.no/realestate/homes/ad.html?finnkode=259604132","ad_type":1,"energy_label":6,"from_year":1983,"lat":59.1857,"local_area_name":"Skien - Vindalsåsen","lon":9.5856,"number_of_bedrooms":3,"owner_type_description":"Eier (Selveier)","property_type_description":"Tomannsbolig","size_from":105,"to_year":1983,"type":"realestate"},{"Location":"Morkelveien 10B, Rasta","ad_id":259231826,"ad_link":"https://www.finn.no/realestate/homes/ad.html?finnkode=259231826","ad_type":1,"energy_label":6,"from_year":1983,"lat":59.9138,"local_area_name":"Rasta|Vallerud","lon":10.9349,"number_of_bedrooms":2,"owner_type_description":"Andel","property_type_description":"Leilighet","size_from":66,"to_year":1983,"type":"realestate"},{"Location":"Kvernbakken 38, Trollåsen","ad_id":259126787,"ad_link":"https://www.finn.no/realestate/homes/ad.html?finnkode=259126787","ad_type":1,"energy_label":6,"from_year":1983,"lat":59.80999,"local_area_name":null,"lon":10.77858,"number_of_bedrooms":5,"owner_type_description":"Eier (Selveier)","property_type_description":"Enebolig","size_from":223,"to_year":1983,"type":"realestate"},{"Location":"Kråkefotveien 13D, Alta","ad_id":258859982,"ad_link":"https://www.finn.no/realestate/homes/ad.html?finnkode=258859982","ad_type":1,"energy_label":6,"from_year":1983,"lat":69.9597,"local_area_name":"Kaiskuru","lon":23.3863,"number_of_bedrooms":2,"owner_type_description":"Andel","property_type_description":"Rekkehus","size_from":87,"to_year":1983,"type":"realestate"},{"Location":"Grytnesveien 15A, Sætre","ad_id":258873975,"ad_link":"https://www.finn.no/realestate/homes/ad.html?finnkode=258873975","ad_type":1,"energy_label":6,"from_year":1983,"lat":59.6726,"local_area_name":"Asker/Sætre","lon":10.5419,"number_of_bedrooms":3,"owner_type_description":"Eier (Selveier)","property_type_description":"Enebolig","size_from":161,"to_year":1983,"type":"realestate"},{"Location":"Steinrøysa 13, Torp","ad_id":254186345,"ad_link":"https://www.finn.no/realestate/homes/ad.html?finnkode=254186345","ad_type":1,"energy_label":6,"from_year":1983,"lat":59.23331,"local_area_name":"Torp - Fredrikstad","lon":11.00587,"number_of_bedrooms":4,"owner_type_description":"Eier (Selveier)","property_type_description":"Enebolig","size_from":171,"to_year":1983,"type":"realestate"},{"Location":"Prinsessealléen 19, Oslo","ad_id":258752949,"ad_link":"https://www.finn.no/realestate/homes/ad.html?finnkode=258752949","ad_type":1,"energy_label":6,"from_year":1983,"lat":59.92525,"local_area_name":"SKØYEN/ CASINETTO","lon":10.68813,"number_of_bedrooms":3,"owner_type_description":"Andel","property_type_description":"Leilighet","size_from":97,"to_year":1983,"type":"realestate"},{"Location":"OLAF BULLS VEI 56, Oslo","ad_id":258693277,"ad_link":"https://www.finn.no/realestate/homes/ad.html?finnkode=258693277","ad_type":1,"energy_label":6,"from_year":1983,"lat":59.9694,"local_area_name":"BOGSTAD/HOLMENKOLLEN","lon":10.6429,"number_of_bedrooms":2,"owner_type_description":"Eier (Selveier)","property_type_description":"Leilighet","size_from":81,"to_year":1983,"type":"realestate"},{"Location":"Jarlsborgveien 18B, Trondheim","ad_id":258489749,"ad_link":"https://www.finn.no/realestate/homes/ad.html?finnkode=258489749","ad_type":1,"energy_label":6,"from_year":1983,"lat":63.44491,"local_area_name":"Lade","lon":10.4294,"number_of_bedrooms":2,"owner_type_description":"Eier (Selveier)","property_type_description":"Leilighet","size_from":172,"to_year":1983,"type":"realestate"},{"Location":"Fjordaveien 29B, Rypefjord","ad_id":258076695,"ad_link":"https://www.finn.no/realestate/homes/ad.html?finnkode=258076695","ad_type":1,"energy_label":6,"from_year":1983,"lat":70.63646,"local_area_name":null,"lon":23.67849,"number_of_bedrooms":4,"owner_type_description":"Eier (Selveier)","property_type_description":"Enebolig","size_from":203,"to_year":1983,"type":"realestate"},{"Location":"Skoleveien 24, Skibotn","ad_id":256487473,"ad_link":"https://www.finn.no/realestate/homes/ad.html?finnkode=256487473","ad_type":1,"energy_label":6,"from_year":1983,"lat":69.3835,"local_area_name":null,"lon":20.2818,"number_of_bedrooms":3,"owner_type_description":"Eier (Selveier)","property_type_description":"Enebolig","size_from":155,"to_year":1983,"type":"realestate"},{"Location":"Televeien 6, Setskog","ad_id":250954018,"ad_link":"https://www.finn.no/realestate/homes/ad.html?finnkode=250954018","ad_type":1,"energy_label":6,"from_year":1983,"lat":59.82749,"local_area_name":"Setskog","lon":11.72042,"number_of_bedrooms":2,"owner_type_description":"Eier (Selveier)","property_type_description":"Enebolig","size_from":206,"to_year":1983,"type":"realestate"},{"Location":"Sarpollaringen 9, Lakselv","ad_id":212181824,"ad_link":"https://www.finn.no/realestate/homes/ad.html?finnkode=212181824","ad_type":1,"energy_label":6,"from_year":1983,"lat":70.05881,"local_area_name":"Lakselv","lon":24.9409,"number_of_bedrooms":3,"owner_type_description":"Eier (Selveier)","property_type_description":"Enebolig","size_from":134,"to_year":1983,"type":"realestate"},{"Location":"Villaveien 22, Åna-Sira","ad_id":218375059,"ad_link":"https://www.finn.no/realestate/homes/ad.html?finnkode=218375059","ad_type":1,"energy_label":6,"from_year":1983,"lat":58.2949,"local_area_name":"Åna-Sira","lon":6.4385,"number_of_bedrooms":3,"owner_type_description":"Eier (Selveier)","property_type_description":"Enebolig","size_from":144,"to_year":1983,"type":"realestate"},{"Location":"Førsvegen 508, Skei i Jølster","ad_id":221632223,"ad_link":"https://www.finn.no/realestate/homes/ad.html?finnkode=221632223","ad_type":1,"energy_label":6,"from_year":1983,"lat":61.61978,"local_area_name":"Førde i Jølster","lon":6.44889,"number_of_bedrooms":4,"owner_type_description":"Eier (Selveier)","property_type_description":"Gårdsbruk/Småbruk","size_from":199,"to_year":1983,"type":"realestate"},{"Location":"Eigelia 10, Farsund","ad_id":211736377,"ad_link":"https://www.finn.no/realestate/homes/ad.html?finnkode=211736377","ad_type":1,"energy_label":6,"from_year":1983,"lat":58.18623,"local_area_name":"Åpta","lon":6.80987,"number_of_bedrooms":4,"owner_type_description":"Eier (Selveier)","property_type_description":"Enebolig","size_from":178,"to_year":1983,"type":"realestate"}]