[{"Location":"Frederik Stangs gate 14, Oslo","ad_id":261018457,"ad_link":"https://www.finn.no/realestate/homes/ad.html?finnkode=261018457","ad_type":1,"energy_label":6,"from_year":1993,"lat":59.9141,"local_area_name":"Frogner","lon":10.7075,"number_of_bedrooms":1,"owner_type_description":"Eier (Selveier)","property_type_description":"Leilighet","size_from":62,"to_year":1993,"type":"realestate"},{"Location":"Ensjøsvingen 2, Oslo","ad_id":260993613,"ad_link":"https://www.finn.no/realestate/homes/ad.html?finnkode=260993613","ad_type":1,"energy_label":6,"from_year":1993,"lat":59.91139,"local_area_name":"Ensjø","lon":10.79124,"number_of_bedrooms":1,"owner_type_description":"Andel","property_type_description":"Leilighet","size_from":55,"to_year":1993,"type":"realestate"},{"Location":"Høylandsvegen 65D, Vennesla","ad_id":260912203,"ad_link":"https://www.finn.no/realestate/homes/ad.html?finnkode=260912203","ad_type":1,"energy_label":6,"from_year":1993,"lat":58.24046,"local_area_name":"Påmeldingsvisning, tirs 14/6 kl.16:00!","lon":7.9513,"number_of_bedrooms":4,"owner_type_description":"Eier (Selveier)","property_type_description":"Leilighet","size_from":103,"to_year":1993,"type":"realestate"},{"Location":"Måsankroken 12A, Asker","ad_id":260760147,"ad_link":"https://www.finn.no/realestate/homes/ad.html?finnkode=260760147","ad_type":1,"energy_label":6,"from_year":1993,"lat":59.82648,"local_area_name":null,"lon":10.39881,"number_of_bedrooms":2,"owner_type_description":"Eier (Selveier)","property_type_description":"Leilighet","size_from":70,"to_year":1993,"type":"realestate"},{"Location":"Storevågen 17F, Ålesund","ad_id":260434093,"ad_link":"https://www.finn.no/realestate/homes/ad.html?finnkode=260434093","ad_type":1,"energy_label":6,"from_year":1993,"lat":62.4419,"local_area_name":"Blindheim","lon":6.362,"number_of_bedrooms":1,"owner_type_description":"Andel","property_type_description":"Leilighet","size_from":45,"to_year":1993,"type":"realestate"},{"Location":"Tyttebærstien 22, Harestua","ad_id":259839667,"ad_link":"https://www.finn.no/realestate/homes/ad.html?finnkode=259839667","ad_type":1,"energy_label":6,"from_year":1993,"lat":60.2157,"local_area_name":null,"lon":10.7195,"number_of_bedrooms":2,"owner_type_description":"Eier (Selveier)","property_type_description":"Enebolig","size_from":75,"to_year":1993,"type":"realestate"},{"Location":"Fossvegen 5, Lillehammer","ad_id":259646030,"ad_link":"https://www.finn.no/realestate/homes/ad.html?finnkode=259646030","ad_type":1,"energy_label":6,"from_year":1993,"lat":61.116,"local_area_name":"Sentrum","lon":10.4687,"number_of_bedrooms":2,"owner_type_description":"Andel","property_type_description":"Leilighet","size_from":65,"to_year":1993,"type":"realestate"},{"Location":"Stålveien 3, Tønsberg","ad_id":256491652,"ad_link":"https://www.finn.no/realestate/homes/ad.html?finnkode=256491652","ad_type":1,"energy_label":6,"from_year":1993,"lat":59.2457,"local_area_name":"Tangen","lon":10.46735,"number_of_bedrooms":3,"owner_type_description":"Eier (Selveier)","property_type_description":"Enebolig","size_from":256,"to_year":1993,"type":"realestate"},{"Location":"Øyaveien 36, Røros","ad_id":256542900,"ad_link":"https://www.finn.no/realestate/homes/ad.html?finnkode=256542900","ad_type":1,"energy_label":6,"from_year":1993,"lat":62.5691,"local_area_name":null,"lon":11.3748,"number_of_bedrooms":1,"owner_type_description":"Eier (Selveier)","property_type_description":"Leilighet","size_from":52,"to_year":1993,"type":"realestate"},{"Location":"Stasjonsvegen 12D, Bø i Telemark","ad_id":253013732,"ad_link":"https://www.finn.no/realestate/homes/ad.html?finnkode=253013732","ad_type":1,"energy_label":6,"from_year":1993,"lat":59.412,"local_area_name":"Bø - Sentrum","lon":9.0701,"number_of_bedrooms":2,"owner_type_description":"Eier (Selveier)","property_type_description":"Leilighet","size_from":69,"to_year":1993,"type":"realestate"},{"Location":"Grefsenveien 78D, Oslo","ad_id":252269513,"ad_link":"https://www.finn.no/realestate/homes/ad.html?finnkode=252269513","ad_type":1,"energy_label":6,"from_year":1993,"lat":59.9512,"local_area_name":"Grefsen","lon":10.7859,"number_of_bedrooms":1,"owner_type_description":"Eier (Selveier)","property_type_description":"Leilighet","size_from":53,"to_year":1993,"type":"realestate"}]