[{"Location":"Aspeveien 3, Stamsund","ad_id":261438118,"ad_link":"https://www.finn.no/realestate/homes/ad.html?finnkode=261438118","ad_type":1,"energy_label":7,"from_year":1975,"lat":68.13689,"local_area_name":null,"lon":13.83436,"number_of_bedrooms":0,"owner_type_description":"Eier (Selveier)","property_type_description":"Enebolig","size_from":215,"to_year":1975,"type":"realestate"},{"Location":"LANGELANDSÅSEN 1, Stord","ad_id":253270031,"ad_link":"https://www.finn.no/realestate/homes/ad.html?finnkode=253270031","ad_type":1,"energy_label":7,"from_year":1975,"lat":59.76529,"local_area_name":null,"lon":5.46872,"number_of_bedrooms":4,"owner_type_description":"Eier (Selveier)","property_type_description":"Enebolig","size_from":214,"to_year":1975,"type":"realestate"},{"Location":"Grøndalsbakken 138 C, Elverum","ad_id":260793621,"ad_link":"https://www.finn.no/realestate/homes/ad.html?finnkode=260793621","ad_type":1,"energy_label":7,"from_year":1975,"lat":60.86678,"local_area_name":null,"lon":11.58086,"number_of_bedrooms":3,"owner_type_description":"Andel","property_type_description":"Leilighet","size_from":99,"to_year":1975,"type":"realestate"},{"Location":"Håkon Håkonssons veg 63, Lillehammer","ad_id":260526322,"ad_link":"https://www.finn.no/realestate/homes/ad.html?finnkode=260526322","ad_type":1,"energy_label":7,"from_year":1975,"lat":61.1289,"local_area_name":"Nordre Ål","lon":10.4703,"number_of_bedrooms":1,"owner_type_description":"Andel","property_type_description":"Leilighet","size_from":46,"to_year":1975,"type":"realestate"},{"Location":"Vestgårdvegen 34F, Levanger","ad_id":260642732,"ad_link":"https://www.finn.no/realestate/homes/ad.html?finnkode=260642732","ad_type":1,"energy_label":7,"from_year":1975,"lat":63.73751,"local_area_name":"Bruborg","lon":11.31179,"number_of_bedrooms":1,"owner_type_description":"Andel","property_type_description":"Leilighet","size_from":50,"to_year":1975,"type":"realestate"},{"Location":"Teigveien 60, Enebakkneset","ad_id":250240581,"ad_link":"https://www.finn.no/realestate/homes/ad.html?finnkode=250240581","ad_type":1,"energy_label":7,"from_year":1975,"lat":59.768,"local_area_name":"Enebakkneset","lon":11.2693,"number_of_bedrooms":3,"owner_type_description":"Eier (Selveier)","property_type_description":"Enebolig","size_from":199,"to_year":1975,"type":"realestate"},{"Location":"Åsengata 6A, Oslo","ad_id":260396391,"ad_link":"https://www.finn.no/realestate/homes/ad.html?finnkode=260396391","ad_type":1,"energy_label":7,"from_year":1975,"lat":59.93752,"local_area_name":"Torshov","lon":10.76943,"number_of_bedrooms":4,"owner_type_description":"Andel","property_type_description":"Leilighet","size_from":89,"to_year":1975,"type":"realestate"},{"Location":"Fledsbergveien 56, Våler i Østfold","ad_id":260012274,"ad_link":"https://www.finn.no/realestate/homes/ad.html?finnkode=260012274","ad_type":1,"energy_label":7,"from_year":1975,"lat":59.48314,"local_area_name":null,"lon":10.86835,"number_of_bedrooms":0,"owner_type_description":"Eier (Selveier)","property_type_description":"Enebolig","size_from":132,"to_year":1975,"type":"realestate"},{"Location":"Merkurveien 19, Krokstadelva","ad_id":259723299,"ad_link":"https://www.finn.no/realestate/homes/ad.html?finnkode=259723299","ad_type":1,"energy_label":7,"from_year":1975,"lat":59.7587,"local_area_name":null,"lon":10.0341,"number_of_bedrooms":3,"owner_type_description":"Andel","property_type_description":"Rekkehus","size_from":93,"to_year":1975,"type":"realestate"},{"Location":"Dyrgravveien 21 E og 23 C, Kongsberg","ad_id":257249428,"ad_link":"https://www.finn.no/realestate/homes/ad.html?finnkode=257249428","ad_type":1,"energy_label":7,"from_year":1975,"lat":59.68464,"local_area_name":null,"lon":9.62699,"number_of_bedrooms":16,"owner_type_description":"Eier (Selveier)","property_type_description":"Andre","size_from":372,"to_year":1975,"type":"realestate"},{"Location":"Sollia 22, Askim","ad_id":255675843,"ad_link":"https://www.finn.no/realestate/homes/ad.html?finnkode=255675843","ad_type":1,"energy_label":7,"from_year":1975,"lat":59.5882,"local_area_name":"Sollia","lon":11.1435,"number_of_bedrooms":2,"owner_type_description":"Eier (Selveier)","property_type_description":"Leilighet","size_from":83,"to_year":1975,"type":"realestate"},{"Location":"Egne Hjem 95, Sauda","ad_id":252930179,"ad_link":"https://www.finn.no/realestate/homes/ad.html?finnkode=252930179","ad_type":1,"energy_label":7,"from_year":1975,"lat":59.64742,"local_area_name":null,"lon":6.37877,"number_of_bedrooms":4,"owner_type_description":"Eier (Selveier)","property_type_description":"Enebolig","size_from":161,"to_year":1975,"type":"realestate"},{"Location":"Sævarhagen 8, Stord","ad_id":219194138,"ad_link":"https://www.finn.no/realestate/homes/ad.html?finnkode=219194138","ad_type":1,"energy_label":7,"from_year":1975,"lat":59.8007,"local_area_name":null,"lon":5.5232,"number_of_bedrooms":1,"owner_type_description":"Andel","property_type_description":"Leilighet","size_from":52,"to_year":1975,"type":"realestate"}]