[{"Location":"Stavangergata 46 A, Oslo","ad_id":261245745,"ad_link":"https://www.finn.no/realestate/homes/ad.html?finnkode=261245745","ad_type":1,"energy_label":4,"from_year":1955,"lat":59.9444,"local_area_name":"BJØLSEN / SAGENE","lon":10.7588,"number_of_bedrooms":0,"owner_type_description":"Andel","property_type_description":"Leilighet","size_from":18,"to_year":1955,"type":"realestate"},{"Location":"Storgata 24, Kristiansund N","ad_id":260940709,"ad_link":"https://www.finn.no/realestate/homes/ad.html?finnkode=260940709","ad_type":1,"energy_label":4,"from_year":1955,"lat":63.1091,"local_area_name":null,"lon":7.7303,"number_of_bedrooms":1,"owner_type_description":"Andel","property_type_description":"Leilighet","size_from":51,"to_year":1955,"type":"realestate"},{"Location":"Marmorveien 5, Oslo","ad_id":260020852,"ad_link":"https://www.finn.no/realestate/homes/ad.html?finnkode=260020852","ad_type":1,"energy_label":4,"from_year":1955,"lat":59.8749,"local_area_name":null,"lon":10.8211,"number_of_bedrooms":2,"owner_type_description":"Andel","property_type_description":"Leilighet","size_from":63,"to_year":1955,"type":"realestate"},{"Location":"Aksel Bråtens veg 39, Dal","ad_id":260041165,"ad_link":"https://www.finn.no/realestate/homes/ad.html?finnkode=260041165","ad_type":1,"energy_label":4,"from_year":1955,"lat":60.2524,"local_area_name":"Dal","lon":11.2025,"number_of_bedrooms":3,"owner_type_description":"Eier (Selveier)","property_type_description":"Enebolig","size_from":148,"to_year":1955,"type":"realestate"},{"Location":"Tempoveien 15, Kristiansund N","ad_id":249984706,"ad_link":"https://www.finn.no/realestate/homes/ad.html?finnkode=249984706","ad_type":1,"energy_label":4,"from_year":1955,"lat":63.1115,"local_area_name":null,"lon":7.7204,"number_of_bedrooms":3,"owner_type_description":"Eier (Selveier)","property_type_description":"Rekkehus","size_from":136,"to_year":1955,"type":"realestate"},{"Location":"Ubekilen 31, Færvik","ad_id":252638298,"ad_link":"https://www.finn.no/realestate/homes/ad.html?finnkode=252638298","ad_type":1,"energy_label":4,"from_year":1955,"lat":58.46401,"local_area_name":null,"lon":8.83102,"number_of_bedrooms":4,"owner_type_description":"Eier (Selveier)","property_type_description":"Enebolig","size_from":159,"to_year":1955,"type":"realestate"},{"Location":"Rødbergvegen 169, Matrand","ad_id":184423733,"ad_link":"https://www.finn.no/realestate/homes/ad.html?finnkode=184423733","ad_type":1,"energy_label":4,"from_year":1955,"lat":60.02375,"local_area_name":null,"lon":12.0991,"number_of_bedrooms":2,"owner_type_description":"Eier (Selveier)","property_type_description":"Gårdsbruk/Småbruk","size_from":125,"to_year":1955,"type":"realestate"}]