[{"Location":"Husbrekka 29, Mosjøen","ad_id":259816100,"ad_link":"https://www.finn.no/realestate/homes/ad.html?finnkode=259816100","ad_type":1,"energy_label":7,"from_year":1965,"lat":65.82412,"local_area_name":"Husbrekka","lon":13.2157,"number_of_bedrooms":2,"owner_type_description":"Eier (Selveier)","property_type_description":"Tomannsbolig","size_from":152,"to_year":1965,"type":"realestate"},{"Location":"Gimlevegen 6, Trondheim","ad_id":260894606,"ad_link":"https://www.finn.no/realestate/homes/ad.html?finnkode=260894606","ad_type":1,"energy_label":7,"from_year":1965,"lat":63.4019,"local_area_name":"Nardo","lon":10.4222,"number_of_bedrooms":4,"owner_type_description":"Eier (Selveier)","property_type_description":"Tomannsbolig","size_from":122,"to_year":1965,"type":"realestate"},{"Location":"Maria Fegths gate 31A, Drammen","ad_id":261351123,"ad_link":"https://www.finn.no/realestate/homes/ad.html?finnkode=261351123","ad_type":1,"energy_label":7,"from_year":1965,"lat":59.725,"local_area_name":"Rundtom","lon":10.2323,"number_of_bedrooms":1,"owner_type_description":"Andel","property_type_description":"Leilighet","size_from":56,"to_year":1965,"type":"realestate"},{"Location":"Marcus Thranes gate 1B, Gjøvik","ad_id":260882367,"ad_link":"https://www.finn.no/realestate/homes/ad.html?finnkode=260882367","ad_type":1,"energy_label":7,"from_year":1965,"lat":60.7981,"local_area_name":null,"lon":10.6861,"number_of_bedrooms":1,"owner_type_description":"Andel","property_type_description":"Leilighet","size_from":33,"to_year":1965,"type":"realestate"},{"Location":"Grevlingåsen 11 A, Hosle","ad_id":261342748,"ad_link":"https://www.finn.no/realestate/homes/ad.html?finnkode=261342748","ad_type":1,"energy_label":7,"from_year":1965,"lat":59.93845,"local_area_name":"IDYLLISK PÅ HOSLE","lon":10.58853,"number_of_bedrooms":1,"owner_type_description":"Andel","property_type_description":"Leilighet","size_from":50,"to_year":1965,"type":"realestate"},{"Location":"Ole Bulls gate 44, Lillestrøm","ad_id":261200385,"ad_link":"https://www.finn.no/realestate/homes/ad.html?finnkode=261200385","ad_type":1,"energy_label":7,"from_year":1965,"lat":59.9601,"local_area_name":"Lillestrøm","lon":11.0619,"number_of_bedrooms":2,"owner_type_description":"Andel","property_type_description":"Leilighet","size_from":70,"to_year":1965,"type":"realestate"},{"Location":"Sigrid Undsets vei 5C, Sofiemyr","ad_id":260920676,"ad_link":"https://www.finn.no/realestate/homes/ad.html?finnkode=260920676","ad_type":1,"energy_label":7,"from_year":1965,"lat":59.797,"local_area_name":"SOFIEMYR","lon":10.8123,"number_of_bedrooms":3,"owner_type_description":"Eier (Selveier)","property_type_description":"Rekkehus","size_from":108,"to_year":1965,"type":"realestate"},{"Location":"Aråsveien 41, Skallestad","ad_id":256660058,"ad_link":"https://www.finn.no/realestate/homes/ad.html?finnkode=256660058","ad_type":1,"energy_label":7,"from_year":1965,"lat":59.19575,"local_area_name":"NØTTERØY - ARÅS","lon":10.44975,"number_of_bedrooms":2,"owner_type_description":"Eier (Selveier)","property_type_description":"Enebolig","size_from":97,"to_year":1965,"type":"realestate"},{"Location":"Legdåsveien 3, Sandefjord","ad_id":260986824,"ad_link":"https://www.finn.no/realestate/homes/ad.html?finnkode=260986824","ad_type":1,"energy_label":7,"from_year":1965,"lat":59.14933,"local_area_name":"Mosserød","lon":10.21607,"number_of_bedrooms":3,"owner_type_description":"Eier (Selveier)","property_type_description":"Enebolig","size_from":103,"to_year":1965,"type":"realestate"},{"Location":"Hellemyrdalen 10, Kristiansand S","ad_id":260919794,"ad_link":"https://www.finn.no/realestate/homes/ad.html?finnkode=260919794","ad_type":1,"energy_label":7,"from_year":1965,"lat":58.14202,"local_area_name":"NEDRE HELLEMYR","lon":7.94808,"number_of_bedrooms":6,"owner_type_description":"Eier (Selveier)","property_type_description":"Enebolig","size_from":160,"to_year":1965,"type":"realestate"},{"Location":"Luksefjellvegen 298, Skien","ad_id":260897644,"ad_link":"https://www.finn.no/realestate/homes/ad.html?finnkode=260897644","ad_type":1,"energy_label":7,"from_year":1965,"lat":59.2467,"local_area_name":"Skien - Limi","lon":9.5854,"number_of_bedrooms":3,"owner_type_description":"Eier (Selveier)","property_type_description":"Enebolig","size_from":96,"to_year":1965,"type":"realestate"},{"Location":"Henrik Wergelands gate 81A, Kristiansand S","ad_id":260911784,"ad_link":"https://www.finn.no/realestate/homes/ad.html?finnkode=260911784","ad_type":1,"energy_label":7,"from_year":1965,"lat":58.15043,"local_area_name":null,"lon":7.9977,"number_of_bedrooms":2,"owner_type_description":"Eier (Selveier)","property_type_description":"Leilighet","size_from":84,"to_year":1965,"type":"realestate"},{"Location":"G. M. Brydes vei 20, Vollen","ad_id":260895711,"ad_link":"https://www.finn.no/realestate/homes/ad.html?finnkode=260895711","ad_type":1,"energy_label":7,"from_year":1965,"lat":59.80921,"local_area_name":"STOR EIENDOM SENTRALT I VOLLEN","lon":10.47708,"number_of_bedrooms":2,"owner_type_description":"Eier (Selveier)","property_type_description":"Enebolig","size_from":129,"to_year":1965,"type":"realestate"},{"Location":"Steinveien 11, Stavern","ad_id":260869787,"ad_link":"https://www.finn.no/realestate/homes/ad.html?finnkode=260869787","ad_type":1,"energy_label":7,"from_year":1965,"lat":59.00421,"local_area_name":"Stavern","lon":10.02623,"number_of_bedrooms":3,"owner_type_description":"Eier (Selveier)","property_type_description":"Enebolig","size_from":100,"to_year":1965,"type":"realestate"},{"Location":"Kristins vei 41, Oslo","ad_id":260815789,"ad_link":"https://www.finn.no/realestate/homes/ad.html?finnkode=260815789","ad_type":1,"energy_label":7,"from_year":1965,"lat":59.91519,"local_area_name":"Tveita","lon":10.83737,"number_of_bedrooms":2,"owner_type_description":"Andel","property_type_description":"Leilighet","size_from":73,"to_year":1965,"type":"realestate"},{"Location":"Olasvevegen 74, Lillehammer","ad_id":258049899,"ad_link":"https://www.finn.no/realestate/homes/ad.html?finnkode=258049899","ad_type":1,"energy_label":7,"from_year":1965,"lat":61.1416,"local_area_name":null,"lon":10.4754,"number_of_bedrooms":3,"owner_type_description":"Eier (Selveier)","property_type_description":"Enebolig","size_from":125,"to_year":1965,"type":"realestate"},{"Location":"Dalsetveien 64, Stavanger","ad_id":260773305,"ad_link":"https://www.finn.no/realestate/homes/ad.html?finnkode=260773305","ad_type":1,"energy_label":7,"from_year":1965,"lat":58.93465,"local_area_name":"Øvre Vaulen","lon":5.72225,"number_of_bedrooms":4,"owner_type_description":"Eier (Selveier)","property_type_description":"Enebolig","size_from":160,"to_year":1965,"type":"realestate"},{"Location":"Solheimveien 31, Lillesand","ad_id":250675127,"ad_link":"https://www.finn.no/realestate/homes/ad.html?finnkode=250675127","ad_type":1,"energy_label":7,"from_year":1965,"lat":58.25789,"local_area_name":null,"lon":8.38317,"number_of_bedrooms":2,"owner_type_description":"Eier (Selveier)","property_type_description":"Enebolig","size_from":170,"to_year":1965,"type":"realestate"},{"Location":"Olaf Bulls gate 31, Haugesund","ad_id":260751321,"ad_link":"https://www.finn.no/realestate/homes/ad.html?finnkode=260751321","ad_type":1,"energy_label":7,"from_year":1965,"lat":59.39022,"local_area_name":"Sakkastad","lon":5.3085,"number_of_bedrooms":2,"owner_type_description":"Eier (Selveier)","property_type_description":"Enebolig","size_from":149,"to_year":1965,"type":"realestate"},{"Location":"Svegane 50, Os","ad_id":260682738,"ad_link":"https://www.finn.no/realestate/homes/ad.html?finnkode=260682738","ad_type":1,"energy_label":7,"from_year":1965,"lat":60.20238,"local_area_name":null,"lon":5.4371,"number_of_bedrooms":1,"owner_type_description":"Eier (Selveier)","property_type_description":"Enebolig","size_from":75,"to_year":1965,"type":"realestate"},{"Location":"Gullveien 10C, Kristiansand S","ad_id":260518179,"ad_link":"https://www.finn.no/realestate/homes/ad.html?finnkode=260518179","ad_type":1,"energy_label":7,"from_year":1965,"lat":58.14751,"local_area_name":"Tinnheia","lon":7.95762,"number_of_bedrooms":2,"owner_type_description":"Andel","property_type_description":"Leilighet","size_from":67,"to_year":1965,"type":"realestate"},{"Location":"Gudolf Blakstads vei 29B, Vettre","ad_id":258690339,"ad_link":"https://www.finn.no/realestate/homes/ad.html?finnkode=258690339","ad_type":1,"energy_label":7,"from_year":1965,"lat":59.8138,"local_area_name":"Gullhella / Blakstad","lon":10.4624,"number_of_bedrooms":4,"owner_type_description":"Eier (Selveier)","property_type_description":"Enebolig","size_from":266,"to_year":1965,"type":"realestate"},{"Location":"Idrettsgata 23, Leknes","ad_id":260483640,"ad_link":"https://www.finn.no/realestate/homes/ad.html?finnkode=260483640","ad_type":1,"energy_label":7,"from_year":1965,"lat":68.14649,"local_area_name":"Leknes","lon":13.61303,"number_of_bedrooms":5,"owner_type_description":"Eier (Selveier)","property_type_description":"Enebolig","size_from":240,"to_year":1965,"type":"realestate"},{"Location":"O.J. Aalmos veg 36 A, Trondheim","ad_id":253850600,"ad_link":"https://www.finn.no/realestate/homes/ad.html?finnkode=253850600","ad_type":1,"energy_label":7,"from_year":1965,"lat":63.39095,"local_area_name":"Byåsen/Rydningen","lon":10.35441,"number_of_bedrooms":3,"owner_type_description":"Eier (Selveier)","property_type_description":"Tomannsbolig","size_from":165,"to_year":1965,"type":"realestate"},{"Location":"Grevlingåsen 11B, Hosle","ad_id":260006535,"ad_link":"https://www.finn.no/realestate/homes/ad.html?finnkode=260006535","ad_type":1,"energy_label":7,"from_year":1965,"lat":59.9386,"local_area_name":null,"lon":10.5886,"number_of_bedrooms":1,"owner_type_description":"Andel","property_type_description":"Leilighet","size_from":52,"to_year":1965,"type":"realestate"},{"Location":"Rosevegen 20, Ottestad","ad_id":259740732,"ad_link":"https://www.finn.no/realestate/homes/ad.html?finnkode=259740732","ad_type":1,"energy_label":7,"from_year":1965,"lat":60.7829,"local_area_name":"Bekkelaget","lon":11.1192,"number_of_bedrooms":2,"owner_type_description":"Eier (Selveier)","property_type_description":"Enebolig","size_from":96,"to_year":1965,"type":"realestate"},{"Location":"Tuftedalen 10, Ulefoss","ad_id":233790932,"ad_link":"https://www.finn.no/realestate/homes/ad.html?finnkode=233790932","ad_type":1,"energy_label":7,"from_year":1965,"lat":59.27082,"local_area_name":"FEN - ULEfOSS","lon":9.28082,"number_of_bedrooms":5,"owner_type_description":"Eier (Selveier)","property_type_description":"Enebolig","size_from":187,"to_year":1965,"type":"realestate"},{"Location":"Birkeveien 1, Nesodden","ad_id":259954811,"ad_link":"https://www.finn.no/realestate/homes/ad.html?finnkode=259954811","ad_type":1,"energy_label":7,"from_year":1965,"lat":59.8428,"local_area_name":"HELLVIK","lon":10.6826,"number_of_bedrooms":3,"owner_type_description":"Eier (Selveier)","property_type_description":"Enebolig","size_from":156,"to_year":1965,"type":"realestate"},{"Location":"Nordlysveien 24, Tønsberg","ad_id":259996355,"ad_link":"https://www.finn.no/realestate/homes/ad.html?finnkode=259996355","ad_type":1,"energy_label":7,"from_year":1965,"lat":59.26281,"local_area_name":"Nedre Råel","lon":10.44627,"number_of_bedrooms":3,"owner_type_description":"Eier (Selveier)","property_type_description":"Enebolig","size_from":113,"to_year":1965,"type":"realestate"},{"Location":"Ulvestadvegen 87, Vatne","ad_id":259085631,"ad_link":"https://www.finn.no/realestate/homes/ad.html?finnkode=259085631","ad_type":1,"energy_label":7,"from_year":1965,"lat":62.56487,"local_area_name":"Vatne","lon":6.6165,"number_of_bedrooms":5,"owner_type_description":"Eier (Selveier)","property_type_description":"Enebolig","size_from":221,"to_year":1965,"type":"realestate"},{"Location":"Salt 103, Selje","ad_id":259511576,"ad_link":"https://www.finn.no/realestate/homes/ad.html?finnkode=259511576","ad_type":1,"energy_label":7,"from_year":1965,"lat":62.03002,"local_area_name":null,"lon":5.35146,"number_of_bedrooms":4,"owner_type_description":"Eier (Selveier)","property_type_description":"Enebolig","size_from":226,"to_year":1965,"type":"realestate"},{"Location":"Nils Huus' gate 18B, Oslo","ad_id":258241911,"ad_link":"https://www.finn.no/realestate/homes/ad.html?finnkode=258241911","ad_type":1,"energy_label":7,"from_year":1965,"lat":59.94158,"local_area_name":"Sandaker / Torshov","lon":10.77452,"number_of_bedrooms":0,"owner_type_description":"Eier (Selveier)","property_type_description":"Leilighet","size_from":31,"to_year":1965,"type":"realestate"},{"Location":"Bergveien 16, Harstad","ad_id":258335905,"ad_link":"https://www.finn.no/realestate/homes/ad.html?finnkode=258335905","ad_type":1,"energy_label":7,"from_year":1965,"lat":68.7818,"local_area_name":null,"lon":16.53914,"number_of_bedrooms":5,"owner_type_description":"Eier (Selveier)","property_type_description":"Enebolig","size_from":160,"to_year":1965,"type":"realestate"},{"Location":"Vassvegen 14-16, Mosjøen","ad_id":258212564,"ad_link":"https://www.finn.no/realestate/homes/ad.html?finnkode=258212564","ad_type":1,"energy_label":7,"from_year":1965,"lat":65.82733,"local_area_name":null,"lon":13.21891,"number_of_bedrooms":8,"owner_type_description":"Eier (Selveier)","property_type_description":"Produksjon/Industri","size_from":362,"to_year":1965,"type":"realestate"},{"Location":"Granliveien 21, Leknes","ad_id":257767082,"ad_link":"https://www.finn.no/realestate/homes/ad.html?finnkode=257767082","ad_type":1,"energy_label":7,"from_year":1965,"lat":68.14933,"local_area_name":"Leknes","lon":13.61231,"number_of_bedrooms":4,"owner_type_description":"Eier (Selveier)","property_type_description":"Enebolig","size_from":167,"to_year":1965,"type":"realestate"},{"Location":"Førlandsvegen 202, Aksdal","ad_id":257153081,"ad_link":"https://www.finn.no/realestate/homes/ad.html?finnkode=257153081","ad_type":1,"energy_label":7,"from_year":1965,"lat":59.389,"local_area_name":"Førland","lon":5.4797,"number_of_bedrooms":3,"owner_type_description":"Eier (Selveier)","property_type_description":"Tomannsbolig","size_from":122,"to_year":1965,"type":"realestate"},{"Location":"NUPENVEIEN 64, Harstad","ad_id":256261341,"ad_link":"https://www.finn.no/realestate/homes/ad.html?finnkode=256261341","ad_type":1,"energy_label":7,"from_year":1965,"lat":68.82304,"local_area_name":null,"lon":16.47114,"number_of_bedrooms":3,"owner_type_description":"Eier (Selveier)","property_type_description":"Enebolig","size_from":93,"to_year":1965,"type":"realestate"},{"Location":"Husmovegen 53, Årnes","ad_id":247874942,"ad_link":"https://www.finn.no/realestate/homes/ad.html?finnkode=247874942","ad_type":1,"energy_label":7,"from_year":1965,"lat":60.1381,"local_area_name":"Årnes/Runni","lon":11.4816,"number_of_bedrooms":4,"owner_type_description":"Eier (Selveier)","property_type_description":"Enebolig","size_from":162,"to_year":1965,"type":"realestate"},{"Location":"Espevik 9, Nedstrand","ad_id":254700499,"ad_link":"https://www.finn.no/realestate/homes/ad.html?finnkode=254700499","ad_type":1,"energy_label":7,"from_year":1965,"lat":59.3364,"local_area_name":"Nedstrand/Espevik","lon":5.6801,"number_of_bedrooms":4,"owner_type_description":"Eier (Selveier)","property_type_description":"Enebolig","size_from":176,"to_year":1965,"type":"realestate"},{"Location":"Sagvågsbrekko 2, Sagvåg","ad_id":242388040,"ad_link":"https://www.finn.no/realestate/homes/ad.html?finnkode=242388040","ad_type":1,"energy_label":7,"from_year":1965,"lat":59.7758,"local_area_name":"Sagvåg sentrum","lon":5.3921,"number_of_bedrooms":3,"owner_type_description":"Andel","property_type_description":"Leilighet","size_from":78,"to_year":1965,"type":"realestate"},{"Location":"Geisdalsvegen 41, Årdalstangen","ad_id":250844207,"ad_link":"https://www.finn.no/realestate/homes/ad.html?finnkode=250844207","ad_type":1,"energy_label":7,"from_year":1965,"lat":61.238,"local_area_name":null,"lon":7.7221,"number_of_bedrooms":4,"owner_type_description":"Eier (Selveier)","property_type_description":"Enebolig","size_from":130,"to_year":1965,"type":"realestate"},{"Location":"Marcus Thranes gate 1B, Gjøvik","ad_id":250658737,"ad_link":"https://www.finn.no/realestate/homes/ad.html?finnkode=250658737","ad_type":1,"energy_label":7,"from_year":1965,"lat":60.7981,"local_area_name":"SENTRUM","lon":10.6861,"number_of_bedrooms":0,"owner_type_description":"Andel","property_type_description":"Leilighet","size_from":32,"to_year":1965,"type":"realestate"},{"Location":"Sven Morens veg 11 A, Elverum","ad_id":250124933,"ad_link":"https://www.finn.no/realestate/homes/ad.html?finnkode=250124933","ad_type":1,"energy_label":7,"from_year":1965,"lat":60.88712,"local_area_name":"#NORDLEIRET","lon":11.56804,"number_of_bedrooms":1,"owner_type_description":"Andel","property_type_description":"Leilighet","size_from":47,"to_year":1965,"type":"realestate"},{"Location":"RÅDHUSGATA 6 A og B, Myre","ad_id":246426277,"ad_link":"https://www.finn.no/realestate/homes/ad.html?finnkode=246426277","ad_type":1,"energy_label":7,"from_year":1965,"lat":68.91401,"local_area_name":null,"lon":15.07948,"number_of_bedrooms":5,"owner_type_description":"Eier (Selveier)","property_type_description":"Enebolig","size_from":184,"to_year":1965,"type":"realestate"},{"Location":"Sven Morens veg 11C, Elverum","ad_id":242899061,"ad_link":"https://www.finn.no/realestate/homes/ad.html?finnkode=242899061","ad_type":1,"energy_label":7,"from_year":1965,"lat":60.8871,"local_area_name":"Elverum - Sentrum","lon":11.568,"number_of_bedrooms":1,"owner_type_description":"Andel","property_type_description":"Leilighet","size_from":47,"to_year":1965,"type":"realestate"},{"Location":"Torgvegen 6, Brandbu","ad_id":240289700,"ad_link":"https://www.finn.no/realestate/homes/ad.html?finnkode=240289700","ad_type":1,"energy_label":7,"from_year":1965,"lat":60.42052,"local_area_name":null,"lon":10.50692,"number_of_bedrooms":2,"owner_type_description":"Eier (Selveier)","property_type_description":"Leilighet","size_from":89,"to_year":1965,"type":"realestate"},{"Location":"Kirkegårdsveien 14, Vestre Jakobselv","ad_id":215990378,"ad_link":"https://www.finn.no/realestate/homes/ad.html?finnkode=215990378","ad_type":1,"energy_label":7,"from_year":1965,"lat":70.11669,"local_area_name":null,"lon":29.34453,"number_of_bedrooms":4,"owner_type_description":"Eier (Selveier)","property_type_description":"Enebolig","size_from":158,"to_year":1965,"type":"realestate"},{"Location":"Ølmedalsvegen 152, Vikedal","ad_id":215903272,"ad_link":"https://www.finn.no/realestate/homes/ad.html?finnkode=215903272","ad_type":1,"energy_label":7,"from_year":1965,"lat":59.49743,"local_area_name":"Ølmedal","lon":5.98966,"number_of_bedrooms":6,"owner_type_description":"Eier (Selveier)","property_type_description":"Enebolig","size_from":171,"to_year":1965,"type":"realestate"},{"Location":"STRANDVEGEN 38, Svelgen","ad_id":175804695,"ad_link":"https://www.finn.no/realestate/homes/ad.html?finnkode=175804695","ad_type":1,"energy_label":7,"from_year":1965,"lat":61.76557,"local_area_name":"Langeneset","lon":5.26216,"number_of_bedrooms":4,"owner_type_description":"Eier (Selveier)","property_type_description":"Enebolig","size_from":142,"to_year":1965,"type":"realestate"}]