[{"Location":"Mårdalen 5, Rådal","ad_id":260904111,"ad_link":"https://www.finn.no/realestate/homes/ad.html?finnkode=260904111","ad_type":1,"energy_label":5,"from_year":1972,"lat":60.3075,"local_area_name":"SKJOLD","lon":5.3413,"number_of_bedrooms":2,"owner_type_description":"Andel","property_type_description":"Leilighet","size_from":84,"to_year":1972,"type":"realestate"},{"Location":"Torjusbakken 20 E, Oslo","ad_id":261441318,"ad_link":"https://www.finn.no/realestate/homes/ad.html?finnkode=261441318","ad_type":1,"energy_label":5,"from_year":1972,"lat":59.93666,"local_area_name":"MONTEBELLO","lon":10.66045,"number_of_bedrooms":3,"owner_type_description":"Eier (Selveier)","property_type_description":"Leilighet","size_from":137,"to_year":1972,"type":"realestate"},{"Location":"Nertrøa 7, Malm","ad_id":261430874,"ad_link":"https://www.finn.no/realestate/homes/ad.html?finnkode=261430874","ad_type":1,"energy_label":5,"from_year":1972,"lat":64.05887,"local_area_name":null,"lon":11.21428,"number_of_bedrooms":4,"owner_type_description":"Eier (Selveier)","property_type_description":"Enebolig","size_from":163,"to_year":1972,"type":"realestate"},{"Location":"Soleiebakken 1, Kongsvinger","ad_id":261424177,"ad_link":"https://www.finn.no/realestate/homes/ad.html?finnkode=261424177","ad_type":1,"energy_label":5,"from_year":1972,"lat":60.18413,"local_area_name":"Lia","lon":11.98387,"number_of_bedrooms":3,"owner_type_description":"Andel","property_type_description":"Rekkehus","size_from":112,"to_year":1972,"type":"realestate"},{"Location":"Simon Svanæs vei 5, Ramnes","ad_id":261352685,"ad_link":"https://www.finn.no/realestate/homes/ad.html?finnkode=261352685","ad_type":1,"energy_label":5,"from_year":1972,"lat":59.3718,"local_area_name":null,"lon":10.255,"number_of_bedrooms":2,"owner_type_description":"Eier (Selveier)","property_type_description":"Enebolig","size_from":167,"to_year":1972,"type":"realestate"},{"Location":"Skomakerveien 14, Arendal","ad_id":261356794,"ad_link":"https://www.finn.no/realestate/homes/ad.html?finnkode=261356794","ad_type":1,"energy_label":5,"from_year":1972,"lat":58.452,"local_area_name":"Vestre Strømsbu","lon":8.74475,"number_of_bedrooms":5,"owner_type_description":"Eier (Selveier)","property_type_description":"Enebolig","size_from":292,"to_year":1972,"type":"realestate"},{"Location":"Tiurstien 22, Horten","ad_id":261121204,"ad_link":"https://www.finn.no/realestate/homes/ad.html?finnkode=261121204","ad_type":1,"energy_label":5,"from_year":1972,"lat":59.42792,"local_area_name":"IDYLLISK I HORTEN/ LASKENLIA","lon":10.44947,"number_of_bedrooms":4,"owner_type_description":"Eier (Selveier)","property_type_description":"Enebolig","size_from":183,"to_year":1972,"type":"realestate"},{"Location":"Hovseterveien 32B, Oslo","ad_id":259199230,"ad_link":"https://www.finn.no/realestate/homes/ad.html?finnkode=259199230","ad_type":1,"energy_label":5,"from_year":1972,"lat":59.94771,"local_area_name":"HOVSETER / RØA","lon":10.65153,"number_of_bedrooms":2,"owner_type_description":"Andel","property_type_description":"Leilighet","size_from":80,"to_year":1972,"type":"realestate"},{"Location":"Randsfjordvegen 711, Fall","ad_id":260970584,"ad_link":"https://www.finn.no/realestate/homes/ad.html?finnkode=260970584","ad_type":1,"energy_label":5,"from_year":1972,"lat":60.64161,"local_area_name":"FALL","lon":10.36602,"number_of_bedrooms":4,"owner_type_description":"Eier (Selveier)","property_type_description":"Enebolig","size_from":190,"to_year":1972,"type":"realestate"},{"Location":"Munkedamsveien 79B, Oslo","ad_id":260970510,"ad_link":"https://www.finn.no/realestate/homes/ad.html?finnkode=260970510","ad_type":1,"energy_label":5,"from_year":1972,"lat":59.91229,"local_area_name":"Observatorie Terrasse","lon":10.7158,"number_of_bedrooms":2,"owner_type_description":"Andel","property_type_description":"Leilighet","size_from":56,"to_year":1972,"type":"realestate"},{"Location":"Munkedamsveien 79C, Oslo","ad_id":260923737,"ad_link":"https://www.finn.no/realestate/homes/ad.html?finnkode=260923737","ad_type":1,"energy_label":5,"from_year":1972,"lat":59.91238,"local_area_name":"OBSERVATORIE TERRASSE / SKILLEBEKK","lon":10.7157,"number_of_bedrooms":1,"owner_type_description":"Andel","property_type_description":"Leilighet","size_from":54,"to_year":1972,"type":"realestate"},{"Location":"Kristian Bakkens veg 21C, Hamar","ad_id":239994555,"ad_link":"https://www.finn.no/realestate/homes/ad.html?finnkode=239994555","ad_type":1,"energy_label":5,"from_year":1972,"lat":60.80449,"local_area_name":"HAMAR VEST","lon":11.04122,"number_of_bedrooms":3,"owner_type_description":"Andel","property_type_description":"Leilighet","size_from":77,"to_year":1972,"type":"realestate"},{"Location":"Helligbergvegen 56, Mosjøen","ad_id":260872112,"ad_link":"https://www.finn.no/realestate/homes/ad.html?finnkode=260872112","ad_type":1,"energy_label":5,"from_year":1972,"lat":65.8581,"local_area_name":null,"lon":13.19756,"number_of_bedrooms":2,"owner_type_description":"Andel","property_type_description":"Rekkehus","size_from":117,"to_year":1972,"type":"realestate"},{"Location":"Romolslia 19D, Trondheim","ad_id":258370670,"ad_link":"https://www.finn.no/realestate/homes/ad.html?finnkode=258370670","ad_type":1,"energy_label":5,"from_year":1972,"lat":63.38139,"local_area_name":"ROMOLSLIA","lon":10.36831,"number_of_bedrooms":2,"owner_type_description":"Andel","property_type_description":"Leilighet","size_from":83,"to_year":1972,"type":"realestate"},{"Location":"Nyleneveien 18, Husøysund","ad_id":258535449,"ad_link":"https://www.finn.no/realestate/homes/ad.html?finnkode=258535449","ad_type":1,"energy_label":5,"from_year":1972,"lat":59.237,"local_area_name":"Husøy","lon":10.46636,"number_of_bedrooms":3,"owner_type_description":"Eier (Selveier)","property_type_description":"Enebolig","size_from":213,"to_year":1972,"type":"realestate"},{"Location":"Glomliveien 2, Koppang","ad_id":246114740,"ad_link":"https://www.finn.no/realestate/homes/ad.html?finnkode=246114740","ad_type":1,"energy_label":5,"from_year":1972,"lat":61.5756,"local_area_name":"Koppang","lon":11.0287,"number_of_bedrooms":4,"owner_type_description":"Eier (Selveier)","property_type_description":"Enebolig","size_from":192,"to_year":1972,"type":"realestate"},{"Location":"Konvallvegen 6 b, Oppdal","ad_id":260579837,"ad_link":"https://www.finn.no/realestate/homes/ad.html?finnkode=260579837","ad_type":1,"energy_label":5,"from_year":1972,"lat":62.59231,"local_area_name":null,"lon":9.67454,"number_of_bedrooms":2,"owner_type_description":"Eier (Selveier)","property_type_description":"Enebolig","size_from":157,"to_year":1972,"type":"realestate"},{"Location":"Norrønagata 19, Haugesund","ad_id":260421994,"ad_link":"https://www.finn.no/realestate/homes/ad.html?finnkode=260421994","ad_type":1,"energy_label":5,"from_year":1972,"lat":59.4022,"local_area_name":"Søre bydel","lon":5.2869,"number_of_bedrooms":3,"owner_type_description":"Eier (Selveier)","property_type_description":"Enebolig","size_from":217,"to_year":1972,"type":"realestate"},{"Location":"Utsikten 17, Fredrikstad","ad_id":260013362,"ad_link":"https://www.finn.no/realestate/homes/ad.html?finnkode=260013362","ad_type":1,"energy_label":5,"from_year":1972,"lat":59.217,"local_area_name":"Utsikten","lon":10.9604,"number_of_bedrooms":1,"owner_type_description":"Andel","property_type_description":"Leilighet","size_from":46,"to_year":1972,"type":"realestate"},{"Location":"Solliavegen 19, Jessheim","ad_id":259999078,"ad_link":"https://www.finn.no/realestate/homes/ad.html?finnkode=259999078","ad_type":1,"energy_label":5,"from_year":1972,"lat":60.1257,"local_area_name":"Jessheim","lon":11.2123,"number_of_bedrooms":6,"owner_type_description":"Eier (Selveier)","property_type_description":"Enebolig","size_from":213,"to_year":1972,"type":"realestate"},{"Location":"Thomas Aasgaards gate 27, Kristiansund N","ad_id":260047227,"ad_link":"https://www.finn.no/realestate/homes/ad.html?finnkode=260047227","ad_type":1,"energy_label":5,"from_year":1972,"lat":63.1059,"local_area_name":"Innlandet","lon":7.7359,"number_of_bedrooms":4,"owner_type_description":"Eier (Selveier)","property_type_description":"Enebolig","size_from":137,"to_year":1972,"type":"realestate"},{"Location":"Harald Sohlbergs vei 2, Oslo","ad_id":260029434,"ad_link":"https://www.finn.no/realestate/homes/ad.html?finnkode=260029434","ad_type":1,"energy_label":5,"from_year":1972,"lat":59.93699,"local_area_name":"KARIHAUGEN","lon":10.92417,"number_of_bedrooms":2,"owner_type_description":"Andel","property_type_description":"Leilighet","size_from":73,"to_year":1972,"type":"realestate"},{"Location":"Finstadveien 16D, Ski","ad_id":259728288,"ad_link":"https://www.finn.no/realestate/homes/ad.html?finnkode=259728288","ad_type":1,"energy_label":5,"from_year":1972,"lat":59.7138,"local_area_name":"Finstad","lon":10.8138,"number_of_bedrooms":3,"owner_type_description":"Eier (Selveier)","property_type_description":"Rekkehus","size_from":132,"to_year":1972,"type":"realestate"},{"Location":"Eventyrvegen 15, Verdal","ad_id":260007843,"ad_link":"https://www.finn.no/realestate/homes/ad.html?finnkode=260007843","ad_type":1,"energy_label":5,"from_year":1972,"lat":63.8039,"local_area_name":"Melan","lon":11.47046,"number_of_bedrooms":3,"owner_type_description":"Eier (Selveier)","property_type_description":"Enebolig","size_from":137,"to_year":1972,"type":"realestate"},{"Location":"Herreperveien 10, Rakkestad","ad_id":255506028,"ad_link":"https://www.finn.no/realestate/homes/ad.html?finnkode=255506028","ad_type":1,"energy_label":5,"from_year":1972,"lat":59.41412,"local_area_name":"#RAKKESTAD","lon":11.35887,"number_of_bedrooms":4,"owner_type_description":"Eier (Selveier)","property_type_description":"Enebolig","size_from":209,"to_year":1972,"type":"realestate"},{"Location":"Stigenga 80, Oslo","ad_id":258439746,"ad_link":"https://www.finn.no/realestate/homes/ad.html?finnkode=258439746","ad_type":1,"energy_label":5,"from_year":1972,"lat":59.9515,"local_area_name":"STIGENGA/GAMLE STOVNER","lon":10.9236,"number_of_bedrooms":3,"owner_type_description":"Andel","property_type_description":"Rekkehus","size_from":98,"to_year":1972,"type":"realestate"},{"Location":"Vadlåsveien 2, Egersund","ad_id":257213291,"ad_link":"https://www.finn.no/realestate/homes/ad.html?finnkode=257213291","ad_type":1,"energy_label":5,"from_year":1972,"lat":58.4528,"local_area_name":"Eigerøy","lon":5.9731,"number_of_bedrooms":4,"owner_type_description":"Eier (Selveier)","property_type_description":"Enebolig","size_from":176,"to_year":1972,"type":"realestate"},{"Location":"Østre Kildeveg 25, Løten","ad_id":257215069,"ad_link":"https://www.finn.no/realestate/homes/ad.html?finnkode=257215069","ad_type":1,"energy_label":5,"from_year":1972,"lat":60.82258,"local_area_name":"LØTEN","lon":11.35523,"number_of_bedrooms":3,"owner_type_description":"Eier (Selveier)","property_type_description":"Enebolig","size_from":131,"to_year":1972,"type":"realestate"},{"Location":"Sjømannsvegen 13D, Ålesund","ad_id":256997391,"ad_link":"https://www.finn.no/realestate/homes/ad.html?finnkode=256997391","ad_type":1,"energy_label":5,"from_year":1972,"lat":62.46874,"local_area_name":"Volsdalsberga","lon":6.19147,"number_of_bedrooms":2,"owner_type_description":"Eier (Selveier)","property_type_description":"Tomannsbolig","size_from":172,"to_year":1972,"type":"realestate"},{"Location":"Gulaksveien 2, Stavanger","ad_id":256716284,"ad_link":"https://www.finn.no/realestate/homes/ad.html?finnkode=256716284","ad_type":1,"energy_label":5,"from_year":1972,"lat":58.9382,"local_area_name":"Kristianlyst","lon":5.74291,"number_of_bedrooms":2,"owner_type_description":"Andel","property_type_description":"Leilighet","size_from":68,"to_year":1972,"type":"realestate"},{"Location":"Nygårdveien 136, Nygårdsjøen","ad_id":256487301,"ad_link":"https://www.finn.no/realestate/homes/ad.html?finnkode=256487301","ad_type":1,"energy_label":5,"from_year":1972,"lat":67.1117,"local_area_name":"Nygårdsjøen","lon":14.3043,"number_of_bedrooms":5,"owner_type_description":"Eier (Selveier)","property_type_description":"Enebolig","size_from":142,"to_year":1972,"type":"realestate"},{"Location":"Bærbakken 5, Ramfjordbotn","ad_id":256098367,"ad_link":"https://www.finn.no/realestate/homes/ad.html?finnkode=256098367","ad_type":1,"energy_label":5,"from_year":1972,"lat":69.5622,"local_area_name":"Fagernes / Ramfjord","lon":19.1862,"number_of_bedrooms":4,"owner_type_description":"Eier (Selveier)","property_type_description":"Enebolig","size_from":169,"to_year":1972,"type":"realestate"},{"Location":"Gulaksveien 2, Stavanger","ad_id":255456265,"ad_link":"https://www.finn.no/realestate/homes/ad.html?finnkode=255456265","ad_type":1,"energy_label":5,"from_year":1972,"lat":58.9382,"local_area_name":"Mariero","lon":5.7429,"number_of_bedrooms":1,"owner_type_description":"Andel","property_type_description":"Leilighet","size_from":68,"to_year":1972,"type":"realestate"},{"Location":"Storgata 25, Honningsvåg","ad_id":220092652,"ad_link":"https://www.finn.no/realestate/homes/ad.html?finnkode=220092652","ad_type":1,"energy_label":5,"from_year":1972,"lat":70.97857,"local_area_name":null,"lon":25.97644,"number_of_bedrooms":7,"owner_type_description":"Eier (Selveier)","property_type_description":"Tomannsbolig","size_from":421,"to_year":1972,"type":"realestate"}]