[{"Location":"Solstadveien 80, Larkollen","ad_id":261436876,"ad_link":"https://www.finn.no/realestate/homes/ad.html?finnkode=261436876","ad_type":1,"energy_label":3,"from_year":2011,"lat":59.3218,"local_area_name":"Larkollen","lon":10.6877,"number_of_bedrooms":4,"owner_type_description":"Eier (Selveier)","property_type_description":"Enebolig","size_from":164,"to_year":2011,"type":"realestate"},{"Location":"Kringla 4K, Sogndal","ad_id":261283249,"ad_link":"https://www.finn.no/realestate/homes/ad.html?finnkode=261283249","ad_type":1,"energy_label":3,"from_year":2011,"lat":61.2352,"local_area_name":null,"lon":7.07982,"number_of_bedrooms":2,"owner_type_description":"Eier (Selveier)","property_type_description":"Leilighet","size_from":77,"to_year":2011,"type":"realestate"},{"Location":"Fjellsvegen 6D, Jørpeland","ad_id":260881334,"ad_link":"https://www.finn.no/realestate/homes/ad.html?finnkode=260881334","ad_type":1,"energy_label":3,"from_year":2011,"lat":59.0265,"local_area_name":"Jørpeland","lon":6.0245,"number_of_bedrooms":2,"owner_type_description":"Eier (Selveier)","property_type_description":"Leilighet","size_from":52,"to_year":2011,"type":"realestate"},{"Location":"Sørengkaia 115, Oslo","ad_id":252640455,"ad_link":"https://www.finn.no/realestate/homes/ad.html?finnkode=252640455","ad_type":1,"energy_label":3,"from_year":2011,"lat":59.90234,"local_area_name":"SØRENGA","lon":10.75329,"number_of_bedrooms":2,"owner_type_description":"Eier (Selveier)","property_type_description":"Leilighet","size_from":71,"to_year":2011,"type":"realestate"},{"Location":"Heimansåsen 5, Slemmestad","ad_id":260917403,"ad_link":"https://www.finn.no/realestate/homes/ad.html?finnkode=260917403","ad_type":1,"energy_label":3,"from_year":2011,"lat":59.7805,"local_area_name":"Slemmestad","lon":10.4918,"number_of_bedrooms":2,"owner_type_description":"Andel","property_type_description":"Leilighet","size_from":68,"to_year":2011,"type":"realestate"},{"Location":"Finstad hageby 117, Ski","ad_id":260919262,"ad_link":"https://www.finn.no/realestate/homes/ad.html?finnkode=260919262","ad_type":1,"energy_label":3,"from_year":2011,"lat":59.71102,"local_area_name":null,"lon":10.82003,"number_of_bedrooms":4,"owner_type_description":"Eier (Selveier)","property_type_description":"Rekkehus","size_from":136,"to_year":2011,"type":"realestate"},{"Location":"Mathilde Haugesveg 14, Ådalsbruk","ad_id":260830569,"ad_link":"https://www.finn.no/realestate/homes/ad.html?finnkode=260830569","ad_type":1,"energy_label":3,"from_year":2011,"lat":60.7864,"local_area_name":null,"lon":11.3318,"number_of_bedrooms":3,"owner_type_description":"Eier (Selveier)","property_type_description":"Tomannsbolig","size_from":77,"to_year":2011,"type":"realestate"},{"Location":"Kvilesletta 13, Alta","ad_id":260914449,"ad_link":"https://www.finn.no/realestate/homes/ad.html?finnkode=260914449","ad_type":1,"energy_label":3,"from_year":2011,"lat":69.97346,"local_area_name":null,"lon":23.28586,"number_of_bedrooms":1,"owner_type_description":"Eier (Selveier)","property_type_description":"Leilighet","size_from":62,"to_year":2011,"type":"realestate"},{"Location":"Nyhavn 20, Bergen","ad_id":253427782,"ad_link":"https://www.finn.no/realestate/homes/ad.html?finnkode=253427782","ad_type":1,"energy_label":3,"from_year":2011,"lat":60.4172,"local_area_name":null,"lon":5.30615,"number_of_bedrooms":2,"owner_type_description":"Eier (Selveier)","property_type_description":"Leilighet","size_from":70,"to_year":2011,"type":"realestate"},{"Location":"Sollistrandsveien 26, Horten","ad_id":260874719,"ad_link":"https://www.finn.no/realestate/homes/ad.html?finnkode=260874719","ad_type":1,"energy_label":3,"from_year":2011,"lat":59.40572,"local_area_name":null,"lon":10.47865,"number_of_bedrooms":3,"owner_type_description":"Eier (Selveier)","property_type_description":"Leilighet","size_from":120,"to_year":2011,"type":"realestate"},{"Location":"Staselinveien 11, Sandnes","ad_id":260557100,"ad_link":"https://www.finn.no/realestate/homes/ad.html?finnkode=260557100","ad_type":1,"energy_label":3,"from_year":2011,"lat":58.8412,"local_area_name":"SKAARLIA","lon":5.7759,"number_of_bedrooms":4,"owner_type_description":"Eier (Selveier)","property_type_description":"Rekkehus","size_from":138,"to_year":2011,"type":"realestate"},{"Location":"Nedre Kongerød 13B, Skien","ad_id":260544277,"ad_link":"https://www.finn.no/realestate/homes/ad.html?finnkode=260544277","ad_type":1,"energy_label":3,"from_year":2011,"lat":59.1515,"local_area_name":"SKIEN - KONGERØD","lon":9.6244,"number_of_bedrooms":2,"owner_type_description":"Eier (Selveier)","property_type_description":"Leilighet","size_from":75,"to_year":2011,"type":"realestate"},{"Location":"Ingeborg Ofstads veg 6, Tiller","ad_id":260362645,"ad_link":"https://www.finn.no/realestate/homes/ad.html?finnkode=260362645","ad_type":1,"energy_label":3,"from_year":2011,"lat":63.3566,"local_area_name":"Tiller","lon":10.39758,"number_of_bedrooms":4,"owner_type_description":"Eier (Selveier)","property_type_description":"Rekkehus","size_from":113,"to_year":2011,"type":"realestate"},{"Location":"Gjersjøveien 54C, Oppegård","ad_id":259740854,"ad_link":"https://www.finn.no/realestate/homes/ad.html?finnkode=259740854","ad_type":1,"energy_label":3,"from_year":2011,"lat":59.7643,"local_area_name":"Oppegård/Dalens Hage","lon":10.8037,"number_of_bedrooms":2,"owner_type_description":"Eier (Selveier)","property_type_description":"Leilighet","size_from":65,"to_year":2011,"type":"realestate"},{"Location":"Løkkavegen 32, Jessheim","ad_id":260012756,"ad_link":"https://www.finn.no/realestate/homes/ad.html?finnkode=260012756","ad_type":1,"energy_label":3,"from_year":2011,"lat":60.13959,"local_area_name":"Jessheim / Skogmo","lon":11.1988,"number_of_bedrooms":3,"owner_type_description":"Eier (Selveier)","property_type_description":"Tomannsbolig","size_from":104,"to_year":2011,"type":"realestate"},{"Location":"Storgata 54, Brønnøysund","ad_id":259937765,"ad_link":"https://www.finn.no/realestate/homes/ad.html?finnkode=259937765","ad_type":1,"energy_label":3,"from_year":2011,"lat":65.47253,"local_area_name":null,"lon":12.20803,"number_of_bedrooms":2,"owner_type_description":"Eier (Selveier)","property_type_description":"Leilighet","size_from":86,"to_year":2011,"type":"realestate"},{"Location":"Brendebakke 39C, Øyslebø","ad_id":206893369,"ad_link":"https://www.finn.no/realestate/homes/ad.html?finnkode=206893369","ad_type":1,"energy_label":3,"from_year":2011,"lat":58.16836,"local_area_name":null,"lon":7.5796,"number_of_bedrooms":2,"owner_type_description":"Eier (Selveier)","property_type_description":"Leilighet","size_from":69,"to_year":2011,"type":"realestate"},{"Location":"Strandkanten 6, Bjugn","ad_id":259690548,"ad_link":"https://www.finn.no/realestate/homes/ad.html?finnkode=259690548","ad_type":1,"energy_label":3,"from_year":2011,"lat":63.76367,"local_area_name":null,"lon":9.80416,"number_of_bedrooms":2,"owner_type_description":"Eier (Selveier)","property_type_description":"Leilighet","size_from":71,"to_year":2011,"type":"realestate"},{"Location":"Byggveien 5, Aurskog","ad_id":259140898,"ad_link":"https://www.finn.no/realestate/homes/ad.html?finnkode=259140898","ad_type":1,"energy_label":3,"from_year":2011,"lat":59.92806,"local_area_name":"Aursmoen","lon":11.45042,"number_of_bedrooms":3,"owner_type_description":"Eier (Selveier)","property_type_description":"Enebolig","size_from":104,"to_year":2011,"type":"realestate"},{"Location":"Lyderhornslien 45, Loddefjord","ad_id":257282194,"ad_link":"https://www.finn.no/realestate/homes/ad.html?finnkode=257282194","ad_type":1,"energy_label":3,"from_year":2011,"lat":60.37565,"local_area_name":null,"lon":5.23234,"number_of_bedrooms":2,"owner_type_description":"Eier (Selveier)","property_type_description":"Leilighet","size_from":89,"to_year":2011,"type":"realestate"},{"Location":"Myklabergbakken 40, Røyneberg","ad_id":225748802,"ad_link":"https://www.finn.no/realestate/homes/ad.html?finnkode=225748802","ad_type":1,"energy_label":3,"from_year":2011,"lat":58.9055,"local_area_name":"Røyneberg","lon":5.66783,"number_of_bedrooms":3,"owner_type_description":"Andel","property_type_description":"Leilighet","size_from":127,"to_year":2011,"type":"realestate"},{"Location":"Austarheimsvegen 106, Sauda","ad_id":240593150,"ad_link":"https://www.finn.no/realestate/homes/ad.html?finnkode=240593150","ad_type":1,"energy_label":3,"from_year":2011,"lat":59.65975,"local_area_name":"Sauda","lon":6.37456,"number_of_bedrooms":5,"owner_type_description":"Eier (Selveier)","property_type_description":"Enebolig","size_from":212,"to_year":2011,"type":"realestate"},{"Location":"Mollaveien 934, Stormolla","ad_id":257242566,"ad_link":"https://www.finn.no/realestate/homes/ad.html?finnkode=257242566","ad_type":1,"energy_label":3,"from_year":2011,"lat":68.2936,"local_area_name":null,"lon":14.86653,"number_of_bedrooms":4,"owner_type_description":"Eier (Selveier)","property_type_description":"Enebolig","size_from":170,"to_year":2011,"type":"realestate"},{"Location":"Ramsvegen 10, Malmefjorden","ad_id":256510261,"ad_link":"https://www.finn.no/realestate/homes/ad.html?finnkode=256510261","ad_type":1,"energy_label":3,"from_year":2011,"lat":62.8202,"local_area_name":null,"lon":7.2458,"number_of_bedrooms":5,"owner_type_description":"Eier (Selveier)","property_type_description":"Enebolig","size_from":185,"to_year":2011,"type":"realestate"},{"Location":"Sjøleik 15, Tananger","ad_id":256471786,"ad_link":"https://www.finn.no/realestate/homes/ad.html?finnkode=256471786","ad_type":1,"energy_label":3,"from_year":2011,"lat":58.94409,"local_area_name":"Myklebust","lon":5.57585,"number_of_bedrooms":3,"owner_type_description":"Eier (Selveier)","property_type_description":"Enebolig","size_from":162,"to_year":2011,"type":"realestate"},{"Location":"Trolldalsvegen 12, Tjørvåg","ad_id":236199490,"ad_link":"https://www.finn.no/realestate/homes/ad.html?finnkode=236199490","ad_type":1,"energy_label":3,"from_year":2011,"lat":62.2988,"local_area_name":null,"lon":5.7351,"number_of_bedrooms":3,"owner_type_description":"Eier (Selveier)","property_type_description":"Tomannsbolig","size_from":119,"to_year":2011,"type":"realestate"},{"Location":"Jordbærvegen 45, Molde","ad_id":249559735,"ad_link":"https://www.finn.no/realestate/homes/ad.html?finnkode=249559735","ad_type":1,"energy_label":3,"from_year":2011,"lat":62.75574,"local_area_name":null,"lon":7.28247,"number_of_bedrooms":4,"owner_type_description":"Eier (Selveier)","property_type_description":"Enebolig","size_from":247,"to_year":2011,"type":"realestate"},{"Location":"Storgata 25, Kristiansund N","ad_id":249151107,"ad_link":"https://www.finn.no/realestate/homes/ad.html?finnkode=249151107","ad_type":1,"energy_label":3,"from_year":2011,"lat":63.10879,"local_area_name":null,"lon":7.72966,"number_of_bedrooms":2,"owner_type_description":"Andel","property_type_description":"Leilighet","size_from":76,"to_year":2011,"type":"realestate"},{"Location":"Kirkegaten 10, Egersund","ad_id":179771662,"ad_link":"https://www.finn.no/realestate/homes/ad.html?finnkode=179771662","ad_type":1,"energy_label":3,"from_year":2011,"lat":58.4509,"local_area_name":"Sentrum","lon":6.0014,"number_of_bedrooms":2,"owner_type_description":"Eier (Selveier)","property_type_description":"Leilighet","size_from":103,"to_year":2011,"type":"realestate"}]