[{"Location":"Erleveien 4C, Rasta","ad_id":261476061,"ad_link":"https://www.finn.no/realestate/homes/ad.html?finnkode=261476061","ad_type":1,"energy_label":3,"from_year":2003,"lat":59.9157,"local_area_name":"Rasta|Vallerud","lon":10.9483,"number_of_bedrooms":4,"owner_type_description":"Eier (Selveier)","property_type_description":"Enebolig","size_from":179,"to_year":2003,"type":"realestate"},{"Location":"Sannergata 27B, Oslo","ad_id":260903248,"ad_link":"https://www.finn.no/realestate/homes/ad.html?finnkode=260903248","ad_type":1,"energy_label":3,"from_year":2003,"lat":59.9286,"local_area_name":null,"lon":10.7662,"number_of_bedrooms":1,"owner_type_description":"Eier (Selveier)","property_type_description":"Leilighet","size_from":55,"to_year":2003,"type":"realestate"},{"Location":"Stensberggata 12, Oslo","ad_id":261206712,"ad_link":"https://www.finn.no/realestate/homes/ad.html?finnkode=261206712","ad_type":1,"energy_label":3,"from_year":2003,"lat":59.92175,"local_area_name":null,"lon":10.73988,"number_of_bedrooms":2,"owner_type_description":"Eier (Selveier)","property_type_description":"Leilighet","size_from":56,"to_year":2003,"type":"realestate"},{"Location":"Høgåsveien 82B, Oslo","ad_id":259739043,"ad_link":"https://www.finn.no/realestate/homes/ad.html?finnkode=259739043","ad_type":1,"energy_label":3,"from_year":2003,"lat":59.8273,"local_area_name":null,"lon":10.8006,"number_of_bedrooms":2,"owner_type_description":"Andel","property_type_description":"Leilighet","size_from":73,"to_year":2003,"type":"realestate"},{"Location":"Magistratbakken 32, Steinkjer","ad_id":260915966,"ad_link":"https://www.finn.no/realestate/homes/ad.html?finnkode=260915966","ad_type":1,"energy_label":3,"from_year":2003,"lat":63.99004,"local_area_name":"Frøsetåsen","lon":11.45564,"number_of_bedrooms":4,"owner_type_description":"Eier (Selveier)","property_type_description":"Enebolig","size_from":173,"to_year":2003,"type":"realestate"},{"Location":"Josdalsveien 439, Tonstad","ad_id":260881052,"ad_link":"https://www.finn.no/realestate/homes/ad.html?finnkode=260881052","ad_type":1,"energy_label":3,"from_year":2003,"lat":58.6883,"local_area_name":"Josdal","lon":6.7502,"number_of_bedrooms":4,"owner_type_description":"Eier (Selveier)","property_type_description":"Enebolig","size_from":215,"to_year":2003,"type":"realestate"},{"Location":"Torskroken 14 D, Lier","ad_id":260607229,"ad_link":"https://www.finn.no/realestate/homes/ad.html?finnkode=260607229","ad_type":1,"energy_label":3,"from_year":2003,"lat":59.8233,"local_area_name":"Egge","lon":10.1998,"number_of_bedrooms":2,"owner_type_description":"Eier (Selveier)","property_type_description":"Leilighet","size_from":82,"to_year":2003,"type":"realestate"},{"Location":"Ole Vigs gate 29, Stjørdal","ad_id":260532138,"ad_link":"https://www.finn.no/realestate/homes/ad.html?finnkode=260532138","ad_type":1,"energy_label":3,"from_year":2003,"lat":63.4707,"local_area_name":null,"lon":10.9311,"number_of_bedrooms":2,"owner_type_description":"Eier (Selveier)","property_type_description":"Leilighet","size_from":83,"to_year":2003,"type":"realestate"},{"Location":"Rosebuen 92, Fredrikstad","ad_id":259846405,"ad_link":"https://www.finn.no/realestate/homes/ad.html?finnkode=259846405","ad_type":1,"energy_label":3,"from_year":2003,"lat":59.234,"local_area_name":"Lisleby / Leie","lon":10.9703,"number_of_bedrooms":4,"owner_type_description":"Eier (Selveier)","property_type_description":"Enebolig","size_from":144,"to_year":2003,"type":"realestate"},{"Location":"Stallovegen 31, Tromsø","ad_id":249565472,"ad_link":"https://www.finn.no/realestate/homes/ad.html?finnkode=249565472","ad_type":1,"energy_label":3,"from_year":2003,"lat":69.66509,"local_area_name":"WORKINNMARKA","lon":18.92868,"number_of_bedrooms":4,"owner_type_description":"Eier (Selveier)","property_type_description":"Enebolig","size_from":241,"to_year":2003,"type":"realestate"},{"Location":"Stokkanvegen 20, Stjørdal","ad_id":259682740,"ad_link":"https://www.finn.no/realestate/homes/ad.html?finnkode=259682740","ad_type":1,"energy_label":3,"from_year":2003,"lat":63.48085,"local_area_name":"Stokkhaugan","lon":10.92807,"number_of_bedrooms":2,"owner_type_description":"Eier (Selveier)","property_type_description":"Leilighet","size_from":78,"to_year":2003,"type":"realestate"},{"Location":"Ole Aasveds veg 4, Trondheim","ad_id":259796373,"ad_link":"https://www.finn.no/realestate/homes/ad.html?finnkode=259796373","ad_type":1,"energy_label":3,"from_year":2003,"lat":63.40891,"local_area_name":"Bergheim / Moholt","lon":10.45395,"number_of_bedrooms":1,"owner_type_description":"Andel","property_type_description":"Leilighet","size_from":60,"to_year":2003,"type":"realestate"},{"Location":"Kråkstadveien 145B, Kråkstad","ad_id":259798943,"ad_link":"https://www.finn.no/realestate/homes/ad.html?finnkode=259798943","ad_type":1,"energy_label":3,"from_year":2003,"lat":59.6808,"local_area_name":null,"lon":10.88251,"number_of_bedrooms":6,"owner_type_description":"Eier (Selveier)","property_type_description":"Enebolig","size_from":178,"to_year":2003,"type":"realestate"},{"Location":"Bakarvåglia 34, Florvåg","ad_id":259600398,"ad_link":"https://www.finn.no/realestate/homes/ad.html?finnkode=259600398","ad_type":1,"energy_label":3,"from_year":2003,"lat":60.4279,"local_area_name":"Florvåg","lon":5.2358,"number_of_bedrooms":3,"owner_type_description":"Eier (Selveier)","property_type_description":"Rekkehus","size_from":102,"to_year":2003,"type":"realestate"},{"Location":"Vangsgutua 65, Lunner","ad_id":259167276,"ad_link":"https://www.finn.no/realestate/homes/ad.html?finnkode=259167276","ad_type":1,"energy_label":3,"from_year":2003,"lat":60.287,"local_area_name":"Kalvsjø","lon":10.5654,"number_of_bedrooms":4,"owner_type_description":"Eier (Selveier)","property_type_description":"Enebolig","size_from":113,"to_year":2003,"type":"realestate"},{"Location":"Prestholsteigen 30, Sandnes","ad_id":251554943,"ad_link":"https://www.finn.no/realestate/homes/ad.html?finnkode=251554943","ad_type":1,"energy_label":3,"from_year":2003,"lat":58.8635,"local_area_name":"Smeaheia","lon":5.7138,"number_of_bedrooms":4,"owner_type_description":"Eier (Selveier)","property_type_description":"Enebolig","size_from":146,"to_year":2003,"type":"realestate"},{"Location":"Øvre Ulsrud 16 A og B, Gjøvik","ad_id":253756296,"ad_link":"https://www.finn.no/realestate/homes/ad.html?finnkode=253756296","ad_type":1,"energy_label":3,"from_year":2003,"lat":60.82,"local_area_name":"GJØVIK","lon":10.6666,"number_of_bedrooms":6,"owner_type_description":"Eier (Selveier)","property_type_description":"Enebolig","size_from":200,"to_year":2003,"type":"realestate"},{"Location":"Holmbrua 3, Sandefjord","ad_id":257127695,"ad_link":"https://www.finn.no/realestate/homes/ad.html?finnkode=257127695","ad_type":1,"energy_label":3,"from_year":2003,"lat":59.1302,"local_area_name":null,"lon":10.2187,"number_of_bedrooms":2,"owner_type_description":"Andel","property_type_description":"Leilighet","size_from":82,"to_year":2003,"type":"realestate"},{"Location":"Seljebergan 15, Finnsnes","ad_id":256511444,"ad_link":"https://www.finn.no/realestate/homes/ad.html?finnkode=256511444","ad_type":1,"energy_label":3,"from_year":2003,"lat":69.2359,"local_area_name":null,"lon":18.0092,"number_of_bedrooms":2,"owner_type_description":"Andel","property_type_description":"Leilighet","size_from":82,"to_year":2003,"type":"realestate"},{"Location":"Bekkestuveien 31, Bekkestua","ad_id":255536223,"ad_link":"https://www.finn.no/realestate/homes/ad.html?finnkode=255536223","ad_type":1,"energy_label":3,"from_year":2003,"lat":59.9167,"local_area_name":"SENTRALT PÅ BEKKESTUA","lon":10.5894,"number_of_bedrooms":2,"owner_type_description":"Eier (Selveier)","property_type_description":"Leilighet","size_from":103,"to_year":2003,"type":"realestate"},{"Location":"Elvegata 5B, Brumunddal","ad_id":253743066,"ad_link":"https://www.finn.no/realestate/homes/ad.html?finnkode=253743066","ad_type":1,"energy_label":3,"from_year":2003,"lat":60.8863,"local_area_name":null,"lon":10.9422,"number_of_bedrooms":2,"owner_type_description":"Eier (Selveier)","property_type_description":"Leilighet","size_from":64,"to_year":2003,"type":"realestate"},{"Location":"Tusseberget 18, Rennesøy","ad_id":253591446,"ad_link":"https://www.finn.no/realestate/homes/ad.html?finnkode=253591446","ad_type":1,"energy_label":3,"from_year":2003,"lat":59.1237,"local_area_name":"Sørbø","lon":5.6036,"number_of_bedrooms":4,"owner_type_description":"Eier (Selveier)","property_type_description":"Enebolig","size_from":248,"to_year":2003,"type":"realestate"},{"Location":"Henrikstien 1, Opphaug","ad_id":252322645,"ad_link":"https://www.finn.no/realestate/homes/ad.html?finnkode=252322645","ad_type":1,"energy_label":3,"from_year":2003,"lat":63.71043,"local_area_name":null,"lon":9.70087,"number_of_bedrooms":4,"owner_type_description":"Eier (Selveier)","property_type_description":"Enebolig","size_from":189,"to_year":2003,"type":"realestate"},{"Location":"Tingstuveien 25, Dønna","ad_id":157538241,"ad_link":"https://www.finn.no/realestate/homes/ad.html?finnkode=157538241","ad_type":1,"energy_label":3,"from_year":2003,"lat":66.08235,"local_area_name":null,"lon":12.57468,"number_of_bedrooms":3,"owner_type_description":"Andel","property_type_description":"Leilighet","size_from":91,"to_year":2003,"type":"realestate"}]