[{"Location":"Kuholmsveien 27, Kristiansand S","ad_id":261396452,"ad_link":"https://www.finn.no/realestate/homes/ad.html?finnkode=261396452","ad_type":1,"energy_label":4,"from_year":2006,"lat":58.14839,"local_area_name":null,"lon":8.01339,"number_of_bedrooms":1,"owner_type_description":"Eier (Selveier)","property_type_description":"Leilighet","size_from":53,"to_year":2006,"type":"realestate"},{"Location":"Bjørkavågdalen 27, Eidsnes","ad_id":261369535,"ad_link":"https://www.finn.no/realestate/homes/ad.html?finnkode=261369535","ad_type":1,"energy_label":4,"from_year":2006,"lat":62.42563,"local_area_name":null,"lon":6.301,"number_of_bedrooms":3,"owner_type_description":"Eier (Selveier)","property_type_description":"Tomannsbolig","size_from":94,"to_year":2006,"type":"realestate"},{"Location":"Gunnar Schjelderups vei 11M, Oslo","ad_id":261356023,"ad_link":"https://www.finn.no/realestate/homes/ad.html?finnkode=261356023","ad_type":1,"energy_label":4,"from_year":2006,"lat":59.9499,"local_area_name":"NYDALEN / STORO","lon":10.7744,"number_of_bedrooms":3,"owner_type_description":"Eier (Selveier)","property_type_description":"Leilighet","size_from":97,"to_year":2006,"type":"realestate"},{"Location":"Pilestredet Park 2, Oslo","ad_id":260897027,"ad_link":"https://www.finn.no/realestate/homes/ad.html?finnkode=260897027","ad_type":1,"energy_label":4,"from_year":2006,"lat":59.921,"local_area_name":"PILESTREDET PARK","lon":10.7374,"number_of_bedrooms":3,"owner_type_description":"Eier (Selveier)","property_type_description":"Leilighet","size_from":78,"to_year":2006,"type":"realestate"},{"Location":"Landstads gate 2, Oslo","ad_id":260534344,"ad_link":"https://www.finn.no/realestate/homes/ad.html?finnkode=260534344","ad_type":1,"energy_label":4,"from_year":2006,"lat":59.9291,"local_area_name":"ALEXANDER KIELLANDS PLASS","lon":10.7503,"number_of_bedrooms":1,"owner_type_description":"Andel","property_type_description":"Leilighet","size_from":45,"to_year":2006,"type":"realestate"},{"Location":"Maridalsveien 221, Oslo","ad_id":261266785,"ad_link":"https://www.finn.no/realestate/homes/ad.html?finnkode=261266785","ad_type":1,"energy_label":4,"from_year":2006,"lat":59.94395,"local_area_name":"Høyt og luftig på Bjølsen","lon":10.76318,"number_of_bedrooms":1,"owner_type_description":"Andel","property_type_description":"Leilighet","size_from":39,"to_year":2006,"type":"realestate"},{"Location":"Årvollveien 60F, Oslo","ad_id":256282138,"ad_link":"https://www.finn.no/realestate/homes/ad.html?finnkode=256282138","ad_type":1,"energy_label":4,"from_year":2006,"lat":59.9525,"local_area_name":"ÅRVOLLSKOGEN","lon":10.8187,"number_of_bedrooms":2,"owner_type_description":"Eier (Selveier)","property_type_description":"Leilighet","size_from":86,"to_year":2006,"type":"realestate"},{"Location":"Urianstadveien 7A, Fjellstrand","ad_id":261129805,"ad_link":"https://www.finn.no/realestate/homes/ad.html?finnkode=261129805","ad_type":1,"energy_label":4,"from_year":2006,"lat":59.7961,"local_area_name":"Fjellstrand","lon":10.6273,"number_of_bedrooms":3,"owner_type_description":"Andel","property_type_description":"Leilighet","size_from":87,"to_year":2006,"type":"realestate"},{"Location":"Stillverksveien 24, Lillestrøm","ad_id":260941567,"ad_link":"https://www.finn.no/realestate/homes/ad.html?finnkode=260941567","ad_type":1,"energy_label":4,"from_year":2006,"lat":59.95276,"local_area_name":"LILLESTRØM SYD","lon":11.04765,"number_of_bedrooms":1,"owner_type_description":"Andel","property_type_description":"Leilighet","size_from":44,"to_year":2006,"type":"realestate"},{"Location":"Dronningens gate 62, Bodø","ad_id":260939504,"ad_link":"https://www.finn.no/realestate/homes/ad.html?finnkode=260939504","ad_type":1,"energy_label":4,"from_year":2006,"lat":67.28446,"local_area_name":null,"lon":14.39063,"number_of_bedrooms":1,"owner_type_description":"Andel","property_type_description":"Leilighet","size_from":53,"to_year":2006,"type":"realestate"},{"Location":"Nedre Ila 7, Trondheim","ad_id":260925940,"ad_link":"https://www.finn.no/realestate/homes/ad.html?finnkode=260925940","ad_type":1,"energy_label":4,"from_year":2006,"lat":63.43125,"local_area_name":"ILA","lon":10.37155,"number_of_bedrooms":2,"owner_type_description":"Andel","property_type_description":"Leilighet","size_from":49,"to_year":2006,"type":"realestate"},{"Location":"Dukenveien 35B, Duken","ad_id":254676734,"ad_link":"https://www.finn.no/realestate/homes/ad.html?finnkode=254676734","ad_type":1,"energy_label":4,"from_year":2006,"lat":59.2114,"local_area_name":"Duken","lon":10.4555,"number_of_bedrooms":4,"owner_type_description":"Eier (Selveier)","property_type_description":"Enebolig","size_from":243,"to_year":2006,"type":"realestate"},{"Location":"Bakåsveien 2A, Larvik","ad_id":260912998,"ad_link":"https://www.finn.no/realestate/homes/ad.html?finnkode=260912998","ad_type":1,"energy_label":4,"from_year":2006,"lat":59.03595,"local_area_name":null,"lon":9.99182,"number_of_bedrooms":3,"owner_type_description":"Eier (Selveier)","property_type_description":"Tomannsbolig","size_from":110,"to_year":2006,"type":"realestate"},{"Location":"Tinghusgata 3, Elverum","ad_id":260904278,"ad_link":"https://www.finn.no/realestate/homes/ad.html?finnkode=260904278","ad_type":1,"energy_label":4,"from_year":2006,"lat":60.88034,"local_area_name":"SENTRUM","lon":11.5621,"number_of_bedrooms":3,"owner_type_description":"Eier (Selveier)","property_type_description":"Leilighet","size_from":94,"to_year":2006,"type":"realestate"},{"Location":"Skarpsnoveien 24, Lier","ad_id":260768795,"ad_link":"https://www.finn.no/realestate/homes/ad.html?finnkode=260768795","ad_type":1,"energy_label":4,"from_year":2006,"lat":59.75438,"local_area_name":"Nøste","lon":10.23472,"number_of_bedrooms":5,"owner_type_description":"Eier (Selveier)","property_type_description":"Enebolig","size_from":248,"to_year":2006,"type":"realestate"},{"Location":"Stadionløkka 4, Raufoss","ad_id":260893162,"ad_link":"https://www.finn.no/realestate/homes/ad.html?finnkode=260893162","ad_type":1,"energy_label":4,"from_year":2006,"lat":60.7208,"local_area_name":null,"lon":10.60403,"number_of_bedrooms":1,"owner_type_description":"Andel","property_type_description":"Leilighet","size_from":62,"to_year":2006,"type":"realestate"},{"Location":"Moltebærholmen 11 B, Svolvær","ad_id":260876366,"ad_link":"https://www.finn.no/realestate/homes/ad.html?finnkode=260876366","ad_type":1,"energy_label":4,"from_year":2006,"lat":68.24107,"local_area_name":"Moltebærholmen/Svolvær","lon":14.59122,"number_of_bedrooms":2,"owner_type_description":"Andel","property_type_description":"Tomannsbolig","size_from":63,"to_year":2006,"type":"realestate"},{"Location":"Hvitveiskroken 1C, Holmestrand","ad_id":257091618,"ad_link":"https://www.finn.no/realestate/homes/ad.html?finnkode=257091618","ad_type":1,"energy_label":4,"from_year":2006,"lat":59.5149,"local_area_name":"Søndre Kleivan","lon":10.2823,"number_of_bedrooms":2,"owner_type_description":"Andel","property_type_description":"Leilighet","size_from":61,"to_year":2006,"type":"realestate"},{"Location":"Sjådamveien 33A, Kragerø","ad_id":260872024,"ad_link":"https://www.finn.no/realestate/homes/ad.html?finnkode=260872024","ad_type":1,"energy_label":4,"from_year":2006,"lat":58.86892,"local_area_name":null,"lon":9.37849,"number_of_bedrooms":2,"owner_type_description":"Andel","property_type_description":"Leilighet","size_from":61,"to_year":2006,"type":"realestate"},{"Location":"Søbstadvegen 1D, Heimdal","ad_id":259736467,"ad_link":"https://www.finn.no/realestate/homes/ad.html?finnkode=259736467","ad_type":1,"energy_label":4,"from_year":2006,"lat":63.35201,"local_area_name":"HEIMDAL SENTRUM","lon":10.35663,"number_of_bedrooms":2,"owner_type_description":"Andel","property_type_description":"Leilighet","size_from":74,"to_year":2006,"type":"realestate"},{"Location":"Grønland 42, Drammen","ad_id":260777394,"ad_link":"https://www.finn.no/realestate/homes/ad.html?finnkode=260777394","ad_type":1,"energy_label":4,"from_year":2006,"lat":59.74291,"local_area_name":"Union Brygge","lon":10.19556,"number_of_bedrooms":1,"owner_type_description":"Eier (Selveier)","property_type_description":"Leilighet","size_from":47,"to_year":2006,"type":"realestate"},{"Location":"Fanahammeren 24, Fana","ad_id":250955127,"ad_link":"https://www.finn.no/realestate/homes/ad.html?finnkode=250955127","ad_type":1,"energy_label":4,"from_year":2006,"lat":60.26737,"local_area_name":null,"lon":5.33018,"number_of_bedrooms":3,"owner_type_description":"Andel","property_type_description":"Leilighet","size_from":135,"to_year":2006,"type":"realestate"},{"Location":"Mellomila 18, Trondheim","ad_id":260768296,"ad_link":"https://www.finn.no/realestate/homes/ad.html?finnkode=260768296","ad_type":1,"energy_label":4,"from_year":2006,"lat":63.43114,"local_area_name":"ILA","lon":10.36968,"number_of_bedrooms":1,"owner_type_description":"Andel","property_type_description":"Tomannsbolig","size_from":60,"to_year":2006,"type":"realestate"},{"Location":"Bjørnsons gate 8, Trondheim","ad_id":260640759,"ad_link":"https://www.finn.no/realestate/homes/ad.html?finnkode=260640759","ad_type":1,"energy_label":4,"from_year":2006,"lat":63.43043,"local_area_name":"Rosenborg Park","lon":10.4239,"number_of_bedrooms":2,"owner_type_description":"Eier (Selveier)","property_type_description":"Leilighet","size_from":50,"to_year":2006,"type":"realestate"},{"Location":"Skippergata 32, Tromsø","ad_id":260713843,"ad_link":"https://www.finn.no/realestate/homes/ad.html?finnkode=260713843","ad_type":1,"energy_label":4,"from_year":2006,"lat":69.65445,"local_area_name":"Sentrum Nord / Bruhodet / Vervet","lon":18.96332,"number_of_bedrooms":2,"owner_type_description":"Andel","property_type_description":"Leilighet","size_from":57,"to_year":2006,"type":"realestate"},{"Location":"Oskleiva 81A, Halden","ad_id":260662341,"ad_link":"https://www.finn.no/realestate/homes/ad.html?finnkode=260662341","ad_type":1,"energy_label":4,"from_year":2006,"lat":59.1298,"local_area_name":"Grimsrød","lon":11.4098,"number_of_bedrooms":2,"owner_type_description":"Eier (Selveier)","property_type_description":"Leilighet","size_from":70,"to_year":2006,"type":"realestate"},{"Location":"Prestmosvegen 17A, Nannestad","ad_id":260701488,"ad_link":"https://www.finn.no/realestate/homes/ad.html?finnkode=260701488","ad_type":1,"energy_label":4,"from_year":2006,"lat":60.22491,"local_area_name":"NANNESTAD","lon":11.01943,"number_of_bedrooms":2,"owner_type_description":"Eier (Selveier)","property_type_description":"Leilighet","size_from":53,"to_year":2006,"type":"realestate"},{"Location":"Hovslagervegen 14, Lillehammer","ad_id":260655323,"ad_link":"https://www.finn.no/realestate/homes/ad.html?finnkode=260655323","ad_type":1,"energy_label":4,"from_year":2006,"lat":61.1322,"local_area_name":"Smestadmoen","lon":10.4513,"number_of_bedrooms":2,"owner_type_description":"Andel","property_type_description":"Leilighet","size_from":82,"to_year":2006,"type":"realestate"},{"Location":"Støperiveien 40A, Mandal","ad_id":260618777,"ad_link":"https://www.finn.no/realestate/homes/ad.html?finnkode=260618777","ad_type":1,"energy_label":4,"from_year":2006,"lat":58.0341,"local_area_name":"Buøya","lon":7.4751,"number_of_bedrooms":1,"owner_type_description":"Eier (Selveier)","property_type_description":"Leilighet","size_from":56,"to_year":2006,"type":"realestate"},{"Location":"Sole allé 8, Vestby","ad_id":247811397,"ad_link":"https://www.finn.no/realestate/homes/ad.html?finnkode=247811397","ad_type":1,"energy_label":4,"from_year":2006,"lat":59.5996,"local_area_name":"VESTBY/SOLE","lon":10.7603,"number_of_bedrooms":2,"owner_type_description":"Eier (Selveier)","property_type_description":"Leilighet","size_from":95,"to_year":2006,"type":"realestate"},{"Location":"Kroktjødnevegen 33B, Stord","ad_id":260482144,"ad_link":"https://www.finn.no/realestate/homes/ad.html?finnkode=260482144","ad_type":1,"energy_label":4,"from_year":2006,"lat":59.7659,"local_area_name":"Valvatnafeltet","lon":5.4397,"number_of_bedrooms":2,"owner_type_description":"Eier (Selveier)","property_type_description":"Tomannsbolig","size_from":64,"to_year":2006,"type":"realestate"},{"Location":"Kløverenga Terrasse 2, Kjeller","ad_id":260591071,"ad_link":"https://www.finn.no/realestate/homes/ad.html?finnkode=260591071","ad_type":1,"energy_label":4,"from_year":2006,"lat":59.9682,"local_area_name":"Kjeller","lon":11.0566,"number_of_bedrooms":3,"owner_type_description":"Eier (Selveier)","property_type_description":"Leilighet","size_from":114,"to_year":2006,"type":"realestate"},{"Location":"Stillverksveien 26, Lillestrøm","ad_id":260425983,"ad_link":"https://www.finn.no/realestate/homes/ad.html?finnkode=260425983","ad_type":1,"energy_label":4,"from_year":2006,"lat":59.9527,"local_area_name":"Lillestrøm Syd","lon":11.0471,"number_of_bedrooms":1,"owner_type_description":"Andel","property_type_description":"Leilighet","size_from":33,"to_year":2006,"type":"realestate"},{"Location":"Tommelstads gate 12 C, Kongsvinger","ad_id":260529331,"ad_link":"https://www.finn.no/realestate/homes/ad.html?finnkode=260529331","ad_type":1,"energy_label":4,"from_year":2006,"lat":60.19277,"local_area_name":"Sentrum","lon":11.9991,"number_of_bedrooms":1,"owner_type_description":"Andel","property_type_description":"Leilighet","size_from":43,"to_year":2006,"type":"realestate"},{"Location":"Grønland 42, Drammen","ad_id":260020663,"ad_link":"https://www.finn.no/realestate/homes/ad.html?finnkode=260020663","ad_type":1,"energy_label":4,"from_year":2006,"lat":59.7429,"local_area_name":"Union Brygge","lon":10.1956,"number_of_bedrooms":1,"owner_type_description":"Eier (Selveier)","property_type_description":"Leilighet","size_from":47,"to_year":2006,"type":"realestate"},{"Location":"Merdinvegen 34D, Skien","ad_id":260044194,"ad_link":"https://www.finn.no/realestate/homes/ad.html?finnkode=260044194","ad_type":1,"energy_label":4,"from_year":2006,"lat":59.2226,"local_area_name":"Skien - Mæla","lon":9.5911,"number_of_bedrooms":3,"owner_type_description":"Andel","property_type_description":"Tomannsbolig","size_from":106,"to_year":2006,"type":"realestate"},{"Location":"Kollevågtjørna 10G, Hauglandshella","ad_id":260321926,"ad_link":"https://www.finn.no/realestate/homes/ad.html?finnkode=260321926","ad_type":1,"energy_label":4,"from_year":2006,"lat":60.44843,"local_area_name":"Tveit","lon":5.13146,"number_of_bedrooms":2,"owner_type_description":"Eier (Selveier)","property_type_description":"Leilighet","size_from":64,"to_year":2006,"type":"realestate"},{"Location":"Rolf Presthus vei 92, Oppegård","ad_id":260280946,"ad_link":"https://www.finn.no/realestate/homes/ad.html?finnkode=260280946","ad_type":1,"energy_label":4,"from_year":2006,"lat":59.77068,"local_area_name":"OPPEGÅRD | ØVRESKOGEN","lon":10.8254,"number_of_bedrooms":4,"owner_type_description":"Eier (Selveier)","property_type_description":"Enebolig","size_from":137,"to_year":2006,"type":"realestate"},{"Location":"Gunnar Schjelderups vei 11E, Oslo","ad_id":260257869,"ad_link":"https://www.finn.no/realestate/homes/ad.html?finnkode=260257869","ad_type":1,"energy_label":4,"from_year":2006,"lat":59.94958,"local_area_name":"Nydalen Kvarter","lon":10.77365,"number_of_bedrooms":1,"owner_type_description":"Eier (Selveier)","property_type_description":"Leilighet","size_from":45,"to_year":2006,"type":"realestate"},{"Location":"Badehusgata 43, Stavanger","ad_id":260117386,"ad_link":"https://www.finn.no/realestate/homes/ad.html?finnkode=260117386","ad_type":1,"energy_label":4,"from_year":2006,"lat":58.97337,"local_area_name":"Badedammen / Stavanger Øst","lon":5.75213,"number_of_bedrooms":3,"owner_type_description":"Andel","property_type_description":"Leilighet","size_from":97,"to_year":2006,"type":"realestate"},{"Location":"Løkkegata 10, Lillehammer","ad_id":259999558,"ad_link":"https://www.finn.no/realestate/homes/ad.html?finnkode=259999558","ad_type":1,"energy_label":4,"from_year":2006,"lat":61.1189,"local_area_name":"Busmoen","lon":10.4556,"number_of_bedrooms":3,"owner_type_description":"Andel","property_type_description":"Leilighet","size_from":99,"to_year":2006,"type":"realestate"},{"Location":"Håkon Magnussons gate 1B, Trondheim","ad_id":259758506,"ad_link":"https://www.finn.no/realestate/homes/ad.html?finnkode=259758506","ad_type":1,"energy_label":4,"from_year":2006,"lat":63.4442,"local_area_name":"Lade","lon":10.4388,"number_of_bedrooms":2,"owner_type_description":"Eier (Selveier)","property_type_description":"Leilighet","size_from":91,"to_year":2006,"type":"realestate"},{"Location":"Pareliusveien 19D, Oslo","ad_id":260101432,"ad_link":"https://www.finn.no/realestate/homes/ad.html?finnkode=260101432","ad_type":1,"energy_label":4,"from_year":2006,"lat":59.87847,"local_area_name":"BEKKELAGET/HOLTET","lon":10.78153,"number_of_bedrooms":4,"owner_type_description":"Eier (Selveier)","property_type_description":"Tomannsbolig","size_from":193,"to_year":2006,"type":"realestate"},{"Location":"Strømsbuveien 64 C, Arendal","ad_id":260040328,"ad_link":"https://www.finn.no/realestate/homes/ad.html?finnkode=260040328","ad_type":1,"energy_label":4,"from_year":2006,"lat":58.46016,"local_area_name":"Strømsbu","lon":8.75653,"number_of_bedrooms":2,"owner_type_description":"Andel","property_type_description":"Leilighet","size_from":79,"to_year":2006,"type":"realestate"},{"Location":"Fjellveien 37 E, Bodø","ad_id":260032371,"ad_link":"https://www.finn.no/realestate/homes/ad.html?finnkode=260032371","ad_type":1,"energy_label":4,"from_year":2006,"lat":67.29468,"local_area_name":"Rønvik","lon":14.4244,"number_of_bedrooms":2,"owner_type_description":"Eier (Selveier)","property_type_description":"Leilighet","size_from":69,"to_year":2006,"type":"realestate"},{"Location":"Gullsmedjordet 22, Tromsdalen","ad_id":259868224,"ad_link":"https://www.finn.no/realestate/homes/ad.html?finnkode=259868224","ad_type":1,"energy_label":4,"from_year":2006,"lat":69.6101,"local_area_name":"Solligården","lon":18.9385,"number_of_bedrooms":4,"owner_type_description":"Andel","property_type_description":"Rekkehus","size_from":93,"to_year":2006,"type":"realestate"},{"Location":"Brattreinflata 4F, Trondheim","ad_id":259922382,"ad_link":"https://www.finn.no/realestate/homes/ad.html?finnkode=259922382","ad_type":1,"energy_label":4,"from_year":2006,"lat":63.37554,"local_area_name":"Kulsås","lon":10.32871,"number_of_bedrooms":2,"owner_type_description":"Eier (Selveier)","property_type_description":"Leilighet","size_from":78,"to_year":2006,"type":"realestate"},{"Location":"Myntgata 16, Kongsberg","ad_id":259734785,"ad_link":"https://www.finn.no/realestate/homes/ad.html?finnkode=259734785","ad_type":1,"energy_label":4,"from_year":2006,"lat":59.66337,"local_area_name":"Sentrum vest","lon":9.64774,"number_of_bedrooms":2,"owner_type_description":"Andel","property_type_description":"Leilighet","size_from":76,"to_year":2006,"type":"realestate"},{"Location":"Rosterudstubben 5, Kløfta","ad_id":259625701,"ad_link":"https://www.finn.no/realestate/homes/ad.html?finnkode=259625701","ad_type":1,"energy_label":4,"from_year":2006,"lat":60.0716,"local_area_name":null,"lon":11.15,"number_of_bedrooms":3,"owner_type_description":"Eier (Selveier)","property_type_description":"Rekkehus","size_from":102,"to_year":2006,"type":"realestate"},{"Location":"Skoglundfaret 6, Gjøvik","ad_id":258987860,"ad_link":"https://www.finn.no/realestate/homes/ad.html?finnkode=258987860","ad_type":1,"energy_label":4,"from_year":2006,"lat":60.7684,"local_area_name":"Skoglundfeltet","lon":10.6662,"number_of_bedrooms":2,"owner_type_description":"Eier (Selveier)","property_type_description":"Enebolig","size_from":150,"to_year":2006,"type":"realestate"},{"Location":"Veimester Kroghs gate 2B, Trondheim","ad_id":258859738,"ad_link":"https://www.finn.no/realestate/homes/ad.html?finnkode=258859738","ad_type":1,"energy_label":4,"from_year":2006,"lat":63.4316,"local_area_name":"Kuhaugen","lon":10.4309,"number_of_bedrooms":2,"owner_type_description":"Eier (Selveier)","property_type_description":"Leilighet","size_from":93,"to_year":2006,"type":"realestate"},{"Location":"Hvålstunet 4C, Stokke","ad_id":259137943,"ad_link":"https://www.finn.no/realestate/homes/ad.html?finnkode=259137943","ad_type":1,"energy_label":4,"from_year":2006,"lat":59.2138,"local_area_name":"Stokke- Hvålsåsen","lon":10.3108,"number_of_bedrooms":1,"owner_type_description":"Eier (Selveier)","property_type_description":"Leilighet","size_from":48,"to_year":2006,"type":"realestate"},{"Location":"Skipperbakken 55, Seljord","ad_id":251541251,"ad_link":"https://www.finn.no/realestate/homes/ad.html?finnkode=251541251","ad_type":1,"energy_label":4,"from_year":2006,"lat":59.4858,"local_area_name":"Seljord","lon":8.639,"number_of_bedrooms":3,"owner_type_description":"Eier (Selveier)","property_type_description":"Leilighet","size_from":118,"to_year":2006,"type":"realestate"},{"Location":"Nesseveien 7B, Harstad","ad_id":259021582,"ad_link":"https://www.finn.no/realestate/homes/ad.html?finnkode=259021582","ad_type":1,"energy_label":4,"from_year":2006,"lat":68.77447,"local_area_name":null,"lon":16.56225,"number_of_bedrooms":3,"owner_type_description":"Andel","property_type_description":"Leilighet","size_from":110,"to_year":2006,"type":"realestate"},{"Location":"Fjellhamarveien 58, Fjellhamar","ad_id":254527690,"ad_link":"https://www.finn.no/realestate/homes/ad.html?finnkode=254527690","ad_type":1,"energy_label":4,"from_year":2006,"lat":59.94054,"local_area_name":"Fjellhamar","lon":10.98392,"number_of_bedrooms":3,"owner_type_description":"Eier (Selveier)","property_type_description":"Leilighet","size_from":88,"to_year":2006,"type":"realestate"},{"Location":"Tomasjordnes 57, Tomasjord","ad_id":258847812,"ad_link":"https://www.finn.no/realestate/homes/ad.html?finnkode=258847812","ad_type":1,"energy_label":4,"from_year":2006,"lat":69.6666,"local_area_name":"Tomasjordnes","lon":19.0181,"number_of_bedrooms":1,"owner_type_description":"Eier (Selveier)","property_type_description":"Leilighet","size_from":37,"to_year":2006,"type":"realestate"},{"Location":"Øverbyvegen 11A, Raufoss","ad_id":257888972,"ad_link":"https://www.finn.no/realestate/homes/ad.html?finnkode=257888972","ad_type":1,"energy_label":4,"from_year":2006,"lat":60.7308,"local_area_name":null,"lon":10.6199,"number_of_bedrooms":3,"owner_type_description":"Eier (Selveier)","property_type_description":"Tomannsbolig","size_from":119,"to_year":2006,"type":"realestate"},{"Location":"Hasleveien 26, Oslo","ad_id":258605955,"ad_link":"https://www.finn.no/realestate/homes/ad.html?finnkode=258605955","ad_type":1,"energy_label":4,"from_year":2006,"lat":59.92887,"local_area_name":null,"lon":10.78148,"number_of_bedrooms":1,"owner_type_description":"Andel","property_type_description":"Leilighet","size_from":50,"to_year":2006,"type":"realestate"},{"Location":"Morildvegen 6B, Kvaløysletta","ad_id":258385661,"ad_link":"https://www.finn.no/realestate/homes/ad.html?finnkode=258385661","ad_type":1,"energy_label":4,"from_year":2006,"lat":69.68541,"local_area_name":null,"lon":18.84204,"number_of_bedrooms":5,"owner_type_description":"Eier (Selveier)","property_type_description":"Tomannsbolig","size_from":203,"to_year":2006,"type":"realestate"},{"Location":"Sør Kolnesvegen 121, Sola","ad_id":258346293,"ad_link":"https://www.finn.no/realestate/homes/ad.html?finnkode=258346293","ad_type":1,"energy_label":4,"from_year":2006,"lat":58.901,"local_area_name":"Kolnes","lon":5.5849,"number_of_bedrooms":5,"owner_type_description":"Eier (Selveier)","property_type_description":"Enebolig","size_from":216,"to_year":2006,"type":"realestate"},{"Location":"Ytre Eiganesveien 19, Stavanger","ad_id":253304904,"ad_link":"https://www.finn.no/realestate/homes/ad.html?finnkode=253304904","ad_type":1,"energy_label":4,"from_year":2006,"lat":58.95769,"local_area_name":"Eiganes","lon":5.69853,"number_of_bedrooms":1,"owner_type_description":"Andel","property_type_description":"Leilighet","size_from":38,"to_year":2006,"type":"realestate"},{"Location":"Stemmeveien 50, Bergen","ad_id":253309164,"ad_link":"https://www.finn.no/realestate/homes/ad.html?finnkode=253309164","ad_type":1,"energy_label":4,"from_year":2006,"lat":60.38373,"local_area_name":null,"lon":5.36412,"number_of_bedrooms":2,"owner_type_description":"Eier (Selveier)","property_type_description":"Leilighet","size_from":65,"to_year":2006,"type":"realestate"},{"Location":"Strandgata 10, Gjøvik","ad_id":258206039,"ad_link":"https://www.finn.no/realestate/homes/ad.html?finnkode=258206039","ad_type":1,"energy_label":4,"from_year":2006,"lat":60.7921,"local_area_name":"Gjøvik sentrum","lon":10.693,"number_of_bedrooms":2,"owner_type_description":"Andel","property_type_description":"Leilighet","size_from":66,"to_year":2006,"type":"realestate"},{"Location":"Søster Mathildes gate 21, Lørenskog","ad_id":258197575,"ad_link":"https://www.finn.no/realestate/homes/ad.html?finnkode=258197575","ad_type":1,"energy_label":4,"from_year":2006,"lat":59.9199,"local_area_name":"Lørenskog","lon":10.9494,"number_of_bedrooms":1,"owner_type_description":"Andel","property_type_description":"Leilighet","size_from":36,"to_year":2006,"type":"realestate"},{"Location":"Oskars gate 64, Sarpsborg","ad_id":257349422,"ad_link":"https://www.finn.no/realestate/homes/ad.html?finnkode=257349422","ad_type":1,"energy_label":4,"from_year":2006,"lat":59.28342,"local_area_name":"Sarpsborg sentrum","lon":11.11518,"number_of_bedrooms":1,"owner_type_description":"Eier (Selveier)","property_type_description":"Leilighet","size_from":47,"to_year":2006,"type":"realestate"},{"Location":"Gunnar Schjelderups vei 11J, Oslo","ad_id":256708290,"ad_link":"https://www.finn.no/realestate/homes/ad.html?finnkode=256708290","ad_type":1,"energy_label":4,"from_year":2006,"lat":59.94893,"local_area_name":"NYDALEN / RETT VED HANDELSHØYSKOLEN BI","lon":10.7747,"number_of_bedrooms":3,"owner_type_description":"Eier (Selveier)","property_type_description":"Leilighet","size_from":74,"to_year":2006,"type":"realestate"},{"Location":"Kolbergveien 21, Nøtterøy","ad_id":256519289,"ad_link":"https://www.finn.no/realestate/homes/ad.html?finnkode=256519289","ad_type":1,"energy_label":4,"from_year":2006,"lat":59.2475,"local_area_name":"Nøtterøy/Teie","lon":10.4052,"number_of_bedrooms":4,"owner_type_description":"Eier (Selveier)","property_type_description":"Enebolig","size_from":126,"to_year":2006,"type":"realestate"},{"Location":"Søbstadvegen 1 D, Heimdal","ad_id":256378257,"ad_link":"https://www.finn.no/realestate/homes/ad.html?finnkode=256378257","ad_type":1,"energy_label":4,"from_year":2006,"lat":63.35201,"local_area_name":"Heimdal Sentrum","lon":10.35663,"number_of_bedrooms":2,"owner_type_description":"Andel","property_type_description":"Leilighet","size_from":50,"to_year":2006,"type":"realestate"},{"Location":"Romsåsveien 10, Oslo","ad_id":255761319,"ad_link":"https://www.finn.no/realestate/homes/ad.html?finnkode=255761319","ad_type":1,"energy_label":4,"from_year":2006,"lat":59.9609,"local_area_name":"GRORUD","lon":10.8857,"number_of_bedrooms":3,"owner_type_description":"Eier (Selveier)","property_type_description":"Leilighet","size_from":76,"to_year":2006,"type":"realestate"},{"Location":"Strandgata 99, Sandnes","ad_id":254614535,"ad_link":"https://www.finn.no/realestate/homes/ad.html?finnkode=254614535","ad_type":1,"energy_label":4,"from_year":2006,"lat":58.8641,"local_area_name":"Altona Brygge","lon":5.7466,"number_of_bedrooms":3,"owner_type_description":"Eier (Selveier)","property_type_description":"Leilighet","size_from":94,"to_year":2006,"type":"realestate"},{"Location":"Bruveien 9, Lier","ad_id":250222893,"ad_link":"https://www.finn.no/realestate/homes/ad.html?finnkode=250222893","ad_type":1,"energy_label":4,"from_year":2006,"lat":59.7876,"local_area_name":"LIERBYEN SENTRUM","lon":10.2457,"number_of_bedrooms":2,"owner_type_description":"Andel","property_type_description":"Leilighet","size_from":68,"to_year":2006,"type":"realestate"},{"Location":"Haugslia 8A, Skien","ad_id":254224359,"ad_link":"https://www.finn.no/realestate/homes/ad.html?finnkode=254224359","ad_type":1,"energy_label":4,"from_year":2006,"lat":59.1729,"local_area_name":"Skien - Borgestad","lon":9.6518,"number_of_bedrooms":2,"owner_type_description":"Andel","property_type_description":"Tomannsbolig","size_from":77,"to_year":2006,"type":"realestate"},{"Location":"St. Hanshaugen 26B, Elverum","ad_id":253835164,"ad_link":"https://www.finn.no/realestate/homes/ad.html?finnkode=253835164","ad_type":1,"energy_label":4,"from_year":2006,"lat":60.8842,"local_area_name":"St. Hanshaugen/Elverum","lon":11.5778,"number_of_bedrooms":2,"owner_type_description":"Andel","property_type_description":"Leilighet","size_from":62,"to_year":2006,"type":"realestate"},{"Location":"Hundvågveien 51, Hundvåg","ad_id":239014558,"ad_link":"https://www.finn.no/realestate/homes/ad.html?finnkode=239014558","ad_type":1,"energy_label":4,"from_year":2006,"lat":58.994,"local_area_name":"Hundvåg","lon":5.731,"number_of_bedrooms":2,"owner_type_description":"Eier (Selveier)","property_type_description":"Leilighet","size_from":86,"to_year":2006,"type":"realestate"},{"Location":"Brekkesletta 22, Skjærhalden","ad_id":253285921,"ad_link":"https://www.finn.no/realestate/homes/ad.html?finnkode=253285921","ad_type":1,"energy_label":4,"from_year":2006,"lat":59.04227,"local_area_name":"Idylliske Hvaler / Skjærhalden","lon":11.03651,"number_of_bedrooms":5,"owner_type_description":"Eier (Selveier)","property_type_description":"Enebolig","size_from":166,"to_year":2006,"type":"realestate"},{"Location":"Skippergata 32, Tromsø","ad_id":211736643,"ad_link":"https://www.finn.no/realestate/homes/ad.html?finnkode=211736643","ad_type":1,"energy_label":4,"from_year":2006,"lat":69.65445,"local_area_name":"SENTRUM","lon":18.96332,"number_of_bedrooms":2,"owner_type_description":"Andel","property_type_description":"Leilighet","size_from":90,"to_year":2006,"type":"realestate"},{"Location":"Sigden 10, Kristiansund N","ad_id":243858628,"ad_link":"https://www.finn.no/realestate/homes/ad.html?finnkode=243858628","ad_type":1,"energy_label":4,"from_year":2006,"lat":63.12766,"local_area_name":null,"lon":7.81186,"number_of_bedrooms":3,"owner_type_description":"Eier (Selveier)","property_type_description":"Enebolig","size_from":102,"to_year":2006,"type":"realestate"},{"Location":"Haugrandveien 28, Hamarvik","ad_id":232087140,"ad_link":"https://www.finn.no/realestate/homes/ad.html?finnkode=232087140","ad_type":1,"energy_label":4,"from_year":2006,"lat":63.70175,"local_area_name":null,"lon":8.80773,"number_of_bedrooms":0,"owner_type_description":"Eier (Selveier)","property_type_description":"Rekkehus","size_from":109,"to_year":2006,"type":"realestate"},{"Location":"Laurhammar 19, Urangsvåg","ad_id":204433327,"ad_link":"https://www.finn.no/realestate/homes/ad.html?finnkode=204433327","ad_type":1,"energy_label":4,"from_year":2006,"lat":59.8068,"local_area_name":"Laurhammerfeltet","lon":5.17561,"number_of_bedrooms":2,"owner_type_description":"Eier (Selveier)","property_type_description":"Leilighet","size_from":78,"to_year":2006,"type":"realestate"}]