[{"Location":"Kløvervegen 16B, Porsgrunn","ad_id":261481542,"ad_link":"https://www.finn.no/realestate/homes/ad.html?finnkode=261481542","ad_type":1,"energy_label":5,"from_year":1974,"lat":59.1128,"local_area_name":"PORSGRUNN - STRIDSKLEV","lon":9.6632,"number_of_bedrooms":2,"owner_type_description":"Andel","property_type_description":"Leilighet","size_from":71,"to_year":1974,"type":"realestate"},{"Location":"Nordbytunet 9 E, Jessheim","ad_id":261440662,"ad_link":"https://www.finn.no/realestate/homes/ad.html?finnkode=261440662","ad_type":1,"energy_label":5,"from_year":1974,"lat":60.15259,"local_area_name":"Jessheim","lon":11.17525,"number_of_bedrooms":4,"owner_type_description":"Eier (Selveier)","property_type_description":"Leilighet","size_from":98,"to_year":1974,"type":"realestate"},{"Location":"Solveien 14 B, Stokmarknes","ad_id":259715241,"ad_link":"https://www.finn.no/realestate/homes/ad.html?finnkode=259715241","ad_type":1,"energy_label":5,"from_year":1974,"lat":68.565,"local_area_name":null,"lon":14.89425,"number_of_bedrooms":1,"owner_type_description":"Andel","property_type_description":"Leilighet","size_from":51,"to_year":1974,"type":"realestate"},{"Location":"Tors vei 40, Fjellhamar","ad_id":261348425,"ad_link":"https://www.finn.no/realestate/homes/ad.html?finnkode=261348425","ad_type":1,"energy_label":5,"from_year":1974,"lat":59.946,"local_area_name":"Fjellhamar","lon":10.9779,"number_of_bedrooms":2,"owner_type_description":"Eier (Selveier)","property_type_description":"Enebolig","size_from":188,"to_year":1974,"type":"realestate"},{"Location":"Haugveien 15, Hommersåk","ad_id":261374776,"ad_link":"https://www.finn.no/realestate/homes/ad.html?finnkode=261374776","ad_type":1,"energy_label":5,"from_year":1974,"lat":58.91846,"local_area_name":"Hommersåk","lon":5.85312,"number_of_bedrooms":3,"owner_type_description":"Eier (Selveier)","property_type_description":"Enebolig","size_from":217,"to_year":1974,"type":"realestate"},{"Location":"Slalåmveien 3 H, Kolbotn","ad_id":261096806,"ad_link":"https://www.finn.no/realestate/homes/ad.html?finnkode=261096806","ad_type":1,"energy_label":5,"from_year":1974,"lat":59.80502,"local_area_name":"Kolbotn","lon":10.7912,"number_of_bedrooms":3,"owner_type_description":"Eier (Selveier)","property_type_description":"Leilighet","size_from":89,"to_year":1974,"type":"realestate"},{"Location":"Rugdeveien 22, Drammen","ad_id":260781465,"ad_link":"https://www.finn.no/realestate/homes/ad.html?finnkode=260781465","ad_type":1,"energy_label":5,"from_year":1974,"lat":59.73179,"local_area_name":"Hallermoen / Konnerud","lon":10.14794,"number_of_bedrooms":5,"owner_type_description":"Eier (Selveier)","property_type_description":"Enebolig","size_from":194,"to_year":1974,"type":"realestate"},{"Location":"Lille Frydenlund 6C, Lierstranda","ad_id":260955858,"ad_link":"https://www.finn.no/realestate/homes/ad.html?finnkode=260955858","ad_type":1,"energy_label":5,"from_year":1974,"lat":59.7528,"local_area_name":"Lierstranda","lon":10.2534,"number_of_bedrooms":4,"owner_type_description":"Andel","property_type_description":"Rekkehus","size_from":114,"to_year":1974,"type":"realestate"},{"Location":"Eventyrveien 12B, Sandnes","ad_id":259935691,"ad_link":"https://www.finn.no/realestate/homes/ad.html?finnkode=259935691","ad_type":1,"energy_label":5,"from_year":1974,"lat":58.8816,"local_area_name":"Lura","lon":5.7396,"number_of_bedrooms":3,"owner_type_description":"Andel","property_type_description":"Leilighet","size_from":93,"to_year":1974,"type":"realestate"},{"Location":"Sivvegen 51, Kleppe","ad_id":260895651,"ad_link":"https://www.finn.no/realestate/homes/ad.html?finnkode=260895651","ad_type":1,"energy_label":5,"from_year":1974,"lat":58.78324,"local_area_name":"VERDALEN","lon":5.61102,"number_of_bedrooms":3,"owner_type_description":"Eier (Selveier)","property_type_description":"Enebolig","size_from":150,"to_year":1974,"type":"realestate"},{"Location":"Erika Nissens vei 5A, Stavanger","ad_id":260893121,"ad_link":"https://www.finn.no/realestate/homes/ad.html?finnkode=260893121","ad_type":1,"energy_label":5,"from_year":1974,"lat":58.96376,"local_area_name":"Stokka","lon":5.70381,"number_of_bedrooms":2,"owner_type_description":"Eier (Selveier)","property_type_description":"Leilighet","size_from":116,"to_year":1974,"type":"realestate"},{"Location":"Ishallveien 35, Stavanger","ad_id":260870418,"ad_link":"https://www.finn.no/realestate/homes/ad.html?finnkode=260870418","ad_type":1,"energy_label":5,"from_year":1974,"lat":58.9508,"local_area_name":"Tjensvoll","lon":5.6956,"number_of_bedrooms":3,"owner_type_description":"Eier (Selveier)","property_type_description":"Enebolig","size_from":115,"to_year":1974,"type":"realestate"},{"Location":"Kastanjeveien 58, Drammen","ad_id":260673366,"ad_link":"https://www.finn.no/realestate/homes/ad.html?finnkode=260673366","ad_type":1,"energy_label":5,"from_year":1974,"lat":59.7602,"local_area_name":"Åssiden","lon":10.1526,"number_of_bedrooms":1,"owner_type_description":"Eier (Selveier)","property_type_description":"Leilighet","size_from":46,"to_year":1974,"type":"realestate"},{"Location":"Åsamyrane 56, Ulset","ad_id":260716689,"ad_link":"https://www.finn.no/realestate/homes/ad.html?finnkode=260716689","ad_type":1,"energy_label":5,"from_year":1974,"lat":60.46076,"local_area_name":"Åsane","lon":5.32136,"number_of_bedrooms":4,"owner_type_description":"Eier (Selveier)","property_type_description":"Enebolig","size_from":201,"to_year":1974,"type":"realestate"},{"Location":"Sollia 13, Kleppe","ad_id":252564404,"ad_link":"https://www.finn.no/realestate/homes/ad.html?finnkode=252564404","ad_type":1,"energy_label":5,"from_year":1974,"lat":58.7846,"local_area_name":"Verdalen","lon":5.607,"number_of_bedrooms":4,"owner_type_description":"Eier (Selveier)","property_type_description":"Tomannsbolig","size_from":186,"to_year":1974,"type":"realestate"},{"Location":"Nedre Maihaugen 6C, Skien","ad_id":260646853,"ad_link":"https://www.finn.no/realestate/homes/ad.html?finnkode=260646853","ad_type":1,"energy_label":5,"from_year":1974,"lat":59.2219,"local_area_name":"Gulset","lon":9.56379,"number_of_bedrooms":2,"owner_type_description":"Andel","property_type_description":"Leilighet","size_from":70,"to_year":1974,"type":"realestate"},{"Location":"Hagehaugvegen 24A, Lillehammer","ad_id":260505421,"ad_link":"https://www.finn.no/realestate/homes/ad.html?finnkode=260505421","ad_type":1,"energy_label":5,"from_year":1974,"lat":61.0984,"local_area_name":"Søre Ål","lon":10.481,"number_of_bedrooms":4,"owner_type_description":"Eier (Selveier)","property_type_description":"Enebolig","size_from":170,"to_year":1974,"type":"realestate"},{"Location":"Vensvangvegen 16, Espa","ad_id":260410538,"ad_link":"https://www.finn.no/realestate/homes/ad.html?finnkode=260410538","ad_type":1,"energy_label":5,"from_year":1974,"lat":60.5951,"local_area_name":null,"lon":11.3021,"number_of_bedrooms":3,"owner_type_description":"Eier (Selveier)","property_type_description":"Enebolig","size_from":143,"to_year":1974,"type":"realestate"},{"Location":"Sollivegen 101A, Molde","ad_id":260514224,"ad_link":"https://www.finn.no/realestate/homes/ad.html?finnkode=260514224","ad_type":1,"energy_label":5,"from_year":1974,"lat":62.7458,"local_area_name":null,"lon":7.1592,"number_of_bedrooms":1,"owner_type_description":"Andel","property_type_description":"Leilighet","size_from":64,"to_year":1974,"type":"realestate"},{"Location":"Ludvig Karstens vei 10, Oslo","ad_id":260522240,"ad_link":"https://www.finn.no/realestate/homes/ad.html?finnkode=260522240","ad_type":1,"energy_label":5,"from_year":1974,"lat":59.93361,"local_area_name":null,"lon":10.92231,"number_of_bedrooms":3,"owner_type_description":"Andel","property_type_description":"Leilighet","size_from":73,"to_year":1974,"type":"realestate"},{"Location":"Helgeplasset 120, Fyllingsdalen","ad_id":260520752,"ad_link":"https://www.finn.no/realestate/homes/ad.html?finnkode=260520752","ad_type":1,"energy_label":5,"from_year":1974,"lat":60.35519,"local_area_name":"Bud mottatt Fyllingsdalen","lon":5.30301,"number_of_bedrooms":3,"owner_type_description":"Andel","property_type_description":"Rekkehus","size_from":116,"to_year":1974,"type":"realestate"},{"Location":"Nedre Maihaugen 6B, Skien","ad_id":260509897,"ad_link":"https://www.finn.no/realestate/homes/ad.html?finnkode=260509897","ad_type":1,"energy_label":5,"from_year":1974,"lat":59.2219,"local_area_name":"Skien - Gulset","lon":9.564,"number_of_bedrooms":2,"owner_type_description":"Andel","property_type_description":"Leilighet","size_from":73,"to_year":1974,"type":"realestate"},{"Location":"Nordre Hallsetveg 12, Trondheim","ad_id":258217964,"ad_link":"https://www.finn.no/realestate/homes/ad.html?finnkode=258217964","ad_type":1,"energy_label":5,"from_year":1974,"lat":63.39953,"local_area_name":"Hallset","lon":10.38313,"number_of_bedrooms":3,"owner_type_description":"Eier (Selveier)","property_type_description":"Enebolig","size_from":186,"to_year":1974,"type":"realestate"},{"Location":"Furustubben 5, Kleppe","ad_id":260429822,"ad_link":"https://www.finn.no/realestate/homes/ad.html?finnkode=260429822","ad_type":1,"energy_label":5,"from_year":1974,"lat":58.7853,"local_area_name":"Verdalen","lon":5.6149,"number_of_bedrooms":5,"owner_type_description":"Eier (Selveier)","property_type_description":"Enebolig","size_from":228,"to_year":1974,"type":"realestate"},{"Location":"Jernalderveien 53A, Hafrsfjord","ad_id":259857817,"ad_link":"https://www.finn.no/realestate/homes/ad.html?finnkode=259857817","ad_type":1,"energy_label":5,"from_year":1974,"lat":58.9431,"local_area_name":"Madlamark","lon":5.6927,"number_of_bedrooms":2,"owner_type_description":"Andel","property_type_description":"Leilighet","size_from":78,"to_year":1974,"type":"realestate"},{"Location":"Tomtegata 5E, Lillestrøm","ad_id":260158292,"ad_link":"https://www.finn.no/realestate/homes/ad.html?finnkode=260158292","ad_type":1,"energy_label":5,"from_year":1974,"lat":59.95039,"local_area_name":null,"lon":11.063,"number_of_bedrooms":2,"owner_type_description":"Eier (Selveier)","property_type_description":"Leilighet","size_from":82,"to_year":1974,"type":"realestate"},{"Location":"Dramsvegen 500B, Tromsø","ad_id":259722121,"ad_link":"https://www.finn.no/realestate/homes/ad.html?finnkode=259722121","ad_type":1,"energy_label":5,"from_year":1974,"lat":69.6827,"local_area_name":"Mortensnes","lon":18.9562,"number_of_bedrooms":6,"owner_type_description":"Eier (Selveier)","property_type_description":"Enebolig","size_from":201,"to_year":1974,"type":"realestate"},{"Location":"Halsmovegen 77, Mosjøen","ad_id":259757434,"ad_link":"https://www.finn.no/realestate/homes/ad.html?finnkode=259757434","ad_type":1,"energy_label":5,"from_year":1974,"lat":65.86018,"local_area_name":"Halsåsen","lon":13.19682,"number_of_bedrooms":3,"owner_type_description":"Eier (Selveier)","property_type_description":"Enebolig","size_from":125,"to_year":1974,"type":"realestate"},{"Location":"Nordre Toppe 3, Mjølkeråen","ad_id":256444885,"ad_link":"https://www.finn.no/realestate/homes/ad.html?finnkode=256444885","ad_type":1,"energy_label":5,"from_year":1974,"lat":60.4859,"local_area_name":null,"lon":5.27068,"number_of_bedrooms":1,"owner_type_description":"Andel","property_type_description":"Leilighet","size_from":55,"to_year":1974,"type":"realestate"},{"Location":"Kattlia 10B, Skien","ad_id":257044689,"ad_link":"https://www.finn.no/realestate/homes/ad.html?finnkode=257044689","ad_type":1,"energy_label":5,"from_year":1974,"lat":59.19996,"local_area_name":"ÅFOSS - SKIEN","lon":9.53923,"number_of_bedrooms":3,"owner_type_description":"Eier (Selveier)","property_type_description":"Tomannsbolig","size_from":101,"to_year":1974,"type":"realestate"},{"Location":"Eikeveien 2, Mandal","ad_id":259121203,"ad_link":"https://www.finn.no/realestate/homes/ad.html?finnkode=259121203","ad_type":1,"energy_label":5,"from_year":1974,"lat":58.03295,"local_area_name":null,"lon":7.50217,"number_of_bedrooms":0,"owner_type_description":"Eier (Selveier)","property_type_description":"Enebolig","size_from":206,"to_year":1974,"type":"realestate"},{"Location":"Nermarka 19, Trondheim","ad_id":258855287,"ad_link":"https://www.finn.no/realestate/homes/ad.html?finnkode=258855287","ad_type":1,"energy_label":5,"from_year":1974,"lat":63.4196,"local_area_name":"NEDRE GRANÅSLIA","lon":10.4738,"number_of_bedrooms":4,"owner_type_description":"Eier (Selveier)","property_type_description":"Enebolig","size_from":158,"to_year":1974,"type":"realestate"},{"Location":"Kjebergvegen 66, Kleppestø","ad_id":258716502,"ad_link":"https://www.finn.no/realestate/homes/ad.html?finnkode=258716502","ad_type":1,"energy_label":5,"from_year":1974,"lat":60.42053,"local_area_name":null,"lon":5.21279,"number_of_bedrooms":3,"owner_type_description":"Eier (Selveier)","property_type_description":"Tomannsbolig","size_from":119,"to_year":1974,"type":"realestate"},{"Location":"Torkelvegen 66, Hareid","ad_id":258714314,"ad_link":"https://www.finn.no/realestate/homes/ad.html?finnkode=258714314","ad_type":1,"energy_label":5,"from_year":1974,"lat":62.3777,"local_area_name":"HAREID","lon":6.0275,"number_of_bedrooms":3,"owner_type_description":"Eier (Selveier)","property_type_description":"Enebolig","size_from":180,"to_year":1974,"type":"realestate"},{"Location":"Slalåmveien 3 E, Kolbotn","ad_id":258588787,"ad_link":"https://www.finn.no/realestate/homes/ad.html?finnkode=258588787","ad_type":1,"energy_label":5,"from_year":1974,"lat":59.80539,"local_area_name":"Kolbotn","lon":10.79146,"number_of_bedrooms":2,"owner_type_description":"Eier (Selveier)","property_type_description":"Leilighet","size_from":84,"to_year":1974,"type":"realestate"},{"Location":"Sverre Iversens vei 15, Oslo","ad_id":258212695,"ad_link":"https://www.finn.no/realestate/homes/ad.html?finnkode=258212695","ad_type":1,"energy_label":5,"from_year":1974,"lat":59.9703,"local_area_name":null,"lon":10.8973,"number_of_bedrooms":1,"owner_type_description":"Andel","property_type_description":"Leilighet","size_from":61,"to_year":1974,"type":"realestate"},{"Location":"Ankerveien 11, Bodø","ad_id":257739726,"ad_link":"https://www.finn.no/realestate/homes/ad.html?finnkode=257739726","ad_type":1,"energy_label":5,"from_year":1974,"lat":67.2711,"local_area_name":"Bodøsjøen","lon":14.4532,"number_of_bedrooms":3,"owner_type_description":"Andel","property_type_description":"Leilighet","size_from":110,"to_year":1974,"type":"realestate"},{"Location":"Lutvannsveien 6, Oslo","ad_id":257597051,"ad_link":"https://www.finn.no/realestate/homes/ad.html?finnkode=257597051","ad_type":1,"energy_label":5,"from_year":1974,"lat":59.92676,"local_area_name":"Lutvann","lon":10.87273,"number_of_bedrooms":3,"owner_type_description":"Eier (Selveier)","property_type_description":"Leilighet","size_from":83,"to_year":1974,"type":"realestate"},{"Location":"Kirkerudlia 19, Vøyenenga","ad_id":236168253,"ad_link":"https://www.finn.no/realestate/homes/ad.html?finnkode=236168253","ad_type":1,"energy_label":5,"from_year":1974,"lat":59.9036,"local_area_name":"Populære Kirkerud/Vøyenenga","lon":10.4771,"number_of_bedrooms":3,"owner_type_description":"Eier (Selveier)","property_type_description":"Rekkehus","size_from":123,"to_year":1974,"type":"realestate"},{"Location":"Skoglia 68C, Askim","ad_id":256552098,"ad_link":"https://www.finn.no/realestate/homes/ad.html?finnkode=256552098","ad_type":1,"energy_label":5,"from_year":1974,"lat":59.59841,"local_area_name":"Skoglia - Askim","lon":11.18769,"number_of_bedrooms":1,"owner_type_description":"Andel","property_type_description":"Leilighet","size_from":61,"to_year":1974,"type":"realestate"},{"Location":"Vangen 1, Kvinesdal","ad_id":233444823,"ad_link":"https://www.finn.no/realestate/homes/ad.html?finnkode=233444823","ad_type":1,"energy_label":5,"from_year":1974,"lat":58.32848,"local_area_name":null,"lon":6.98128,"number_of_bedrooms":0,"owner_type_description":"Eier (Selveier)","property_type_description":"Enebolig","size_from":152,"to_year":1974,"type":"realestate"},{"Location":"Rugdevegen 24, Ingeberg","ad_id":254635517,"ad_link":"https://www.finn.no/realestate/homes/ad.html?finnkode=254635517","ad_type":1,"energy_label":5,"from_year":1974,"lat":60.8276,"local_area_name":"Hamar","lon":11.1347,"number_of_bedrooms":3,"owner_type_description":"Eier (Selveier)","property_type_description":"Enebolig","size_from":161,"to_year":1974,"type":"realestate"},{"Location":"Slalåmveien 3 I, Kolbotn","ad_id":253377429,"ad_link":"https://www.finn.no/realestate/homes/ad.html?finnkode=253377429","ad_type":1,"energy_label":5,"from_year":1974,"lat":59.8049,"local_area_name":"VISNING ETTER AVTALE","lon":10.7911,"number_of_bedrooms":3,"owner_type_description":"Eier (Selveier)","property_type_description":"Leilighet","size_from":85,"to_year":1974,"type":"realestate"},{"Location":"Grooseveien 64, Grimstad","ad_id":250214782,"ad_link":"https://www.finn.no/realestate/homes/ad.html?finnkode=250214782","ad_type":1,"energy_label":5,"from_year":1974,"lat":58.32839,"local_area_name":"Grimstad","lon":8.57875,"number_of_bedrooms":2,"owner_type_description":"Eier (Selveier)","property_type_description":"Leilighet","size_from":69,"to_year":1974,"type":"realestate"},{"Location":"Krabbstuvegen 8, Overhalla","ad_id":235122865,"ad_link":"https://www.finn.no/realestate/homes/ad.html?finnkode=235122865","ad_type":1,"energy_label":5,"from_year":1974,"lat":64.50322,"local_area_name":"Krabbstumarka","lon":11.94543,"number_of_bedrooms":4,"owner_type_description":"Eier (Selveier)","property_type_description":"Enebolig","size_from":170,"to_year":1974,"type":"realestate"},{"Location":"Eikremstranda 99, Syvde","ad_id":197770716,"ad_link":"https://www.finn.no/realestate/homes/ad.html?finnkode=197770716","ad_type":1,"energy_label":5,"from_year":1974,"lat":62.1009,"local_area_name":"SYVDE - EIKREM","lon":5.7435,"number_of_bedrooms":3,"owner_type_description":"Eier (Selveier)","property_type_description":"Enebolig","size_from":157,"to_year":1974,"type":"realestate"},{"Location":"Grooseveien 64, Grimstad","ad_id":133522331,"ad_link":"https://www.finn.no/realestate/homes/ad.html?finnkode=133522331","ad_type":1,"energy_label":5,"from_year":1974,"lat":58.32839,"local_area_name":"Groos","lon":8.57875,"number_of_bedrooms":1,"owner_type_description":"Eier (Selveier)","property_type_description":"Leilighet","size_from":33,"to_year":1974,"type":"realestate"}]