[{"Location":"Lerkesvingen 21, Røyken","ad_id":261344500,"ad_link":"https://www.finn.no/realestate/homes/ad.html?finnkode=261344500","ad_type":1,"energy_label":5,"from_year":1970,"lat":59.73683,"local_area_name":null,"lon":10.40731,"number_of_bedrooms":4,"owner_type_description":"Eier (Selveier)","property_type_description":"Tomannsbolig","size_from":120,"to_year":1970,"type":"realestate"},{"Location":"Myrullvegen 22, Tananger","ad_id":260819591,"ad_link":"https://www.finn.no/realestate/homes/ad.html?finnkode=260819591","ad_type":1,"energy_label":5,"from_year":1970,"lat":58.9363,"local_area_name":null,"lon":5.5899,"number_of_bedrooms":4,"owner_type_description":"Eier (Selveier)","property_type_description":"Enebolig","size_from":232,"to_year":1970,"type":"realestate"},{"Location":"Huldreveien 89, Borgen","ad_id":260660011,"ad_link":"https://www.finn.no/realestate/homes/ad.html?finnkode=260660011","ad_type":1,"energy_label":5,"from_year":1970,"lat":59.826,"local_area_name":"BORGEN / ASKER","lon":10.43,"number_of_bedrooms":2,"owner_type_description":"Eier (Selveier)","property_type_description":"Leilighet","size_from":81,"to_year":1970,"type":"realestate"},{"Location":"Toppåsveien 81C, Oslo","ad_id":260925992,"ad_link":"https://www.finn.no/realestate/homes/ad.html?finnkode=260925992","ad_type":1,"energy_label":5,"from_year":1970,"lat":59.82487,"local_area_name":"Toppåsen","lon":10.80284,"number_of_bedrooms":3,"owner_type_description":"Eier (Selveier)","property_type_description":"Tomannsbolig","size_from":124,"to_year":1970,"type":"realestate"},{"Location":"Kvartsgangen 3, Kongsberg","ad_id":260846131,"ad_link":"https://www.finn.no/realestate/homes/ad.html?finnkode=260846131","ad_type":1,"energy_label":5,"from_year":1970,"lat":59.6459,"local_area_name":null,"lon":9.6393,"number_of_bedrooms":2,"owner_type_description":"Andel","property_type_description":"Leilighet","size_from":69,"to_year":1970,"type":"realestate"},{"Location":"Lykkmarka 62, Sjetnemarka","ad_id":260780917,"ad_link":"https://www.finn.no/realestate/homes/ad.html?finnkode=260780917","ad_type":1,"energy_label":5,"from_year":1970,"lat":63.366,"local_area_name":"Sjetnemarka","lon":10.39743,"number_of_bedrooms":4,"owner_type_description":"Eier (Selveier)","property_type_description":"Tomannsbolig","size_from":114,"to_year":1970,"type":"realestate"},{"Location":"Myrvegen 12A, Mosjøen","ad_id":260695392,"ad_link":"https://www.finn.no/realestate/homes/ad.html?finnkode=260695392","ad_type":1,"energy_label":5,"from_year":1970,"lat":65.82591,"local_area_name":null,"lon":13.21886,"number_of_bedrooms":2,"owner_type_description":"Andel","property_type_description":"Leilighet","size_from":72,"to_year":1970,"type":"realestate"},{"Location":"Skolegata 31, Strømmen","ad_id":260625635,"ad_link":"https://www.finn.no/realestate/homes/ad.html?finnkode=260625635","ad_type":1,"energy_label":5,"from_year":1970,"lat":59.94733,"local_area_name":null,"lon":11.01874,"number_of_bedrooms":0,"owner_type_description":"Eier (Selveier)","property_type_description":"Enebolig","size_from":218,"to_year":1970,"type":"realestate"},{"Location":"Holshågåvegen 37, Follebu","ad_id":260522559,"ad_link":"https://www.finn.no/realestate/homes/ad.html?finnkode=260522559","ad_type":1,"energy_label":5,"from_year":1970,"lat":61.21189,"local_area_name":"Follebu","lon":10.28132,"number_of_bedrooms":3,"owner_type_description":"Eier (Selveier)","property_type_description":"Enebolig","size_from":142,"to_year":1970,"type":"realestate"},{"Location":"Klokkerhavna 15, Ulefoss","ad_id":260420703,"ad_link":"https://www.finn.no/realestate/homes/ad.html?finnkode=260420703","ad_type":1,"energy_label":5,"from_year":1970,"lat":59.2669,"local_area_name":"Fen","lon":9.2988,"number_of_bedrooms":4,"owner_type_description":"Eier (Selveier)","property_type_description":"Enebolig","size_from":140,"to_year":1970,"type":"realestate"},{"Location":"Gimleveien 2C, Tårnåsen","ad_id":259102298,"ad_link":"https://www.finn.no/realestate/homes/ad.html?finnkode=259102298","ad_type":1,"energy_label":5,"from_year":1970,"lat":59.8162,"local_area_name":"Tårnåsen","lon":10.8205,"number_of_bedrooms":2,"owner_type_description":"Eier (Selveier)","property_type_description":"Leilighet","size_from":89,"to_year":1970,"type":"realestate"},{"Location":"Hamrehaugen 38, Laksevåg","ad_id":259747200,"ad_link":"https://www.finn.no/realestate/homes/ad.html?finnkode=259747200","ad_type":1,"energy_label":5,"from_year":1970,"lat":60.3748,"local_area_name":"Laksevåg","lon":5.3015,"number_of_bedrooms":3,"owner_type_description":"Eier (Selveier)","property_type_description":"Rekkehus","size_from":116,"to_year":1970,"type":"realestate"},{"Location":"Eskevikveien 54, Halden","ad_id":260029439,"ad_link":"https://www.finn.no/realestate/homes/ad.html?finnkode=260029439","ad_type":1,"energy_label":5,"from_year":1970,"lat":59.109,"local_area_name":"Eskeviken","lon":11.3873,"number_of_bedrooms":4,"owner_type_description":"Eier (Selveier)","property_type_description":"Enebolig","size_from":227,"to_year":1970,"type":"realestate"},{"Location":"Frydenlund 24B, Lierstranda","ad_id":260019813,"ad_link":"https://www.finn.no/realestate/homes/ad.html?finnkode=260019813","ad_type":1,"energy_label":5,"from_year":1970,"lat":59.75531,"local_area_name":"Frydenlund","lon":10.25173,"number_of_bedrooms":2,"owner_type_description":"Andel","property_type_description":"Leilighet","size_from":84,"to_year":1970,"type":"realestate"},{"Location":"Sollivegen 30B, Molde","ad_id":260006911,"ad_link":"https://www.finn.no/realestate/homes/ad.html?finnkode=260006911","ad_type":1,"energy_label":5,"from_year":1970,"lat":62.7438,"local_area_name":"Sollia","lon":7.1603,"number_of_bedrooms":4,"owner_type_description":"Eier (Selveier)","property_type_description":"Enebolig","size_from":221,"to_year":1970,"type":"realestate"},{"Location":"Rygghaugvegen 25, Bud","ad_id":259691068,"ad_link":"https://www.finn.no/realestate/homes/ad.html?finnkode=259691068","ad_type":1,"energy_label":5,"from_year":1970,"lat":62.8966,"local_area_name":"BUD","lon":6.9732,"number_of_bedrooms":4,"owner_type_description":"Eier (Selveier)","property_type_description":"Enebolig","size_from":145,"to_year":1970,"type":"realestate"},{"Location":"Vardeveien 22C, Drøbak","ad_id":259519740,"ad_link":"https://www.finn.no/realestate/homes/ad.html?finnkode=259519740","ad_type":1,"energy_label":5,"from_year":1970,"lat":59.6472,"local_area_name":"DRØBAK/ELLE","lon":10.6407,"number_of_bedrooms":4,"owner_type_description":"Eier (Selveier)","property_type_description":"Enebolig","size_from":269,"to_year":1970,"type":"realestate"},{"Location":"Dues vei 38, Stavanger","ad_id":259506746,"ad_link":"https://www.finn.no/realestate/homes/ad.html?finnkode=259506746","ad_type":1,"energy_label":5,"from_year":1970,"lat":58.9638,"local_area_name":null,"lon":5.7061,"number_of_bedrooms":1,"owner_type_description":"Eier (Selveier)","property_type_description":"Leilighet","size_from":55,"to_year":1970,"type":"realestate"},{"Location":"Smeitkollen 76, Treungen","ad_id":259121838,"ad_link":"https://www.finn.no/realestate/homes/ad.html?finnkode=259121838","ad_type":1,"energy_label":5,"from_year":1970,"lat":59.0302,"local_area_name":null,"lon":8.51395,"number_of_bedrooms":5,"owner_type_description":"Eier (Selveier)","property_type_description":"Enebolig","size_from":170,"to_year":1970,"type":"realestate"},{"Location":"Slalåmbakken 7K, Moss","ad_id":259091931,"ad_link":"https://www.finn.no/realestate/homes/ad.html?finnkode=259091931","ad_type":1,"energy_label":5,"from_year":1970,"lat":59.4436,"local_area_name":"Gjerrebogen","lon":10.6903,"number_of_bedrooms":3,"owner_type_description":"Andel","property_type_description":"Leilighet","size_from":92,"to_year":1970,"type":"realestate"},{"Location":"Furuholen 3A, Askim","ad_id":259094258,"ad_link":"https://www.finn.no/realestate/homes/ad.html?finnkode=259094258","ad_type":1,"energy_label":5,"from_year":1970,"lat":59.592,"local_area_name":"Trippestadlia","lon":11.1927,"number_of_bedrooms":3,"owner_type_description":"Andel","property_type_description":"Rekkehus","size_from":92,"to_year":1970,"type":"realestate"},{"Location":"Heimsommarøyveien 39, Myre","ad_id":257343500,"ad_link":"https://www.finn.no/realestate/homes/ad.html?finnkode=257343500","ad_type":1,"energy_label":5,"from_year":1970,"lat":68.90319,"local_area_name":"MYRE/ SOMMARØY","lon":15.05273,"number_of_bedrooms":3,"owner_type_description":"Eier (Selveier)","property_type_description":"Enebolig","size_from":161,"to_year":1970,"type":"realestate"},{"Location":"Måstadveien 17, Tistedal","ad_id":256538795,"ad_link":"https://www.finn.no/realestate/homes/ad.html?finnkode=256538795","ad_type":1,"energy_label":5,"from_year":1970,"lat":59.1115,"local_area_name":null,"lon":11.4363,"number_of_bedrooms":3,"owner_type_description":"Eier (Selveier)","property_type_description":"Enebolig","size_from":177,"to_year":1970,"type":"realestate"},{"Location":"Frøyas veg 4, Kongsvinger","ad_id":247021477,"ad_link":"https://www.finn.no/realestate/homes/ad.html?finnkode=247021477","ad_type":1,"energy_label":5,"from_year":1970,"lat":60.1977,"local_area_name":null,"lon":11.9862,"number_of_bedrooms":3,"owner_type_description":"Andel","property_type_description":"Leilighet","size_from":93,"to_year":1970,"type":"realestate"},{"Location":"Hagehaugvegen 1, Lillehammer","ad_id":255433305,"ad_link":"https://www.finn.no/realestate/homes/ad.html?finnkode=255433305","ad_type":1,"energy_label":5,"from_year":1970,"lat":61.09768,"local_area_name":"Lillehammer","lon":10.47536,"number_of_bedrooms":0,"owner_type_description":"Eier (Selveier)","property_type_description":"Leilighet","size_from":23,"to_year":1970,"type":"realestate"},{"Location":"Bogasvingen 18, Steinkjer","ad_id":250551686,"ad_link":"https://www.finn.no/realestate/homes/ad.html?finnkode=250551686","ad_type":1,"energy_label":5,"from_year":1970,"lat":64.02094,"local_area_name":"Steinkjer- Bogen","lon":11.47556,"number_of_bedrooms":0,"owner_type_description":"Eier (Selveier)","property_type_description":"Enebolig","size_from":121,"to_year":1970,"type":"realestate"},{"Location":"Ellestadvegen 289, Lomen","ad_id":225618753,"ad_link":"https://www.finn.no/realestate/homes/ad.html?finnkode=225618753","ad_type":1,"energy_label":5,"from_year":1970,"lat":61.14397,"local_area_name":"Ellestadbygde","lon":8.87923,"number_of_bedrooms":5,"owner_type_description":"Eier (Selveier)","property_type_description":"Gårdsbruk/Småbruk","size_from":324,"to_year":1970,"type":"realestate"},{"Location":"Øvre Myrvei 4 B, Stokmarknes","ad_id":245328371,"ad_link":"https://www.finn.no/realestate/homes/ad.html?finnkode=245328371","ad_type":1,"energy_label":5,"from_year":1970,"lat":68.56606,"local_area_name":"STOKMARKNES","lon":14.89412,"number_of_bedrooms":2,"owner_type_description":"Eier (Selveier)","property_type_description":"Tomannsbolig","size_from":88,"to_year":1970,"type":"realestate"},{"Location":"Joplassvegen 4 A, Levanger","ad_id":209070920,"ad_link":"https://www.finn.no/realestate/homes/ad.html?finnkode=209070920","ad_type":1,"energy_label":5,"from_year":1970,"lat":63.75387,"local_area_name":"Nesset","lon":11.2851,"number_of_bedrooms":1,"owner_type_description":"Andel","property_type_description":"Leilighet","size_from":33,"to_year":1970,"type":"realestate"}]