[{"Location":"Søndre Skogveien 44, Bergen","ad_id":261407443,"ad_link":"https://www.finn.no/realestate/homes/ad.html?finnkode=261407443","ad_type":1,"energy_label":6,"from_year":1949,"lat":60.3711,"local_area_name":"Solheim","lon":5.33506,"number_of_bedrooms":2,"owner_type_description":"Andel","property_type_description":"Leilighet","size_from":68,"to_year":1949,"type":"realestate"},{"Location":"Syvdefjordvegen 531, Syvde","ad_id":260794405,"ad_link":"https://www.finn.no/realestate/homes/ad.html?finnkode=260794405","ad_type":1,"energy_label":6,"from_year":1949,"lat":62.0898,"local_area_name":"SYVDE","lon":5.742,"number_of_bedrooms":5,"owner_type_description":"Eier (Selveier)","property_type_description":"Enebolig","size_from":190,"to_year":1949,"type":"realestate"},{"Location":"Grams alle 14, Drammen","ad_id":260531059,"ad_link":"https://www.finn.no/realestate/homes/ad.html?finnkode=260531059","ad_type":1,"energy_label":6,"from_year":1949,"lat":59.7217,"local_area_name":"Åskollen","lon":10.2583,"number_of_bedrooms":3,"owner_type_description":"Eier (Selveier)","property_type_description":"Tomannsbolig","size_from":105,"to_year":1949,"type":"realestate"},{"Location":"Borgundvegen 304, Ålesund","ad_id":243078102,"ad_link":"https://www.finn.no/realestate/homes/ad.html?finnkode=243078102","ad_type":1,"energy_label":6,"from_year":1949,"lat":62.47276,"local_area_name":"Nørve","lon":6.22631,"number_of_bedrooms":2,"owner_type_description":"Andel","property_type_description":"Leilighet","size_from":86,"to_year":1949,"type":"realestate"},{"Location":"Haugsmyra 17, Gravdal","ad_id":215185881,"ad_link":"https://www.finn.no/realestate/homes/ad.html?finnkode=215185881","ad_type":1,"energy_label":6,"from_year":1949,"lat":68.12264,"local_area_name":null,"lon":13.54113,"number_of_bedrooms":0,"owner_type_description":"Eier (Selveier)","property_type_description":"Enebolig","size_from":212,"to_year":1949,"type":"realestate"}]