[{"Location":"Grefsenveien 51, Oslo","ad_id":261255841,"ad_link":"https://www.finn.no/realestate/homes/ad.html?finnkode=261255841","ad_type":1,"energy_label":5,"from_year":1961,"lat":59.94471,"local_area_name":"Storo","lon":10.77751,"number_of_bedrooms":0,"owner_type_description":"Andel","property_type_description":"Leilighet","size_from":23,"to_year":1961,"type":"realestate"},{"Location":"Hølandsgata 1A, Oslo","ad_id":257967167,"ad_link":"https://www.finn.no/realestate/homes/ad.html?finnkode=257967167","ad_type":1,"energy_label":5,"from_year":1961,"lat":59.9089,"local_area_name":"Kampen","lon":10.7792,"number_of_bedrooms":2,"owner_type_description":"Aksje","property_type_description":"Leilighet","size_from":56,"to_year":1961,"type":"realestate"},{"Location":"Gislemyrveien 8B, Kristiansand S","ad_id":260429375,"ad_link":"https://www.finn.no/realestate/homes/ad.html?finnkode=260429375","ad_type":1,"energy_label":5,"from_year":1961,"lat":58.1309,"local_area_name":null,"lon":7.958,"number_of_bedrooms":2,"owner_type_description":"Andel","property_type_description":"Leilighet","size_from":66,"to_year":1961,"type":"realestate"},{"Location":"Knausveien 4, Ski","ad_id":259337391,"ad_link":"https://www.finn.no/realestate/homes/ad.html?finnkode=259337391","ad_type":1,"energy_label":5,"from_year":1961,"lat":59.70542,"local_area_name":"SKI","lon":10.8459,"number_of_bedrooms":4,"owner_type_description":"Eier (Selveier)","property_type_description":"Enebolig","size_from":199,"to_year":1961,"type":"realestate"},{"Location":"Turistvegen 83, Tromsdalen","ad_id":257138399,"ad_link":"https://www.finn.no/realestate/homes/ad.html?finnkode=257138399","ad_type":1,"energy_label":5,"from_year":1961,"lat":69.6414,"local_area_name":null,"lon":19.0118,"number_of_bedrooms":4,"owner_type_description":"Eier (Selveier)","property_type_description":"Enebolig","size_from":221,"to_year":1961,"type":"realestate"},{"Location":"Kikutveien 1, Nøtterøy","ad_id":256508324,"ad_link":"https://www.finn.no/realestate/homes/ad.html?finnkode=256508324","ad_type":1,"energy_label":5,"from_year":1961,"lat":59.2555,"local_area_name":"Nøtterøy/Teie","lon":10.4059,"number_of_bedrooms":6,"owner_type_description":"Eier (Selveier)","property_type_description":"Enebolig","size_from":304,"to_year":1961,"type":"realestate"}]