[{"Location":"Rådhusvegen 18, Melhus","ad_id":261440375,"ad_link":"https://www.finn.no/realestate/homes/ad.html?finnkode=261440375","ad_type":1,"energy_label":5,"from_year":2002,"lat":63.28667,"local_area_name":"MELHUS SENTRUM","lon":10.28428,"number_of_bedrooms":3,"owner_type_description":"Eier (Selveier)","property_type_description":"Leilighet","size_from":108,"to_year":2002,"type":"realestate"},{"Location":"Korpåsen 83A, Asker","ad_id":260882737,"ad_link":"https://www.finn.no/realestate/homes/ad.html?finnkode=260882737","ad_type":1,"energy_label":5,"from_year":2002,"lat":59.8139,"local_area_name":"GULLHELLA","lon":10.4401,"number_of_bedrooms":2,"owner_type_description":"Eier (Selveier)","property_type_description":"Leilighet","size_from":75,"to_year":2002,"type":"realestate"},{"Location":"Markvegen 2 B, Levanger","ad_id":260900944,"ad_link":"https://www.finn.no/realestate/homes/ad.html?finnkode=260900944","ad_type":1,"energy_label":5,"from_year":2002,"lat":63.74222,"local_area_name":null,"lon":11.29797,"number_of_bedrooms":2,"owner_type_description":"Andel","property_type_description":"Leilighet","size_from":65,"to_year":2002,"type":"realestate"},{"Location":"Løkkjbakken 16A, Lundamo","ad_id":260880955,"ad_link":"https://www.finn.no/realestate/homes/ad.html?finnkode=260880955","ad_type":1,"energy_label":5,"from_year":2002,"lat":63.15258,"local_area_name":"LUNDAMO","lon":10.29631,"number_of_bedrooms":2,"owner_type_description":"Andel","property_type_description":"Leilighet","size_from":59,"to_year":2002,"type":"realestate"},{"Location":"Basaltveien 41, Eiksmarka","ad_id":258218627,"ad_link":"https://www.finn.no/realestate/homes/ad.html?finnkode=258218627","ad_type":1,"energy_label":5,"from_year":2002,"lat":59.95726,"local_area_name":"EIKSMARKA / FOSSUM TERRASSE","lon":10.60928,"number_of_bedrooms":2,"owner_type_description":"Eier (Selveier)","property_type_description":"Leilighet","size_from":125,"to_year":2002,"type":"realestate"},{"Location":"Kalderaveien 2C, Eiksmarka","ad_id":260549718,"ad_link":"https://www.finn.no/realestate/homes/ad.html?finnkode=260549718","ad_type":1,"energy_label":5,"from_year":2002,"lat":59.9563,"local_area_name":"Eiksmarka/Fossum Terrasse","lon":10.608,"number_of_bedrooms":3,"owner_type_description":"Eier (Selveier)","property_type_description":"Leilighet","size_from":90,"to_year":2002,"type":"realestate"},{"Location":"Skarpetegvegen 3, Ålesund","ad_id":247573559,"ad_link":"https://www.finn.no/realestate/homes/ad.html?finnkode=247573559","ad_type":1,"energy_label":5,"from_year":2002,"lat":62.4433,"local_area_name":"Blindheim","lon":6.374,"number_of_bedrooms":4,"owner_type_description":"Eier (Selveier)","property_type_description":"Leilighet","size_from":161,"to_year":2002,"type":"realestate"},{"Location":"Lunden 26 A, Oslo","ad_id":260159501,"ad_link":"https://www.finn.no/realestate/homes/ad.html?finnkode=260159501","ad_type":1,"energy_label":5,"from_year":2002,"lat":59.93762,"local_area_name":"LUNDEN HAGEBY / VOLLEBEKK","lon":10.83153,"number_of_bedrooms":3,"owner_type_description":"Andel","property_type_description":"Leilighet","size_from":81,"to_year":2002,"type":"realestate"},{"Location":"Rådhusvegen 14, Melhus","ad_id":259534786,"ad_link":"https://www.finn.no/realestate/homes/ad.html?finnkode=259534786","ad_type":1,"energy_label":5,"from_year":2002,"lat":63.2874,"local_area_name":"Melhus","lon":10.2829,"number_of_bedrooms":3,"owner_type_description":"Eier (Selveier)","property_type_description":"Leilighet","size_from":98,"to_year":2002,"type":"realestate"},{"Location":"Blårevsvingen 3, Tromsø","ad_id":259493126,"ad_link":"https://www.finn.no/realestate/homes/ad.html?finnkode=259493126","ad_type":1,"energy_label":5,"from_year":2002,"lat":69.64459,"local_area_name":null,"lon":18.90775,"number_of_bedrooms":2,"owner_type_description":"Eier (Selveier)","property_type_description":"Leilighet","size_from":123,"to_year":2002,"type":"realestate"},{"Location":"Bjørnebæråsen 11, Molde","ad_id":245519720,"ad_link":"https://www.finn.no/realestate/homes/ad.html?finnkode=245519720","ad_type":1,"energy_label":5,"from_year":2002,"lat":62.7489,"local_area_name":"Høgnakken","lon":7.1795,"number_of_bedrooms":2,"owner_type_description":"Andel","property_type_description":"Leilighet","size_from":99,"to_year":2002,"type":"realestate"},{"Location":"Jernbanegata 6, Levanger","ad_id":251539976,"ad_link":"https://www.finn.no/realestate/homes/ad.html?finnkode=251539976","ad_type":1,"energy_label":5,"from_year":2002,"lat":63.74412,"local_area_name":"Levanger sentrum","lon":11.29789,"number_of_bedrooms":2,"owner_type_description":"Andel","property_type_description":"Leilighet","size_from":83,"to_year":2002,"type":"realestate"}]