[{"Location":"Kjellergata 30, Lillestrøm","ad_id":261179066,"ad_link":"https://www.finn.no/realestate/homes/ad.html?finnkode=261179066","ad_type":1,"energy_label":5,"from_year":1955,"lat":59.96239,"local_area_name":null,"lon":11.03466,"number_of_bedrooms":0,"owner_type_description":"Eier (Selveier)","property_type_description":"Tomannsbolig","size_from":150,"to_year":1955,"type":"realestate"},{"Location":"Antenneveien 14, Oslo","ad_id":261131401,"ad_link":"https://www.finn.no/realestate/homes/ad.html?finnkode=261131401","ad_type":1,"energy_label":5,"from_year":1955,"lat":59.87535,"local_area_name":"LAMBERTSETER","lon":10.81771,"number_of_bedrooms":2,"owner_type_description":"Andel","property_type_description":"Leilighet","size_from":64,"to_year":1955,"type":"realestate"},{"Location":"Stavangergata 46A, Oslo","ad_id":261112919,"ad_link":"https://www.finn.no/realestate/homes/ad.html?finnkode=261112919","ad_type":1,"energy_label":5,"from_year":1955,"lat":59.9444,"local_area_name":"BJØLSEN/SAGENE","lon":10.7588,"number_of_bedrooms":0,"owner_type_description":"Andel","property_type_description":"Leilighet","size_from":15,"to_year":1955,"type":"realestate"},{"Location":"Vetlandsveien 97C, Oslo","ad_id":261015993,"ad_link":"https://www.finn.no/realestate/homes/ad.html?finnkode=261015993","ad_type":1,"energy_label":5,"from_year":1955,"lat":59.8946,"local_area_name":"Oppsal","lon":10.8419,"number_of_bedrooms":2,"owner_type_description":"Andel","property_type_description":"Leilighet","size_from":52,"to_year":1955,"type":"realestate"},{"Location":"Kringsjåveien 73, Laksevåg","ad_id":260677254,"ad_link":"https://www.finn.no/realestate/homes/ad.html?finnkode=260677254","ad_type":1,"energy_label":5,"from_year":1955,"lat":60.3887,"local_area_name":null,"lon":5.2887,"number_of_bedrooms":2,"owner_type_description":"Andel","property_type_description":"Leilighet","size_from":57,"to_year":1955,"type":"realestate"},{"Location":"Fridalsveien 44, Bergen","ad_id":225606724,"ad_link":"https://www.finn.no/realestate/homes/ad.html?finnkode=225606724","ad_type":1,"energy_label":5,"from_year":1955,"lat":60.3634,"local_area_name":"Fridalen / Wergeland","lon":5.35268,"number_of_bedrooms":3,"owner_type_description":"Aksje","property_type_description":"Leilighet","size_from":86,"to_year":1955,"type":"realestate"},{"Location":"Justadveien 20, Lier","ad_id":259133420,"ad_link":"https://www.finn.no/realestate/homes/ad.html?finnkode=259133420","ad_type":1,"energy_label":5,"from_year":1955,"lat":59.8161,"local_area_name":"Egge/Lier - visn. 15/6","lon":10.1986,"number_of_bedrooms":3,"owner_type_description":"Eier (Selveier)","property_type_description":"Enebolig","size_from":176,"to_year":1955,"type":"realestate"},{"Location":"Ankerskogvegen 22, Hamar","ad_id":252574752,"ad_link":"https://www.finn.no/realestate/homes/ad.html?finnkode=252574752","ad_type":1,"energy_label":5,"from_year":1955,"lat":60.8054,"local_area_name":"Ankerskogen","lon":11.0654,"number_of_bedrooms":3,"owner_type_description":"Eier (Selveier)","property_type_description":"Enebolig","size_from":181,"to_year":1955,"type":"realestate"},{"Location":"Ilsåsbakken 15, Rena","ad_id":230663515,"ad_link":"https://www.finn.no/realestate/homes/ad.html?finnkode=230663515","ad_type":1,"energy_label":5,"from_year":1955,"lat":61.13229,"local_area_name":"RENA","lon":11.38321,"number_of_bedrooms":4,"owner_type_description":"Eier (Selveier)","property_type_description":"Enebolig","size_from":334,"to_year":1955,"type":"realestate"},{"Location":"Storgata 15 A, Myre","ad_id":246914226,"ad_link":"https://www.finn.no/realestate/homes/ad.html?finnkode=246914226","ad_type":1,"energy_label":5,"from_year":1955,"lat":68.91357,"local_area_name":null,"lon":15.07484,"number_of_bedrooms":2,"owner_type_description":"Eier (Selveier)","property_type_description":"Leilighet","size_from":73,"to_year":1955,"type":"realestate"},{"Location":"Sitlevegen 18, Øvre Årdal","ad_id":220872453,"ad_link":"https://www.finn.no/realestate/homes/ad.html?finnkode=220872453","ad_type":1,"energy_label":5,"from_year":1955,"lat":61.3077,"local_area_name":null,"lon":7.8194,"number_of_bedrooms":3,"owner_type_description":"Eier (Selveier)","property_type_description":"Enebolig","size_from":154,"to_year":1955,"type":"realestate"}]