[{"Location":"Øvre Ullernlia 5, Hokksund","ad_id":261317267,"ad_link":"https://www.finn.no/realestate/homes/ad.html?finnkode=261317267","ad_type":1,"energy_label":6,"from_year":1984,"lat":59.79262,"local_area_name":null,"lon":9.91256,"number_of_bedrooms":4,"owner_type_description":"Eier (Selveier)","property_type_description":"Enebolig","size_from":254,"to_year":1984,"type":"realestate"},{"Location":"Skjetleinvegen 71, Leinstrand","ad_id":261215937,"ad_link":"https://www.finn.no/realestate/homes/ad.html?finnkode=261215937","ad_type":1,"energy_label":6,"from_year":1984,"lat":63.337,"local_area_name":"LEINSTRAND","lon":10.3083,"number_of_bedrooms":4,"owner_type_description":"Eier (Selveier)","property_type_description":"Enebolig","size_from":224,"to_year":1984,"type":"realestate"},{"Location":"Nålestien 20, Stavanger","ad_id":261184647,"ad_link":"https://www.finn.no/realestate/homes/ad.html?finnkode=261184647","ad_type":1,"energy_label":6,"from_year":1984,"lat":58.92362,"local_area_name":"Hinna","lon":5.72953,"number_of_bedrooms":2,"owner_type_description":"Eier (Selveier)","property_type_description":"Enebolig","size_from":172,"to_year":1984,"type":"realestate"},{"Location":"Nedregårdsvegen 6, Ålesund","ad_id":260952242,"ad_link":"https://www.finn.no/realestate/homes/ad.html?finnkode=260952242","ad_type":1,"energy_label":6,"from_year":1984,"lat":62.46488,"local_area_name":"Spjelkavik","lon":6.36267,"number_of_bedrooms":3,"owner_type_description":"Eier (Selveier)","property_type_description":"Enebolig","size_from":229,"to_year":1984,"type":"realestate"},{"Location":"Munkebekken 234, Oslo","ad_id":260420953,"ad_link":"https://www.finn.no/realestate/homes/ad.html?finnkode=260420953","ad_type":1,"energy_label":6,"from_year":1984,"lat":59.9309,"local_area_name":"Barnevennlige Munkebekken","lon":10.9135,"number_of_bedrooms":4,"owner_type_description":"Andel","property_type_description":"Rekkehus","size_from":107,"to_year":1984,"type":"realestate"},{"Location":"Myrlia 58 A og B, Hagan","ad_id":259564199,"ad_link":"https://www.finn.no/realestate/homes/ad.html?finnkode=259564199","ad_type":1,"energy_label":6,"from_year":1984,"lat":59.9946,"local_area_name":"Skytta","lon":10.9067,"number_of_bedrooms":6,"owner_type_description":"Eier (Selveier)","property_type_description":"Enebolig","size_from":244,"to_year":1984,"type":"realestate"},{"Location":"Tuddalsvegen 1745, Tuddal","ad_id":260894336,"ad_link":"https://www.finn.no/realestate/homes/ad.html?finnkode=260894336","ad_type":1,"energy_label":6,"from_year":1984,"lat":59.73767,"local_area_name":null,"lon":8.84209,"number_of_bedrooms":3,"owner_type_description":"Eier (Selveier)","property_type_description":"Enebolig","size_from":128,"to_year":1984,"type":"realestate"},{"Location":"Jerpevegen 20, Auli","ad_id":259751204,"ad_link":"https://www.finn.no/realestate/homes/ad.html?finnkode=259751204","ad_type":1,"energy_label":6,"from_year":1984,"lat":60.035,"local_area_name":"AULI","lon":11.3657,"number_of_bedrooms":4,"owner_type_description":"Eier (Selveier)","property_type_description":"Enebolig","size_from":158,"to_year":1984,"type":"realestate"},{"Location":"Nedre Storaberget 28, Stavanger","ad_id":260579127,"ad_link":"https://www.finn.no/realestate/homes/ad.html?finnkode=260579127","ad_type":1,"energy_label":6,"from_year":1984,"lat":58.8969,"local_area_name":"Forus","lon":5.7235,"number_of_bedrooms":2,"owner_type_description":"Andel","property_type_description":"Leilighet","size_from":79,"to_year":1984,"type":"realestate"},{"Location":"Fæsteråsen 360, Olsvik","ad_id":260786689,"ad_link":"https://www.finn.no/realestate/homes/ad.html?finnkode=260786689","ad_type":1,"energy_label":6,"from_year":1984,"lat":60.38487,"local_area_name":null,"lon":5.22145,"number_of_bedrooms":2,"owner_type_description":"Andel","property_type_description":"Leilighet","size_from":81,"to_year":1984,"type":"realestate"},{"Location":"Midtre Hamravei 5, Sandnes","ad_id":260776059,"ad_link":"https://www.finn.no/realestate/homes/ad.html?finnkode=260776059","ad_type":1,"energy_label":6,"from_year":1984,"lat":58.8781,"local_area_name":"LURA","lon":5.731,"number_of_bedrooms":3,"owner_type_description":"Eier (Selveier)","property_type_description":"Enebolig","size_from":268,"to_year":1984,"type":"realestate"},{"Location":"Møllergata 3A - H0304, Moelv","ad_id":260392638,"ad_link":"https://www.finn.no/realestate/homes/ad.html?finnkode=260392638","ad_type":1,"energy_label":6,"from_year":1984,"lat":60.9295,"local_area_name":null,"lon":10.7036,"number_of_bedrooms":2,"owner_type_description":"Eier (Selveier)","property_type_description":"Leilighet","size_from":74,"to_year":1984,"type":"realestate"},{"Location":"Nedre Frydendal 92, Asker","ad_id":260682797,"ad_link":"https://www.finn.no/realestate/homes/ad.html?finnkode=260682797","ad_type":1,"energy_label":6,"from_year":1984,"lat":59.84261,"local_area_name":"Asker / Nedre Frydendal","lon":10.42232,"number_of_bedrooms":3,"owner_type_description":"Eier (Selveier)","property_type_description":"Leilighet","size_from":99,"to_year":1984,"type":"realestate"},{"Location":"Tololia 16, Norheimsund","ad_id":260674422,"ad_link":"https://www.finn.no/realestate/homes/ad.html?finnkode=260674422","ad_type":1,"energy_label":6,"from_year":1984,"lat":60.37297,"local_area_name":null,"lon":6.16183,"number_of_bedrooms":4,"owner_type_description":"Eier (Selveier)","property_type_description":"Enebolig","size_from":225,"to_year":1984,"type":"realestate"},{"Location":"Røyskattlia 8, Hosle","ad_id":260623022,"ad_link":"https://www.finn.no/realestate/homes/ad.html?finnkode=260623022","ad_type":1,"energy_label":6,"from_year":1984,"lat":59.94264,"local_area_name":"HOSLE","lon":10.5874,"number_of_bedrooms":3,"owner_type_description":"Eier (Selveier)","property_type_description":"Enebolig","size_from":271,"to_year":1984,"type":"realestate"},{"Location":"Falla 12, Skjeberg","ad_id":257363069,"ad_link":"https://www.finn.no/realestate/homes/ad.html?finnkode=257363069","ad_type":1,"energy_label":6,"from_year":1984,"lat":59.1773,"local_area_name":null,"lon":11.1508,"number_of_bedrooms":5,"owner_type_description":"Eier (Selveier)","property_type_description":"Enebolig","size_from":190,"to_year":1984,"type":"realestate"},{"Location":"Trygve Nilsens Vei 15, Oslo","ad_id":260521063,"ad_link":"https://www.finn.no/realestate/homes/ad.html?finnkode=260521063","ad_type":1,"energy_label":6,"from_year":1984,"lat":59.93884,"local_area_name":"Ellingsrud Vest","lon":10.90349,"number_of_bedrooms":3,"owner_type_description":"Eier (Selveier)","property_type_description":"Rekkehus","size_from":131,"to_year":1984,"type":"realestate"},{"Location":"Nybakkvegen 45, Fåvang","ad_id":260422096,"ad_link":"https://www.finn.no/realestate/homes/ad.html?finnkode=260422096","ad_type":1,"energy_label":6,"from_year":1984,"lat":61.4232,"local_area_name":"Fåvang","lon":10.2269,"number_of_bedrooms":4,"owner_type_description":"Eier (Selveier)","property_type_description":"Enebolig","size_from":161,"to_year":1984,"type":"realestate"},{"Location":"Varden 181, Tromsø","ad_id":260516385,"ad_link":"https://www.finn.no/realestate/homes/ad.html?finnkode=260516385","ad_type":1,"energy_label":6,"from_year":1984,"lat":69.6987,"local_area_name":null,"lon":19.00606,"number_of_bedrooms":2,"owner_type_description":"Andel","property_type_description":"Leilighet","size_from":84,"to_year":1984,"type":"realestate"},{"Location":"Salmakerløkka 21, Sandefjord","ad_id":254609685,"ad_link":"https://www.finn.no/realestate/homes/ad.html?finnkode=254609685","ad_type":1,"energy_label":6,"from_year":1984,"lat":59.1195,"local_area_name":null,"lon":10.2091,"number_of_bedrooms":4,"owner_type_description":"Eier (Selveier)","property_type_description":"Enebolig","size_from":174,"to_year":1984,"type":"realestate"},{"Location":"Gravarstunet 36, Sandnes","ad_id":255331867,"ad_link":"https://www.finn.no/realestate/homes/ad.html?finnkode=255331867","ad_type":1,"energy_label":6,"from_year":1984,"lat":58.84964,"local_area_name":null,"lon":5.74614,"number_of_bedrooms":5,"owner_type_description":"Eier (Selveier)","property_type_description":"Enebolig","size_from":246,"to_year":1984,"type":"realestate"},{"Location":"Hamangskogen 90, Sandvika","ad_id":260026922,"ad_link":"https://www.finn.no/realestate/homes/ad.html?finnkode=260026922","ad_type":1,"energy_label":6,"from_year":1984,"lat":59.8967,"local_area_name":"Sandvika/Hamang","lon":10.5058,"number_of_bedrooms":2,"owner_type_description":"Eier (Selveier)","property_type_description":"Leilighet","size_from":80,"to_year":1984,"type":"realestate"},{"Location":"Øvre Smestadvei 58, Oslo","ad_id":260112999,"ad_link":"https://www.finn.no/realestate/homes/ad.html?finnkode=260112999","ad_type":1,"energy_label":6,"from_year":1984,"lat":59.94644,"local_area_name":"Vestre Holmen / Øvre Smestadvei","lon":10.6603,"number_of_bedrooms":3,"owner_type_description":"Eier (Selveier)","property_type_description":"Enebolig","size_from":225,"to_year":1984,"type":"realestate"},{"Location":"Bjørkerudvegen 53, Løten","ad_id":259723788,"ad_link":"https://www.finn.no/realestate/homes/ad.html?finnkode=259723788","ad_type":1,"energy_label":6,"from_year":1984,"lat":60.8106,"local_area_name":null,"lon":11.3446,"number_of_bedrooms":2,"owner_type_description":"Andel","property_type_description":"Enebolig","size_from":95,"to_year":1984,"type":"realestate"},{"Location":"Svalåsryggen 24, Nodeland","ad_id":260040498,"ad_link":"https://www.finn.no/realestate/homes/ad.html?finnkode=260040498","ad_type":1,"energy_label":6,"from_year":1984,"lat":58.16655,"local_area_name":null,"lon":7.85368,"number_of_bedrooms":4,"owner_type_description":"Eier (Selveier)","property_type_description":"Rekkehus","size_from":136,"to_year":1984,"type":"realestate"},{"Location":"Kvennhusvegen 2 D, Fjerdingby","ad_id":260027013,"ad_link":"https://www.finn.no/realestate/homes/ad.html?finnkode=260027013","ad_type":1,"energy_label":6,"from_year":1984,"lat":59.93298,"local_area_name":"FJERDINGBY:","lon":11.07485,"number_of_bedrooms":4,"owner_type_description":"Eier (Selveier)","property_type_description":"Enebolig","size_from":288,"to_year":1984,"type":"realestate"},{"Location":"Munkebekken 42, Oslo","ad_id":259850483,"ad_link":"https://www.finn.no/realestate/homes/ad.html?finnkode=259850483","ad_type":1,"energy_label":6,"from_year":1984,"lat":59.9302,"local_area_name":"Barnevennlige Munkebekken","lon":10.9179,"number_of_bedrooms":4,"owner_type_description":"Andel","property_type_description":"Rekkehus","size_from":130,"to_year":1984,"type":"realestate"},{"Location":"Løksa 63, Sjøvegan","ad_id":233567203,"ad_link":"https://www.finn.no/realestate/homes/ad.html?finnkode=233567203","ad_type":1,"energy_label":6,"from_year":1984,"lat":68.92765,"local_area_name":null,"lon":17.64833,"number_of_bedrooms":4,"owner_type_description":"Eier (Selveier)","property_type_description":"Enebolig","size_from":153,"to_year":1984,"type":"realestate"},{"Location":"Torvteigen 4, Ålesund","ad_id":259650604,"ad_link":"https://www.finn.no/realestate/homes/ad.html?finnkode=259650604","ad_type":1,"energy_label":6,"from_year":1984,"lat":62.4771,"local_area_name":"Torvteigen","lon":6.2449,"number_of_bedrooms":3,"owner_type_description":"Andel","property_type_description":"Leilighet","size_from":106,"to_year":1984,"type":"realestate"},{"Location":"Høglia 65, Bodø","ad_id":259626774,"ad_link":"https://www.finn.no/realestate/homes/ad.html?finnkode=259626774","ad_type":1,"energy_label":6,"from_year":1984,"lat":67.29453,"local_area_name":null,"lon":14.57348,"number_of_bedrooms":2,"owner_type_description":"Andel","property_type_description":"Rekkehus","size_from":96,"to_year":1984,"type":"realestate"},{"Location":"Jupiterbakken 19, Drammen","ad_id":255709991,"ad_link":"https://www.finn.no/realestate/homes/ad.html?finnkode=255709991","ad_type":1,"energy_label":6,"from_year":1984,"lat":59.7163,"local_area_name":"Konnerud","lon":10.1652,"number_of_bedrooms":4,"owner_type_description":"Eier (Selveier)","property_type_description":"Enebolig","size_from":164,"to_year":1984,"type":"realestate"},{"Location":"Bjørnemyrvegen 12, Gran","ad_id":259525817,"ad_link":"https://www.finn.no/realestate/homes/ad.html?finnkode=259525817","ad_type":1,"energy_label":6,"from_year":1984,"lat":60.3703,"local_area_name":"Skjervumsfeltet","lon":10.5808,"number_of_bedrooms":3,"owner_type_description":"Eier (Selveier)","property_type_description":"Enebolig","size_from":169,"to_year":1984,"type":"realestate"},{"Location":"Tverrveien 46, Moss","ad_id":258956662,"ad_link":"https://www.finn.no/realestate/homes/ad.html?finnkode=258956662","ad_type":1,"energy_label":6,"from_year":1984,"lat":59.409,"local_area_name":"Moss - Ekholt/Dyre","lon":10.6679,"number_of_bedrooms":2,"owner_type_description":"Andel","property_type_description":"Leilighet","size_from":78,"to_year":1984,"type":"realestate"},{"Location":"Blokkebærveien 85, Alta","ad_id":258748220,"ad_link":"https://www.finn.no/realestate/homes/ad.html?finnkode=258748220","ad_type":1,"energy_label":6,"from_year":1984,"lat":69.9699,"local_area_name":null,"lon":23.3211,"number_of_bedrooms":3,"owner_type_description":"Eier (Selveier)","property_type_description":"Enebolig","size_from":146,"to_year":1984,"type":"realestate"},{"Location":"EGGUMSVEIEN 866, Bøstad","ad_id":258704810,"ad_link":"https://www.finn.no/realestate/homes/ad.html?finnkode=258704810","ad_type":1,"energy_label":6,"from_year":1984,"lat":68.30834,"local_area_name":null,"lon":13.67301,"number_of_bedrooms":8,"owner_type_description":"Eier (Selveier)","property_type_description":"Enebolig","size_from":237,"to_year":1984,"type":"realestate"},{"Location":"Lade alle 18A, Trondheim","ad_id":258342825,"ad_link":"https://www.finn.no/realestate/homes/ad.html?finnkode=258342825","ad_type":1,"energy_label":6,"from_year":1984,"lat":63.44495,"local_area_name":"Lade","lon":10.43218,"number_of_bedrooms":6,"owner_type_description":"Eier (Selveier)","property_type_description":"Enebolig","size_from":253,"to_year":1984,"type":"realestate"},{"Location":"Løsmarka 40, Steinkjer","ad_id":258318689,"ad_link":"https://www.finn.no/realestate/homes/ad.html?finnkode=258318689","ad_type":1,"energy_label":6,"from_year":1984,"lat":64.00142,"local_area_name":null,"lon":11.49559,"number_of_bedrooms":4,"owner_type_description":"Eier (Selveier)","property_type_description":"Enebolig","size_from":162,"to_year":1984,"type":"realestate"},{"Location":"Myrlia 48, Bjørnemyr","ad_id":258064264,"ad_link":"https://www.finn.no/realestate/homes/ad.html?finnkode=258064264","ad_type":1,"energy_label":6,"from_year":1984,"lat":59.8244,"local_area_name":null,"lon":10.6339,"number_of_bedrooms":1,"owner_type_description":"Andel","property_type_description":"Leilighet","size_from":50,"to_year":1984,"type":"realestate"},{"Location":"Nypevegen 15, Kongsvinger","ad_id":258102319,"ad_link":"https://www.finn.no/realestate/homes/ad.html?finnkode=258102319","ad_type":1,"energy_label":6,"from_year":1984,"lat":60.1771,"local_area_name":"Langerudberget","lon":12.0379,"number_of_bedrooms":5,"owner_type_description":"Eier (Selveier)","property_type_description":"Enebolig","size_from":183,"to_year":1984,"type":"realestate"},{"Location":"Austbøsvingene 38, Hundvåg","ad_id":257950481,"ad_link":"https://www.finn.no/realestate/homes/ad.html?finnkode=257950481","ad_type":1,"energy_label":6,"from_year":1984,"lat":58.9947,"local_area_name":"HUNDVÅG","lon":5.7357,"number_of_bedrooms":1,"owner_type_description":"Andel","property_type_description":"Leilighet","size_from":60,"to_year":1984,"type":"realestate"},{"Location":"Tingsakermoen 27, Lillesand","ad_id":257378020,"ad_link":"https://www.finn.no/realestate/homes/ad.html?finnkode=257378020","ad_type":1,"energy_label":6,"from_year":1984,"lat":58.25999,"local_area_name":null,"lon":8.39498,"number_of_bedrooms":4,"owner_type_description":"Eier (Selveier)","property_type_description":"Enebolig","size_from":175,"to_year":1984,"type":"realestate"},{"Location":"Klæbuveien 100, Trondheim","ad_id":257259769,"ad_link":"https://www.finn.no/realestate/homes/ad.html?finnkode=257259769","ad_type":1,"energy_label":6,"from_year":1984,"lat":63.41487,"local_area_name":"Elgeseter","lon":10.3992,"number_of_bedrooms":1,"owner_type_description":"Andel","property_type_description":"Leilighet","size_from":46,"to_year":1984,"type":"realestate"},{"Location":"Grønliveien 9, Tårnåsen","ad_id":221195917,"ad_link":"https://www.finn.no/realestate/homes/ad.html?finnkode=221195917","ad_type":1,"energy_label":6,"from_year":1984,"lat":59.8205,"local_area_name":"Tårnåsen","lon":10.8113,"number_of_bedrooms":3,"owner_type_description":"Eier (Selveier)","property_type_description":"Enebolig","size_from":216,"to_year":1984,"type":"realestate"},{"Location":"Nordre Hallsetveg 7B, Trondheim","ad_id":256522636,"ad_link":"https://www.finn.no/realestate/homes/ad.html?finnkode=256522636","ad_type":1,"energy_label":6,"from_year":1984,"lat":63.39973,"local_area_name":"Hoem/Byåsen","lon":10.38259,"number_of_bedrooms":5,"owner_type_description":"Eier (Selveier)","property_type_description":"Enebolig","size_from":214,"to_year":1984,"type":"realestate"},{"Location":"Leitevegen 18 B, Sveio","ad_id":235719897,"ad_link":"https://www.finn.no/realestate/homes/ad.html?finnkode=235719897","ad_type":1,"energy_label":6,"from_year":1984,"lat":59.54856,"local_area_name":null,"lon":5.36543,"number_of_bedrooms":5,"owner_type_description":"Eier (Selveier)","property_type_description":"Leilighet","size_from":182,"to_year":1984,"type":"realestate"},{"Location":"Forstmester Barths veg 10, Lillehammer","ad_id":256160634,"ad_link":"https://www.finn.no/realestate/homes/ad.html?finnkode=256160634","ad_type":1,"energy_label":6,"from_year":1984,"lat":61.12379,"local_area_name":null,"lon":10.46234,"number_of_bedrooms":0,"owner_type_description":"Eier (Selveier)","property_type_description":"Enebolig","size_from":131,"to_year":1984,"type":"realestate"},{"Location":"Fjellskrenten 30, Frogner","ad_id":253271293,"ad_link":"https://www.finn.no/realestate/homes/ad.html?finnkode=253271293","ad_type":1,"energy_label":6,"from_year":1984,"lat":60.0083,"local_area_name":"Lunderåsen","lon":11.1548,"number_of_bedrooms":4,"owner_type_description":"Eier (Selveier)","property_type_description":"Enebolig","size_from":169,"to_year":1984,"type":"realestate"},{"Location":"Speiderveien 35B, Grimstad","ad_id":255678066,"ad_link":"https://www.finn.no/realestate/homes/ad.html?finnkode=255678066","ad_type":1,"energy_label":6,"from_year":1984,"lat":58.32502,"local_area_name":null,"lon":8.57172,"number_of_bedrooms":3,"owner_type_description":"Eier (Selveier)","property_type_description":"Leilighet","size_from":111,"to_year":1984,"type":"realestate"},{"Location":"Myrveien 1, Hauge i Dalane","ad_id":250964810,"ad_link":"https://www.finn.no/realestate/homes/ad.html?finnkode=250964810","ad_type":1,"energy_label":6,"from_year":1984,"lat":58.34185,"local_area_name":null,"lon":6.29055,"number_of_bedrooms":5,"owner_type_description":"Eier (Selveier)","property_type_description":"Enebolig","size_from":268,"to_year":1984,"type":"realestate"},{"Location":"Bælgiouda 1, Tverrelvdalen","ad_id":240373632,"ad_link":"https://www.finn.no/realestate/homes/ad.html?finnkode=240373632","ad_type":1,"energy_label":6,"from_year":1984,"lat":69.93142,"local_area_name":null,"lon":23.43995,"number_of_bedrooms":3,"owner_type_description":"Eier (Selveier)","property_type_description":"Enebolig","size_from":134,"to_year":1984,"type":"realestate"},{"Location":"Lilleveien 18, Stokmarknes","ad_id":223789613,"ad_link":"https://www.finn.no/realestate/homes/ad.html?finnkode=223789613","ad_type":1,"energy_label":6,"from_year":1984,"lat":68.56158,"local_area_name":null,"lon":14.9052,"number_of_bedrooms":4,"owner_type_description":"Eier (Selveier)","property_type_description":"Enebolig","size_from":280,"to_year":1984,"type":"realestate"},{"Location":"ØYGARDSVEGEN 8, Vågå","ad_id":235719672,"ad_link":"https://www.finn.no/realestate/homes/ad.html?finnkode=235719672","ad_type":1,"energy_label":6,"from_year":1984,"lat":61.88193,"local_area_name":null,"lon":9.0996,"number_of_bedrooms":4,"owner_type_description":"Eier (Selveier)","property_type_description":"Enebolig","size_from":258,"to_year":1984,"type":"realestate"},{"Location":"BANGSUNDVEGEN 11, Bangsund","ad_id":231960372,"ad_link":"https://www.finn.no/realestate/homes/ad.html?finnkode=231960372","ad_type":1,"energy_label":6,"from_year":1984,"lat":64.3926,"local_area_name":null,"lon":11.39374,"number_of_bedrooms":2,"owner_type_description":"Eier (Selveier)","property_type_description":"Leilighet","size_from":66,"to_year":1984,"type":"realestate"},{"Location":"Lindi 7, Vadsø","ad_id":230662014,"ad_link":"https://www.finn.no/realestate/homes/ad.html?finnkode=230662014","ad_type":1,"energy_label":6,"from_year":1984,"lat":70.0861,"local_area_name":null,"lon":29.71769,"number_of_bedrooms":4,"owner_type_description":"Eier (Selveier)","property_type_description":"Enebolig","size_from":172,"to_year":1984,"type":"realestate"}]