[{"Location":"Algarheimsvegen 119, Algarheim","ad_id":261517523,"ad_link":"https://www.finn.no/realestate/homes/ad.html?finnkode=261517523","ad_type":1,"energy_label":3,"from_year":1999,"lat":60.1412,"local_area_name":"Algarheim","lon":11.2342,"number_of_bedrooms":3,"owner_type_description":"Eier (Selveier)","property_type_description":"Enebolig","size_from":114,"to_year":1999,"type":"realestate"},{"Location":"Snoktinnløkka 12, Borgenhaugen","ad_id":261463993,"ad_link":"https://www.finn.no/realestate/homes/ad.html?finnkode=261463993","ad_type":1,"energy_label":3,"from_year":1999,"lat":59.26575,"local_area_name":"Borgenhaugen","lon":11.15623,"number_of_bedrooms":3,"owner_type_description":"Andel","property_type_description":"Leilighet","size_from":116,"to_year":1999,"type":"realestate"},{"Location":"Svehøgda 13, Hommelvik","ad_id":261440811,"ad_link":"https://www.finn.no/realestate/homes/ad.html?finnkode=261440811","ad_type":1,"energy_label":3,"from_year":1999,"lat":63.42432,"local_area_name":"Sveberg","lon":10.74824,"number_of_bedrooms":4,"owner_type_description":"Eier (Selveier)","property_type_description":"Enebolig","size_from":198,"to_year":1999,"type":"realestate"},{"Location":"Lars Hilles gate 9, Bergen","ad_id":260696157,"ad_link":"https://www.finn.no/realestate/homes/ad.html?finnkode=260696157","ad_type":1,"energy_label":3,"from_year":1999,"lat":60.3884,"local_area_name":"Bergen Sentrum","lon":5.3305,"number_of_bedrooms":2,"owner_type_description":"Eier (Selveier)","property_type_description":"Leilighet","size_from":58,"to_year":1999,"type":"realestate"},{"Location":"Gamle Vevelstadvei 10B, Langhus","ad_id":260885402,"ad_link":"https://www.finn.no/realestate/homes/ad.html?finnkode=260885402","ad_type":1,"energy_label":3,"from_year":1999,"lat":59.7548,"local_area_name":"Langhus","lon":10.8316,"number_of_bedrooms":5,"owner_type_description":"Eier (Selveier)","property_type_description":"Enebolig","size_from":208,"to_year":1999,"type":"realestate"},{"Location":"Hornnesvegen 53C, Førde","ad_id":260950645,"ad_link":"https://www.finn.no/realestate/homes/ad.html?finnkode=260950645","ad_type":1,"energy_label":3,"from_year":1999,"lat":61.46619,"local_area_name":"Hornnes","lon":5.83182,"number_of_bedrooms":3,"owner_type_description":"Andel","property_type_description":"Rekkehus","size_from":89,"to_year":1999,"type":"realestate"},{"Location":"Hjulmakerveien 5, Røros","ad_id":260884981,"ad_link":"https://www.finn.no/realestate/homes/ad.html?finnkode=260884981","ad_type":1,"energy_label":3,"from_year":1999,"lat":62.5851,"local_area_name":null,"lon":11.371,"number_of_bedrooms":4,"owner_type_description":"Eier (Selveier)","property_type_description":"Enebolig","size_from":189,"to_year":1999,"type":"realestate"},{"Location":"Kastanjeveien 2D, Stokke","ad_id":260538732,"ad_link":"https://www.finn.no/realestate/homes/ad.html?finnkode=260538732","ad_type":1,"energy_label":3,"from_year":1999,"lat":59.22307,"local_area_name":"Stokke/Nordbyen/Sentrum","lon":10.30302,"number_of_bedrooms":2,"owner_type_description":"Eier (Selveier)","property_type_description":"Leilighet","size_from":67,"to_year":1999,"type":"realestate"},{"Location":"Gamle Plassvegen 15, Nybergsund","ad_id":259754256,"ad_link":"https://www.finn.no/realestate/homes/ad.html?finnkode=259754256","ad_type":1,"energy_label":3,"from_year":1999,"lat":61.259,"local_area_name":null,"lon":12.3282,"number_of_bedrooms":4,"owner_type_description":"Eier (Selveier)","property_type_description":"Enebolig","size_from":198,"to_year":1999,"type":"realestate"},{"Location":"Nyheimvegen 18A, Florø","ad_id":259148656,"ad_link":"https://www.finn.no/realestate/homes/ad.html?finnkode=259148656","ad_type":1,"energy_label":3,"from_year":1999,"lat":61.59413,"local_area_name":null,"lon":5.00645,"number_of_bedrooms":0,"owner_type_description":"Eier (Selveier)","property_type_description":"Enebolig","size_from":136,"to_year":1999,"type":"realestate"},{"Location":"Motlandsvegen 8c, Nærbø","ad_id":258322978,"ad_link":"https://www.finn.no/realestate/homes/ad.html?finnkode=258322978","ad_type":1,"energy_label":3,"from_year":1999,"lat":58.6629,"local_area_name":null,"lon":5.63771,"number_of_bedrooms":4,"owner_type_description":"Eier (Selveier)","property_type_description":"Leilighet","size_from":121,"to_year":1999,"type":"realestate"},{"Location":"Holmafjellet 4, Sirevåg","ad_id":258042793,"ad_link":"https://www.finn.no/realestate/homes/ad.html?finnkode=258042793","ad_type":1,"energy_label":3,"from_year":1999,"lat":58.50184,"local_area_name":"SIREVÅG","lon":5.79245,"number_of_bedrooms":4,"owner_type_description":"Eier (Selveier)","property_type_description":"Enebolig","size_from":177,"to_year":1999,"type":"realestate"},{"Location":"Vallåsbakken 33, Hidrasund","ad_id":257064818,"ad_link":"https://www.finn.no/realestate/homes/ad.html?finnkode=257064818","ad_type":1,"energy_label":3,"from_year":1999,"lat":58.23555,"local_area_name":"Hidrasund","lon":6.5344,"number_of_bedrooms":5,"owner_type_description":"Eier (Selveier)","property_type_description":"Enebolig","size_from":255,"to_year":1999,"type":"realestate"},{"Location":"Dullumsvegen 22, Stjørdal","ad_id":252030806,"ad_link":"https://www.finn.no/realestate/homes/ad.html?finnkode=252030806","ad_type":1,"energy_label":3,"from_year":1999,"lat":63.4853,"local_area_name":null,"lon":10.9567,"number_of_bedrooms":4,"owner_type_description":"Eier (Selveier)","property_type_description":"Enebolig","size_from":181,"to_year":1999,"type":"realestate"}]