[{"Location":"Kaldalen 18, Skotterud","ad_id":261356214,"ad_link":"https://www.finn.no/realestate/homes/ad.html?finnkode=261356214","ad_type":1,"energy_label":4,"from_year":1990,"lat":59.97838,"local_area_name":"Skotterud","lon":12.14407,"number_of_bedrooms":4,"owner_type_description":"Eier (Selveier)","property_type_description":"Enebolig","size_from":97,"to_year":1990,"type":"realestate"},{"Location":"Liaveien 19B, Oslo","ad_id":261277465,"ad_link":"https://www.finn.no/realestate/homes/ad.html?finnkode=261277465","ad_type":1,"energy_label":4,"from_year":1990,"lat":59.94632,"local_area_name":"Lofthus/Disen - I rolig villagate rett v","lon":10.79724,"number_of_bedrooms":3,"owner_type_description":"Eier (Selveier)","property_type_description":"Enebolig","size_from":202,"to_year":1990,"type":"realestate"},{"Location":"Haugsveien 4, Jevnaker","ad_id":261080949,"ad_link":"https://www.finn.no/realestate/homes/ad.html?finnkode=261080949","ad_type":1,"energy_label":4,"from_year":1990,"lat":60.2683,"local_area_name":"Jevnaker","lon":10.4638,"number_of_bedrooms":5,"owner_type_description":"Eier (Selveier)","property_type_description":"Enebolig","size_from":204,"to_year":1990,"type":"realestate"},{"Location":"Kirkeveien 19, Oslo","ad_id":261148125,"ad_link":"https://www.finn.no/realestate/homes/ad.html?finnkode=261148125","ad_type":1,"energy_label":4,"from_year":1990,"lat":59.92442,"local_area_name":"FROGNER","lon":10.70872,"number_of_bedrooms":2,"owner_type_description":"Eier (Selveier)","property_type_description":"Leilighet","size_from":127,"to_year":1990,"type":"realestate"},{"Location":"Stasjonsveien 71, Oslo","ad_id":260425594,"ad_link":"https://www.finn.no/realestate/homes/ad.html?finnkode=260425594","ad_type":1,"energy_label":4,"from_year":1990,"lat":59.9467,"local_area_name":"Husebyhagen","lon":10.6538,"number_of_bedrooms":1,"owner_type_description":"Eier (Selveier)","property_type_description":"Leilighet","size_from":55,"to_year":1990,"type":"realestate"},{"Location":"Lysehagan 50, Oslo","ad_id":259610053,"ad_link":"https://www.finn.no/realestate/homes/ad.html?finnkode=259610053","ad_type":1,"energy_label":4,"from_year":1990,"lat":59.9266,"local_area_name":null,"lon":10.6298,"number_of_bedrooms":1,"owner_type_description":"Andel","property_type_description":"Leilighet","size_from":58,"to_year":1990,"type":"realestate"},{"Location":"Høstmælingsvegen 36, Lillehammer","ad_id":260648489,"ad_link":"https://www.finn.no/realestate/homes/ad.html?finnkode=260648489","ad_type":1,"energy_label":4,"from_year":1990,"lat":61.1002,"local_area_name":"Høstmælingen","lon":10.5006,"number_of_bedrooms":5,"owner_type_description":"Eier (Selveier)","property_type_description":"Enebolig","size_from":217,"to_year":1990,"type":"realestate"},{"Location":"Blidensol 1, Sandnes","ad_id":260787019,"ad_link":"https://www.finn.no/realestate/homes/ad.html?finnkode=260787019","ad_type":1,"energy_label":4,"from_year":1990,"lat":58.8341,"local_area_name":"Åsedalen/Ganddal","lon":5.7188,"number_of_bedrooms":1,"owner_type_description":"Andel","property_type_description":"Leilighet","size_from":54,"to_year":1990,"type":"realestate"},{"Location":"Moveien 57C, Sandefjord","ad_id":260764214,"ad_link":"https://www.finn.no/realestate/homes/ad.html?finnkode=260764214","ad_type":1,"energy_label":4,"from_year":1990,"lat":59.1437,"local_area_name":null,"lon":10.1985,"number_of_bedrooms":3,"owner_type_description":"Eier (Selveier)","property_type_description":"Enebolig","size_from":142,"to_year":1990,"type":"realestate"},{"Location":"Høivold brygge 14, Kristiansand S","ad_id":260651163,"ad_link":"https://www.finn.no/realestate/homes/ad.html?finnkode=260651163","ad_type":1,"energy_label":4,"from_year":1990,"lat":58.1481,"local_area_name":"HØIVOLD BRYGGE","lon":8.0129,"number_of_bedrooms":2,"owner_type_description":"Eier (Selveier)","property_type_description":"Leilighet","size_from":78,"to_year":1990,"type":"realestate"},{"Location":"Stadionveien 9, Laksevåg","ad_id":260617534,"ad_link":"https://www.finn.no/realestate/homes/ad.html?finnkode=260617534","ad_type":1,"energy_label":4,"from_year":1990,"lat":60.3842,"local_area_name":null,"lon":5.2995,"number_of_bedrooms":1,"owner_type_description":"Andel","property_type_description":"Leilighet","size_from":59,"to_year":1990,"type":"realestate"},{"Location":"Birkenlundveien 14C, Arendal","ad_id":260654550,"ad_link":"https://www.finn.no/realestate/homes/ad.html?finnkode=260654550","ad_type":1,"energy_label":4,"from_year":1990,"lat":58.47319,"local_area_name":null,"lon":8.79433,"number_of_bedrooms":2,"owner_type_description":"Eier (Selveier)","property_type_description":"Rekkehus","size_from":102,"to_year":1990,"type":"realestate"},{"Location":"Magnus' gate 8, Oslo","ad_id":254982974,"ad_link":"https://www.finn.no/realestate/homes/ad.html?finnkode=254982974","ad_type":1,"energy_label":4,"from_year":1990,"lat":59.91185,"local_area_name":"TØYEN","lon":10.7738,"number_of_bedrooms":1,"owner_type_description":"Eier (Selveier)","property_type_description":"Leilighet","size_from":52,"to_year":1990,"type":"realestate"},{"Location":"Snekkergata 4A, Mjøndalen","ad_id":260511764,"ad_link":"https://www.finn.no/realestate/homes/ad.html?finnkode=260511764","ad_type":1,"energy_label":4,"from_year":1990,"lat":59.7479,"local_area_name":"MJØNDALEN","lon":10.0181,"number_of_bedrooms":1,"owner_type_description":"Eier (Selveier)","property_type_description":"Leilighet","size_from":69,"to_year":1990,"type":"realestate"},{"Location":"Per Sivles veg 2B, Kopervik","ad_id":260533431,"ad_link":"https://www.finn.no/realestate/homes/ad.html?finnkode=260533431","ad_type":1,"energy_label":4,"from_year":1990,"lat":59.2871,"local_area_name":null,"lon":5.3089,"number_of_bedrooms":2,"owner_type_description":"Eier (Selveier)","property_type_description":"Enebolig","size_from":93,"to_year":1990,"type":"realestate"},{"Location":"Ertenvågveien 6, Nygårdsjøen","ad_id":259756659,"ad_link":"https://www.finn.no/realestate/homes/ad.html?finnkode=259756659","ad_type":1,"energy_label":4,"from_year":1990,"lat":67.1236,"local_area_name":"Nygårdsjøen","lon":14.3217,"number_of_bedrooms":5,"owner_type_description":"Eier (Selveier)","property_type_description":"Enebolig","size_from":178,"to_year":1990,"type":"realestate"},{"Location":"Ankerveien 40A, Oslo","ad_id":260321305,"ad_link":"https://www.finn.no/realestate/homes/ad.html?finnkode=260321305","ad_type":1,"energy_label":4,"from_year":1990,"lat":59.95608,"local_area_name":"Holmenkollen","lon":10.66271,"number_of_bedrooms":2,"owner_type_description":"Eier (Selveier)","property_type_description":"Leilighet","size_from":105,"to_year":1990,"type":"realestate"},{"Location":"Grüners gate 13, Oslo","ad_id":260033702,"ad_link":"https://www.finn.no/realestate/homes/ad.html?finnkode=260033702","ad_type":1,"energy_label":4,"from_year":1990,"lat":59.9233,"local_area_name":"BESTE GRÜNERLØKKA","lon":10.7604,"number_of_bedrooms":2,"owner_type_description":"Eier (Selveier)","property_type_description":"Leilighet","size_from":60,"to_year":1990,"type":"realestate"},{"Location":"Erlandsbakken 6, Bryne","ad_id":260042949,"ad_link":"https://www.finn.no/realestate/homes/ad.html?finnkode=260042949","ad_type":1,"energy_label":4,"from_year":1990,"lat":58.73488,"local_area_name":"Bryne sentrum","lon":5.64646,"number_of_bedrooms":2,"owner_type_description":"Eier (Selveier)","property_type_description":"Leilighet","size_from":62,"to_year":1990,"type":"realestate"},{"Location":"Eiganesveien 174, Stavanger","ad_id":260031628,"ad_link":"https://www.finn.no/realestate/homes/ad.html?finnkode=260031628","ad_type":1,"energy_label":4,"from_year":1990,"lat":58.9575,"local_area_name":"Eiganes","lon":5.7012,"number_of_bedrooms":2,"owner_type_description":"Eier (Selveier)","property_type_description":"Leilighet","size_from":101,"to_year":1990,"type":"realestate"},{"Location":"Jakobsbråtan 15B, Fjerdingby","ad_id":260014800,"ad_link":"https://www.finn.no/realestate/homes/ad.html?finnkode=260014800","ad_type":1,"energy_label":4,"from_year":1990,"lat":59.90391,"local_area_name":"Smestad/Fjerdingby","lon":11.09393,"number_of_bedrooms":2,"owner_type_description":"Eier (Selveier)","property_type_description":"Leilighet","size_from":73,"to_year":1990,"type":"realestate"},{"Location":"Birkeveien 25B, Bergen","ad_id":259781341,"ad_link":"https://www.finn.no/realestate/homes/ad.html?finnkode=259781341","ad_type":1,"energy_label":4,"from_year":1990,"lat":60.36314,"local_area_name":"Landås","lon":5.36264,"number_of_bedrooms":3,"owner_type_description":"Eier (Selveier)","property_type_description":"Leilighet","size_from":89,"to_year":1990,"type":"realestate"},{"Location":"Slåttebråtan 13, Tranby","ad_id":257175353,"ad_link":"https://www.finn.no/realestate/homes/ad.html?finnkode=257175353","ad_type":1,"energy_label":4,"from_year":1990,"lat":59.8257,"local_area_name":"Tranby","lon":10.2791,"number_of_bedrooms":5,"owner_type_description":"Eier (Selveier)","property_type_description":"Enebolig","size_from":189,"to_year":1990,"type":"realestate"},{"Location":"Vestavinden 22, Tromsø","ad_id":259636164,"ad_link":"https://www.finn.no/realestate/homes/ad.html?finnkode=259636164","ad_type":1,"energy_label":4,"from_year":1990,"lat":69.6713,"local_area_name":"Workinnmarka - Bo i nord","lon":18.9336,"number_of_bedrooms":3,"owner_type_description":"Eier (Selveier)","property_type_description":"Rekkehus","size_from":97,"to_year":1990,"type":"realestate"},{"Location":"Rimsoppfaret 47, Rasta","ad_id":259277432,"ad_link":"https://www.finn.no/realestate/homes/ad.html?finnkode=259277432","ad_type":1,"energy_label":4,"from_year":1990,"lat":59.91121,"local_area_name":"VALLERUDBAKKEN","lon":10.94455,"number_of_bedrooms":4,"owner_type_description":"Andel","property_type_description":"Rekkehus","size_from":125,"to_year":1990,"type":"realestate"},{"Location":"Tangenveien 77, Nesoddtangen","ad_id":258971687,"ad_link":"https://www.finn.no/realestate/homes/ad.html?finnkode=258971687","ad_type":1,"energy_label":4,"from_year":1990,"lat":59.8639,"local_area_name":"NESODDTANGEN","lon":10.6615,"number_of_bedrooms":5,"owner_type_description":"Eier (Selveier)","property_type_description":"Enebolig","size_from":153,"to_year":1990,"type":"realestate"},{"Location":"Øygardsveien 175, Sandnes","ad_id":258989702,"ad_link":"https://www.finn.no/realestate/homes/ad.html?finnkode=258989702","ad_type":1,"energy_label":4,"from_year":1990,"lat":58.8444,"local_area_name":"Austrått","lon":5.7571,"number_of_bedrooms":3,"owner_type_description":"Eier (Selveier)","property_type_description":"Leilighet","size_from":71,"to_year":1990,"type":"realestate"},{"Location":"Bøbakken 52, Sandefjord","ad_id":258745858,"ad_link":"https://www.finn.no/realestate/homes/ad.html?finnkode=258745858","ad_type":1,"energy_label":4,"from_year":1990,"lat":59.1457,"local_area_name":"Haukerød/Lasken","lon":10.1775,"number_of_bedrooms":4,"owner_type_description":"Eier (Selveier)","property_type_description":"Enebolig","size_from":189,"to_year":1990,"type":"realestate"},{"Location":"Flyplassvegen 108, Skien","ad_id":257229702,"ad_link":"https://www.finn.no/realestate/homes/ad.html?finnkode=257229702","ad_type":1,"energy_label":4,"from_year":1990,"lat":59.1831,"local_area_name":"SKIEN - GEITERYGGEN","lon":9.5599,"number_of_bedrooms":7,"owner_type_description":"Eier (Selveier)","property_type_description":"Enebolig","size_from":493,"to_year":1990,"type":"realestate"},{"Location":"Øygardsveien 165, Sandnes","ad_id":256164722,"ad_link":"https://www.finn.no/realestate/homes/ad.html?finnkode=256164722","ad_type":1,"energy_label":4,"from_year":1990,"lat":58.84447,"local_area_name":null,"lon":5.75678,"number_of_bedrooms":3,"owner_type_description":"Eier (Selveier)","property_type_description":"Leilighet","size_from":70,"to_year":1990,"type":"realestate"},{"Location":"Veverbakken 131, Moss","ad_id":248932049,"ad_link":"https://www.finn.no/realestate/homes/ad.html?finnkode=248932049","ad_type":1,"energy_label":4,"from_year":1990,"lat":59.46649,"local_area_name":null,"lon":10.69688,"number_of_bedrooms":5,"owner_type_description":"Eier (Selveier)","property_type_description":"Enebolig","size_from":319,"to_year":1990,"type":"realestate"},{"Location":"Gammelvegen 37, Namdalseid","ad_id":242614708,"ad_link":"https://www.finn.no/realestate/homes/ad.html?finnkode=242614708","ad_type":1,"energy_label":4,"from_year":1990,"lat":64.30718,"local_area_name":"Sjøåsen","lon":11.22589,"number_of_bedrooms":4,"owner_type_description":"Eier (Selveier)","property_type_description":"Enebolig","size_from":121,"to_year":1990,"type":"realestate"}]