[{"Location":"Liaveien 168, Tennevoll","ad_id":261318640,"ad_link":"https://www.finn.no/realestate/homes/ad.html?finnkode=261318640","ad_type":1,"energy_label":7,"from_year":1957,"lat":68.78658,"local_area_name":null,"lon":17.77731,"number_of_bedrooms":3,"owner_type_description":"Eier (Selveier)","property_type_description":"Enebolig","size_from":162,"to_year":1957,"type":"realestate"},{"Location":"Dalevegen 67, Stranda","ad_id":261342278,"ad_link":"https://www.finn.no/realestate/homes/ad.html?finnkode=261342278","ad_type":1,"energy_label":7,"from_year":1957,"lat":62.305,"local_area_name":"Stranda | Ringstadmarka","lon":6.9132,"number_of_bedrooms":4,"owner_type_description":"Eier (Selveier)","property_type_description":"Enebolig","size_from":154,"to_year":1957,"type":"realestate"},{"Location":"Harry Borthens vei 10 B, Trondheim","ad_id":260887566,"ad_link":"https://www.finn.no/realestate/homes/ad.html?finnkode=260887566","ad_type":1,"energy_label":7,"from_year":1957,"lat":63.45367,"local_area_name":"Lade","lon":10.44466,"number_of_bedrooms":0,"owner_type_description":"Aksje","property_type_description":"Leilighet","size_from":39,"to_year":1957,"type":"realestate"},{"Location":"Nordsetvegen 77, Raufoss","ad_id":260901264,"ad_link":"https://www.finn.no/realestate/homes/ad.html?finnkode=260901264","ad_type":1,"energy_label":7,"from_year":1957,"lat":60.7152,"local_area_name":null,"lon":10.6455,"number_of_bedrooms":3,"owner_type_description":"Eier (Selveier)","property_type_description":"Enebolig","size_from":134,"to_year":1957,"type":"realestate"},{"Location":"Enerveien 1B, Nesoddtangen","ad_id":258643851,"ad_link":"https://www.finn.no/realestate/homes/ad.html?finnkode=258643851","ad_type":1,"energy_label":7,"from_year":1957,"lat":59.85926,"local_area_name":"Nesoddtangen","lon":10.66308,"number_of_bedrooms":3,"owner_type_description":"Andel","property_type_description":"Rekkehus","size_from":121,"to_year":1957,"type":"realestate"},{"Location":"Holmliveien 8, Oslo","ad_id":260891566,"ad_link":"https://www.finn.no/realestate/homes/ad.html?finnkode=260891566","ad_type":1,"energy_label":7,"from_year":1957,"lat":59.8327,"local_area_name":"Holmlia","lon":10.7951,"number_of_bedrooms":3,"owner_type_description":"Eier (Selveier)","property_type_description":"Leilighet","size_from":69,"to_year":1957,"type":"realestate"},{"Location":"Enebakkveien 280A, Oslo","ad_id":254515951,"ad_link":"https://www.finn.no/realestate/homes/ad.html?finnkode=254515951","ad_type":1,"energy_label":7,"from_year":1957,"lat":59.87633,"local_area_name":"#Abildsø/Langerud","lon":10.82871,"number_of_bedrooms":2,"owner_type_description":"Aksje","property_type_description":"Leilighet","size_from":63,"to_year":1957,"type":"realestate"},{"Location":"Dyre Vås gate 11, Notodden","ad_id":260619252,"ad_link":"https://www.finn.no/realestate/homes/ad.html?finnkode=260619252","ad_type":1,"energy_label":7,"from_year":1957,"lat":59.5538,"local_area_name":"Tveiten","lon":9.2819,"number_of_bedrooms":3,"owner_type_description":"Eier (Selveier)","property_type_description":"Enebolig","size_from":126,"to_year":1957,"type":"realestate"},{"Location":"Seljevegen 10, Kongsvinger","ad_id":260914359,"ad_link":"https://www.finn.no/realestate/homes/ad.html?finnkode=260914359","ad_type":1,"energy_label":7,"from_year":1957,"lat":60.20516,"local_area_name":"Glåmlia","lon":12.01144,"number_of_bedrooms":2,"owner_type_description":"Eier (Selveier)","property_type_description":"Enebolig","size_from":81,"to_year":1957,"type":"realestate"},{"Location":"Alfred Skaiåsveg 1, Evje","ad_id":260874741,"ad_link":"https://www.finn.no/realestate/homes/ad.html?finnkode=260874741","ad_type":1,"energy_label":7,"from_year":1957,"lat":58.58959,"local_area_name":null,"lon":7.79856,"number_of_bedrooms":3,"owner_type_description":"Eier (Selveier)","property_type_description":"Enebolig","size_from":118,"to_year":1957,"type":"realestate"},{"Location":"Store Landfall øvre 105B, Drammen","ad_id":260664970,"ad_link":"https://www.finn.no/realestate/homes/ad.html?finnkode=260664970","ad_type":1,"energy_label":7,"from_year":1957,"lat":59.7578,"local_area_name":"Åssiden","lon":10.1414,"number_of_bedrooms":3,"owner_type_description":"Eier (Selveier)","property_type_description":"Rekkehus","size_from":108,"to_year":1957,"type":"realestate"},{"Location":"Åslandsbakken 41, Figgjo","ad_id":260542876,"ad_link":"https://www.finn.no/realestate/homes/ad.html?finnkode=260542876","ad_type":1,"energy_label":7,"from_year":1957,"lat":58.787,"local_area_name":"Figgjo","lon":5.8016,"number_of_bedrooms":3,"owner_type_description":"Eier (Selveier)","property_type_description":"Enebolig","size_from":149,"to_year":1957,"type":"realestate"},{"Location":"Rådmannsvegen 10A, Trondheim","ad_id":260701711,"ad_link":"https://www.finn.no/realestate/homes/ad.html?finnkode=260701711","ad_type":1,"energy_label":7,"from_year":1957,"lat":63.39662,"local_area_name":"HALLSET","lon":10.37263,"number_of_bedrooms":3,"owner_type_description":"Eier (Selveier)","property_type_description":"Tomannsbolig","size_from":125,"to_year":1957,"type":"realestate"},{"Location":"Fridtjof Nansens vei 19, Mandal","ad_id":260670256,"ad_link":"https://www.finn.no/realestate/homes/ad.html?finnkode=260670256","ad_type":1,"energy_label":7,"from_year":1957,"lat":58.0268,"local_area_name":"Vestnes","lon":7.4446,"number_of_bedrooms":3,"owner_type_description":"Eier (Selveier)","property_type_description":"Enebolig","size_from":156,"to_year":1957,"type":"realestate"},{"Location":"Sandsgata 3, Haugesund","ad_id":260664708,"ad_link":"https://www.finn.no/realestate/homes/ad.html?finnkode=260664708","ad_type":1,"energy_label":7,"from_year":1957,"lat":59.41347,"local_area_name":"Sørhaug","lon":5.28362,"number_of_bedrooms":4,"owner_type_description":"Eier (Selveier)","property_type_description":"Enebolig","size_from":140,"to_year":1957,"type":"realestate"},{"Location":"Rismyrbakken 2, Hernes","ad_id":260524611,"ad_link":"https://www.finn.no/realestate/homes/ad.html?finnkode=260524611","ad_type":1,"energy_label":7,"from_year":1957,"lat":60.998,"local_area_name":null,"lon":11.7036,"number_of_bedrooms":3,"owner_type_description":"Eier (Selveier)","property_type_description":"Enebolig","size_from":131,"to_year":1957,"type":"realestate"},{"Location":"Hundbuvegen 176, Arneberg","ad_id":260588199,"ad_link":"https://www.finn.no/realestate/homes/ad.html?finnkode=260588199","ad_type":1,"energy_label":7,"from_year":1957,"lat":60.51204,"local_area_name":null,"lon":12.03994,"number_of_bedrooms":0,"owner_type_description":"Eier (Selveier)","property_type_description":"Gårdsbruk/Småbruk","size_from":220,"to_year":1957,"type":"realestate"},{"Location":"Nedre Stranda 41, Moi","ad_id":192744751,"ad_link":"https://www.finn.no/realestate/homes/ad.html?finnkode=192744751","ad_type":1,"energy_label":7,"from_year":1957,"lat":58.4522,"local_area_name":"Moi","lon":6.5555,"number_of_bedrooms":3,"owner_type_description":"Eier (Selveier)","property_type_description":"Enebolig","size_from":99,"to_year":1957,"type":"realestate"},{"Location":"Gråsteinveien 1, Oslo","ad_id":260509748,"ad_link":"https://www.finn.no/realestate/homes/ad.html?finnkode=260509748","ad_type":1,"energy_label":7,"from_year":1957,"lat":59.86968,"local_area_name":"LAMBERTSETER","lon":10.81664,"number_of_bedrooms":1,"owner_type_description":"Andel","property_type_description":"Leilighet","size_from":61,"to_year":1957,"type":"realestate"},{"Location":"Konows gate 8 A, Oslo","ad_id":260451012,"ad_link":"https://www.finn.no/realestate/homes/ad.html?finnkode=260451012","ad_type":1,"energy_label":7,"from_year":1957,"lat":59.90255,"local_area_name":"NYE GAMLEBYEN","lon":10.77247,"number_of_bedrooms":1,"owner_type_description":"Andel","property_type_description":"Leilighet","size_from":33,"to_year":1957,"type":"realestate"},{"Location":"Vollsveien 226, Eiksmarka","ad_id":258351249,"ad_link":"https://www.finn.no/realestate/homes/ad.html?finnkode=258351249","ad_type":1,"energy_label":7,"from_year":1957,"lat":59.94833,"local_area_name":"EIKSMARKA","lon":10.62803,"number_of_bedrooms":4,"owner_type_description":"Eier (Selveier)","property_type_description":"Tomannsbolig","size_from":166,"to_year":1957,"type":"realestate"},{"Location":"Søreisvegen 32, Aurdal","ad_id":260388609,"ad_link":"https://www.finn.no/realestate/homes/ad.html?finnkode=260388609","ad_type":1,"energy_label":7,"from_year":1957,"lat":60.91931,"local_area_name":"Aurdal","lon":9.42029,"number_of_bedrooms":3,"owner_type_description":"Eier (Selveier)","property_type_description":"Enebolig","size_from":142,"to_year":1957,"type":"realestate"},{"Location":"Hellvikstrand 13, Nesodden","ad_id":260062828,"ad_link":"https://www.finn.no/realestate/homes/ad.html?finnkode=260062828","ad_type":1,"energy_label":7,"from_year":1957,"lat":59.8431,"local_area_name":"Hellvik","lon":10.691,"number_of_bedrooms":2,"owner_type_description":"Eier (Selveier)","property_type_description":"Enebolig","size_from":128,"to_year":1957,"type":"realestate"},{"Location":"Kollenveien 7, Drammen","ad_id":260126735,"ad_link":"https://www.finn.no/realestate/homes/ad.html?finnkode=260126735","ad_type":1,"energy_label":7,"from_year":1957,"lat":59.73315,"local_area_name":null,"lon":10.18414,"number_of_bedrooms":3,"owner_type_description":"Eier (Selveier)","property_type_description":"Tomannsbolig","size_from":122,"to_year":1957,"type":"realestate"},{"Location":"Kirkeveien 52, Reine","ad_id":260066254,"ad_link":"https://www.finn.no/realestate/homes/ad.html?finnkode=260066254","ad_type":1,"energy_label":7,"from_year":1957,"lat":67.93351,"local_area_name":"Reine / Lofoten","lon":13.08732,"number_of_bedrooms":6,"owner_type_description":"Eier (Selveier)","property_type_description":"Enebolig","size_from":191,"to_year":1957,"type":"realestate"},{"Location":"Bernervegen 165, Nærbø","ad_id":259951191,"ad_link":"https://www.finn.no/realestate/homes/ad.html?finnkode=259951191","ad_type":1,"energy_label":7,"from_year":1957,"lat":58.6734,"local_area_name":"Nærbø","lon":5.626,"number_of_bedrooms":3,"owner_type_description":"Eier (Selveier)","property_type_description":"Enebolig","size_from":117,"to_year":1957,"type":"realestate"},{"Location":"Engerjordet 58, Blommenholm","ad_id":260064733,"ad_link":"https://www.finn.no/realestate/homes/ad.html?finnkode=260064733","ad_type":1,"energy_label":7,"from_year":1957,"lat":59.90109,"local_area_name":"BLOMMENHOLM / ENGERJORDET","lon":10.54724,"number_of_bedrooms":4,"owner_type_description":"Eier (Selveier)","property_type_description":"Rekkehus","size_from":164,"to_year":1957,"type":"realestate"},{"Location":"Risdalsveien 585, Risdal","ad_id":260037887,"ad_link":"https://www.finn.no/realestate/homes/ad.html?finnkode=260037887","ad_type":1,"energy_label":7,"from_year":1957,"lat":58.67306,"local_area_name":null,"lon":8.1489,"number_of_bedrooms":3,"owner_type_description":"Eier (Selveier)","property_type_description":"Enebolig","size_from":97,"to_year":1957,"type":"realestate"},{"Location":"Buskerudveien 229, Åmot","ad_id":260037498,"ad_link":"https://www.finn.no/realestate/homes/ad.html?finnkode=260037498","ad_type":1,"energy_label":7,"from_year":1957,"lat":59.8905,"local_area_name":"Åmot","lon":9.8854,"number_of_bedrooms":1,"owner_type_description":"Eier (Selveier)","property_type_description":"Enebolig","size_from":113,"to_year":1957,"type":"realestate"},{"Location":"Skiferbakken 6, Kvernaland","ad_id":242380299,"ad_link":"https://www.finn.no/realestate/homes/ad.html?finnkode=242380299","ad_type":1,"energy_label":7,"from_year":1957,"lat":58.78405,"local_area_name":"KVERNALAND","lon":5.72436,"number_of_bedrooms":2,"owner_type_description":"Eier (Selveier)","property_type_description":"Enebolig","size_from":115,"to_year":1957,"type":"realestate"},{"Location":"Riplegården 28, Laksevåg","ad_id":259738164,"ad_link":"https://www.finn.no/realestate/homes/ad.html?finnkode=259738164","ad_type":1,"energy_label":7,"from_year":1957,"lat":60.37649,"local_area_name":"Laksevåg","lon":5.30677,"number_of_bedrooms":2,"owner_type_description":"Andel","property_type_description":"Leilighet","size_from":75,"to_year":1957,"type":"realestate"},{"Location":"Hovedveien 70A, Nordvågen","ad_id":259621826,"ad_link":"https://www.finn.no/realestate/homes/ad.html?finnkode=259621826","ad_type":1,"energy_label":7,"from_year":1957,"lat":70.9828,"local_area_name":null,"lon":26.03197,"number_of_bedrooms":4,"owner_type_description":"Eier (Selveier)","property_type_description":"Rekkehus","size_from":121,"to_year":1957,"type":"realestate"},{"Location":"Eikebergveien 189, Aurskog","ad_id":259522071,"ad_link":"https://www.finn.no/realestate/homes/ad.html?finnkode=259522071","ad_type":1,"energy_label":7,"from_year":1957,"lat":59.9371,"local_area_name":"Aurskog","lon":11.375,"number_of_bedrooms":5,"owner_type_description":"Eier (Selveier)","property_type_description":"Enebolig","size_from":143,"to_year":1957,"type":"realestate"},{"Location":"Bølevegen 133B, Skien","ad_id":259545200,"ad_link":"https://www.finn.no/realestate/homes/ad.html?finnkode=259545200","ad_type":1,"energy_label":7,"from_year":1957,"lat":59.1824,"local_area_name":"Skien - Bøle","lon":9.6308,"number_of_bedrooms":1,"owner_type_description":"Eier (Selveier)","property_type_description":"Leilighet","size_from":100,"to_year":1957,"type":"realestate"},{"Location":"Ibsens gate 1, Sandnessjøen","ad_id":259472468,"ad_link":"https://www.finn.no/realestate/homes/ad.html?finnkode=259472468","ad_type":1,"energy_label":7,"from_year":1957,"lat":66.01721,"local_area_name":null,"lon":12.6051,"number_of_bedrooms":4,"owner_type_description":"Eier (Selveier)","property_type_description":"Enebolig","size_from":247,"to_year":1957,"type":"realestate"},{"Location":"Grødemveien 78B, Randaberg","ad_id":259092568,"ad_link":"https://www.finn.no/realestate/homes/ad.html?finnkode=259092568","ad_type":1,"energy_label":7,"from_year":1957,"lat":58.99844,"local_area_name":"Grødem","lon":5.65289,"number_of_bedrooms":4,"owner_type_description":"Eier (Selveier)","property_type_description":"Enebolig","size_from":240,"to_year":1957,"type":"realestate"},{"Location":"Gamle Åsvei 14A, Ski","ad_id":259023827,"ad_link":"https://www.finn.no/realestate/homes/ad.html?finnkode=259023827","ad_type":1,"energy_label":7,"from_year":1957,"lat":59.71113,"local_area_name":null,"lon":10.83416,"number_of_bedrooms":5,"owner_type_description":"Eier (Selveier)","property_type_description":"Enebolig","size_from":275,"to_year":1957,"type":"realestate"},{"Location":"Hermanrudsvingen 35, Kapp","ad_id":258369073,"ad_link":"https://www.finn.no/realestate/homes/ad.html?finnkode=258369073","ad_type":1,"energy_label":7,"from_year":1957,"lat":60.72052,"local_area_name":null,"lon":10.82036,"number_of_bedrooms":3,"owner_type_description":"Eier (Selveier)","property_type_description":"Enebolig","size_from":91,"to_year":1957,"type":"realestate"},{"Location":"Håreks gate 49A, Narvik","ad_id":258211655,"ad_link":"https://www.finn.no/realestate/homes/ad.html?finnkode=258211655","ad_type":1,"energy_label":7,"from_year":1957,"lat":68.43729,"local_area_name":null,"lon":17.42993,"number_of_bedrooms":2,"owner_type_description":"Eier (Selveier)","property_type_description":"Rekkehus","size_from":135,"to_year":1957,"type":"realestate"},{"Location":"Børstadalleen 3C, Hamar","ad_id":258210956,"ad_link":"https://www.finn.no/realestate/homes/ad.html?finnkode=258210956","ad_type":1,"energy_label":7,"from_year":1957,"lat":60.80416,"local_area_name":"BØRSTAD","lon":11.08339,"number_of_bedrooms":2,"owner_type_description":"Andel","property_type_description":"Leilighet","size_from":63,"to_year":1957,"type":"realestate"},{"Location":"Sjøvegen 4, Skodje","ad_id":256424416,"ad_link":"https://www.finn.no/realestate/homes/ad.html?finnkode=256424416","ad_type":1,"energy_label":7,"from_year":1957,"lat":62.50304,"local_area_name":"Skodje","lon":6.69572,"number_of_bedrooms":9,"owner_type_description":"Eier (Selveier)","property_type_description":"Andre","size_from":409,"to_year":1957,"type":"realestate"},{"Location":"Holger Fangels vei 21, Bleikvasslia","ad_id":255306414,"ad_link":"https://www.finn.no/realestate/homes/ad.html?finnkode=255306414","ad_type":1,"energy_label":7,"from_year":1957,"lat":65.91925,"local_area_name":null,"lon":13.87439,"number_of_bedrooms":3,"owner_type_description":"Eier (Selveier)","property_type_description":"Tomannsbolig","size_from":76,"to_year":1957,"type":"realestate"},{"Location":"Rimstaddalen 117, Bryggja","ad_id":201927116,"ad_link":"https://www.finn.no/realestate/homes/ad.html?finnkode=201927116","ad_type":1,"energy_label":7,"from_year":1957,"lat":61.9529,"local_area_name":"BRYGGJA","lon":5.4072,"number_of_bedrooms":5,"owner_type_description":"Eier (Selveier)","property_type_description":"Enebolig","size_from":101,"to_year":1957,"type":"realestate"},{"Location":"Krystallvegen 2, Lødingen","ad_id":253980591,"ad_link":"https://www.finn.no/realestate/homes/ad.html?finnkode=253980591","ad_type":1,"energy_label":7,"from_year":1957,"lat":68.41149,"local_area_name":"LØDINGEN SENTRALT","lon":15.98807,"number_of_bedrooms":3,"owner_type_description":"Eier (Selveier)","property_type_description":"Enebolig","size_from":148,"to_year":1957,"type":"realestate"},{"Location":"Steinshamnvegen 127/129, Harøy","ad_id":254067247,"ad_link":"https://www.finn.no/realestate/homes/ad.html?finnkode=254067247","ad_type":1,"energy_label":7,"from_year":1957,"lat":62.7829,"local_area_name":"Harøya","lon":6.4704,"number_of_bedrooms":5,"owner_type_description":"Eier (Selveier)","property_type_description":"Enebolig","size_from":175,"to_year":1957,"type":"realestate"},{"Location":"ST OLAVS GATE 146, Harstad","ad_id":253737801,"ad_link":"https://www.finn.no/realestate/homes/ad.html?finnkode=253737801","ad_type":1,"energy_label":7,"from_year":1957,"lat":68.7873,"local_area_name":null,"lon":16.52835,"number_of_bedrooms":3,"owner_type_description":"Eier (Selveier)","property_type_description":"Enebolig","size_from":151,"to_year":1957,"type":"realestate"},{"Location":"Skogveien 841, Nordkjosbotn","ad_id":252317519,"ad_link":"https://www.finn.no/realestate/homes/ad.html?finnkode=252317519","ad_type":1,"energy_label":7,"from_year":1957,"lat":69.1912,"local_area_name":"Ruud","lon":19.7264,"number_of_bedrooms":4,"owner_type_description":"Eier (Selveier)","property_type_description":"Enebolig","size_from":90,"to_year":1957,"type":"realestate"},{"Location":"Siljanvegen 145, Skien","ad_id":250233907,"ad_link":"https://www.finn.no/realestate/homes/ad.html?finnkode=250233907","ad_type":1,"energy_label":7,"from_year":1957,"lat":59.2386,"local_area_name":"Åmot","lon":9.6366,"number_of_bedrooms":2,"owner_type_description":"Eier (Selveier)","property_type_description":"Enebolig","size_from":259,"to_year":1957,"type":"realestate"},{"Location":"Sagafossveien 35, Notodden","ad_id":236198375,"ad_link":"https://www.finn.no/realestate/homes/ad.html?finnkode=236198375","ad_type":1,"energy_label":7,"from_year":1957,"lat":59.57403,"local_area_name":"Notodden","lon":9.2613,"number_of_bedrooms":6,"owner_type_description":"Eier (Selveier)","property_type_description":"Tomannsbolig","size_from":250,"to_year":1957,"type":"realestate"},{"Location":"Lynveien 1, Rena","ad_id":226441093,"ad_link":"https://www.finn.no/realestate/homes/ad.html?finnkode=226441093","ad_type":1,"energy_label":7,"from_year":1957,"lat":61.12959,"local_area_name":null,"lon":11.35954,"number_of_bedrooms":3,"owner_type_description":"Eier (Selveier)","property_type_description":"Enebolig","size_from":133,"to_year":1957,"type":"realestate"},{"Location":"Børrudvegen 261, Tobøl","ad_id":239125509,"ad_link":"https://www.finn.no/realestate/homes/ad.html?finnkode=239125509","ad_type":1,"energy_label":7,"from_year":1957,"lat":59.9806,"local_area_name":"Børrud","lon":12.0655,"number_of_bedrooms":2,"owner_type_description":"Eier (Selveier)","property_type_description":"Enebolig","size_from":92,"to_year":1957,"type":"realestate"},{"Location":"LAUVGARDSVEGEN 6 A, Dalekvam","ad_id":238480689,"ad_link":"https://www.finn.no/realestate/homes/ad.html?finnkode=238480689","ad_type":1,"energy_label":7,"from_year":1957,"lat":60.59093,"local_area_name":null,"lon":5.81987,"number_of_bedrooms":2,"owner_type_description":"Eier (Selveier)","property_type_description":"Leilighet","size_from":93,"to_year":1957,"type":"realestate"},{"Location":"Øvergata 7, Honningsvåg","ad_id":184875411,"ad_link":"https://www.finn.no/realestate/homes/ad.html?finnkode=184875411","ad_type":1,"energy_label":7,"from_year":1957,"lat":70.98193,"local_area_name":"Honningsvåg sentrum","lon":25.97436,"number_of_bedrooms":6,"owner_type_description":"Eier (Selveier)","property_type_description":"Tomannsbolig","size_from":247,"to_year":1957,"type":"realestate"},{"Location":"HOPSVEIEN 31, Kabelvåg","ad_id":225571402,"ad_link":"https://www.finn.no/realestate/homes/ad.html?finnkode=225571402","ad_type":1,"energy_label":7,"from_year":1957,"lat":68.19528,"local_area_name":null,"lon":14.34709,"number_of_bedrooms":4,"owner_type_description":"Eier (Selveier)","property_type_description":"Enebolig","size_from":133,"to_year":1957,"type":"realestate"},{"Location":"Slåttemarkveien 32, Lundenes","ad_id":216664822,"ad_link":"https://www.finn.no/realestate/homes/ad.html?finnkode=216664822","ad_type":1,"energy_label":7,"from_year":1957,"lat":68.88696,"local_area_name":null,"lon":16.59704,"number_of_bedrooms":6,"owner_type_description":"Eier (Selveier)","property_type_description":"Enebolig","size_from":176,"to_year":1957,"type":"realestate"},{"Location":"Bergstien 16E, Vadsø","ad_id":172307716,"ad_link":"https://www.finn.no/realestate/homes/ad.html?finnkode=172307716","ad_type":1,"energy_label":7,"from_year":1957,"lat":70.07659,"local_area_name":null,"lon":29.76935,"number_of_bedrooms":2,"owner_type_description":"Andel","property_type_description":"Leilighet","size_from":87,"to_year":1957,"type":"realestate"},{"Location":"Damsveien 37C, Vadsø","ad_id":133899732,"ad_link":"https://www.finn.no/realestate/homes/ad.html?finnkode=133899732","ad_type":1,"energy_label":7,"from_year":1957,"lat":70.07768,"local_area_name":null,"lon":29.73382,"number_of_bedrooms":3,"owner_type_description":"Andel","property_type_description":"Leilighet","size_from":105,"to_year":1957,"type":"realestate"}]