[{"Location":"Marcus Thranes gate 13, Oslo","ad_id":258183537,"ad_link":"https://www.finn.no/realestate/homes/ad.html?finnkode=258183537","ad_type":1,"energy_label":7,"from_year":1937,"lat":59.932,"local_area_name":"Nedre Torshov / Øvre Grünerløkka","lon":10.7616,"number_of_bedrooms":0,"owner_type_description":"Andel","property_type_description":"Leilighet","size_from":19,"to_year":1937,"type":"realestate"},{"Location":"Vibes gate 31A, Oslo","ad_id":261395888,"ad_link":"https://www.finn.no/realestate/homes/ad.html?finnkode=261395888","ad_type":1,"energy_label":7,"from_year":1937,"lat":59.9282,"local_area_name":"Majorstuen","lon":10.7273,"number_of_bedrooms":2,"owner_type_description":"Eier (Selveier)","property_type_description":"Leilighet","size_from":47,"to_year":1937,"type":"realestate"},{"Location":"Johannes Bruns gate 12B, Oslo","ad_id":261337984,"ad_link":"https://www.finn.no/realestate/homes/ad.html?finnkode=261337984","ad_type":1,"energy_label":7,"from_year":1937,"lat":59.929,"local_area_name":"Toppleilighet på Bislett","lon":10.7339,"number_of_bedrooms":2,"owner_type_description":"Eier (Selveier)","property_type_description":"Leilighet","size_from":58,"to_year":1937,"type":"realestate"},{"Location":"Spikkestadveien 121, Spikkestad","ad_id":260944710,"ad_link":"https://www.finn.no/realestate/homes/ad.html?finnkode=260944710","ad_type":1,"energy_label":7,"from_year":1937,"lat":59.74139,"local_area_name":"Spikkestad","lon":10.34687,"number_of_bedrooms":3,"owner_type_description":"Eier (Selveier)","property_type_description":"Enebolig","size_from":95,"to_year":1937,"type":"realestate"},{"Location":"Observatorie Terrasse 15 B, Oslo","ad_id":260916483,"ad_link":"https://www.finn.no/realestate/homes/ad.html?finnkode=260916483","ad_type":1,"energy_label":7,"from_year":1937,"lat":59.91247,"local_area_name":"Skillebekk / Frogner","lon":10.71398,"number_of_bedrooms":3,"owner_type_description":"Eier (Selveier)","property_type_description":"Leilighet","size_from":88,"to_year":1937,"type":"realestate"},{"Location":"Marcus Thranes gate 18, Stavanger","ad_id":260831920,"ad_link":"https://www.finn.no/realestate/homes/ad.html?finnkode=260831920","ad_type":1,"energy_label":7,"from_year":1937,"lat":58.9563,"local_area_name":"Våland","lon":5.7362,"number_of_bedrooms":3,"owner_type_description":"Eier (Selveier)","property_type_description":"Tomannsbolig","size_from":185,"to_year":1937,"type":"realestate"},{"Location":"Krokeidevegen 65, Fana","ad_id":260781839,"ad_link":"https://www.finn.no/realestate/homes/ad.html?finnkode=260781839","ad_type":1,"energy_label":7,"from_year":1937,"lat":60.25812,"local_area_name":null,"lon":5.3371,"number_of_bedrooms":5,"owner_type_description":"Eier (Selveier)","property_type_description":"Enebolig","size_from":162,"to_year":1937,"type":"realestate"},{"Location":"Haldenveien 10B, Snarøya","ad_id":260662925,"ad_link":"https://www.finn.no/realestate/homes/ad.html?finnkode=260662925","ad_type":1,"energy_label":7,"from_year":1937,"lat":59.8866,"local_area_name":"SNARØYA","lon":10.6245,"number_of_bedrooms":6,"owner_type_description":"Eier (Selveier)","property_type_description":"Enebolig","size_from":232,"to_year":1937,"type":"realestate"},{"Location":"Ekebergveien 29B, Oslo","ad_id":250798319,"ad_link":"https://www.finn.no/realestate/homes/ad.html?finnkode=250798319","ad_type":1,"energy_label":7,"from_year":1937,"lat":59.9012,"local_area_name":"Ekeberg/Gamlebyen","lon":10.7751,"number_of_bedrooms":1,"owner_type_description":"Andel","property_type_description":"Leilighet","size_from":22,"to_year":1937,"type":"realestate"},{"Location":"Klaus Hanssens vei 33A, Bergen","ad_id":260367938,"ad_link":"https://www.finn.no/realestate/homes/ad.html?finnkode=260367938","ad_type":1,"energy_label":7,"from_year":1937,"lat":60.3784,"local_area_name":"Kronstad","lon":5.3442,"number_of_bedrooms":3,"owner_type_description":"Eier (Selveier)","property_type_description":"Leilighet","size_from":99,"to_year":1937,"type":"realestate"},{"Location":"Sproveien 145, Fagerstrand","ad_id":259968521,"ad_link":"https://www.finn.no/realestate/homes/ad.html?finnkode=259968521","ad_type":1,"energy_label":7,"from_year":1937,"lat":59.7626,"local_area_name":"Fagerstrand","lon":10.5886,"number_of_bedrooms":3,"owner_type_description":"Eier (Selveier)","property_type_description":"Enebolig","size_from":176,"to_year":1937,"type":"realestate"},{"Location":"Dalevegen 8, Vennesla","ad_id":259885004,"ad_link":"https://www.finn.no/realestate/homes/ad.html?finnkode=259885004","ad_type":1,"energy_label":7,"from_year":1937,"lat":58.25064,"local_area_name":null,"lon":7.96919,"number_of_bedrooms":0,"owner_type_description":"Eier (Selveier)","property_type_description":"Enebolig","size_from":171,"to_year":1937,"type":"realestate"},{"Location":"Lømslands vei 1, Kristiansand S","ad_id":259684716,"ad_link":"https://www.finn.no/realestate/homes/ad.html?finnkode=259684716","ad_type":1,"energy_label":7,"from_year":1937,"lat":58.15028,"local_area_name":"Sentrum","lon":7.9935,"number_of_bedrooms":2,"owner_type_description":"Eier (Selveier)","property_type_description":"Leilighet","size_from":50,"to_year":1937,"type":"realestate"},{"Location":"Skjerpveien 20, Bøstad","ad_id":259659250,"ad_link":"https://www.finn.no/realestate/homes/ad.html?finnkode=259659250","ad_type":1,"energy_label":7,"from_year":1937,"lat":68.21706,"local_area_name":"Skjerpen","lon":13.72629,"number_of_bedrooms":5,"owner_type_description":"Eier (Selveier)","property_type_description":"Enebolig","size_from":116,"to_year":1937,"type":"realestate"},{"Location":"Snapnesvegen 22, Jørpeland","ad_id":259085717,"ad_link":"https://www.finn.no/realestate/homes/ad.html?finnkode=259085717","ad_type":1,"energy_label":7,"from_year":1937,"lat":59.0222,"local_area_name":"Jørpeland - Barka","lon":6.0027,"number_of_bedrooms":3,"owner_type_description":"Eier (Selveier)","property_type_description":"Enebolig","size_from":100,"to_year":1937,"type":"realestate"},{"Location":"Dyrhammar 15, Mosterhamn","ad_id":259145507,"ad_link":"https://www.finn.no/realestate/homes/ad.html?finnkode=259145507","ad_type":1,"energy_label":7,"from_year":1937,"lat":59.70306,"local_area_name":"MOSTER","lon":5.37389,"number_of_bedrooms":5,"owner_type_description":"Eier (Selveier)","property_type_description":"Enebolig","size_from":271,"to_year":1937,"type":"realestate"},{"Location":"Laskenveien 79B, Sandefjord","ad_id":258347941,"ad_link":"https://www.finn.no/realestate/homes/ad.html?finnkode=258347941","ad_type":1,"energy_label":7,"from_year":1937,"lat":59.1417,"local_area_name":"Lasken/Haukerød","lon":10.1965,"number_of_bedrooms":3,"owner_type_description":"Eier (Selveier)","property_type_description":"Enebolig","size_from":200,"to_year":1937,"type":"realestate"},{"Location":"Pålsetvegen 3, Kolbu","ad_id":256013491,"ad_link":"https://www.finn.no/realestate/homes/ad.html?finnkode=256013491","ad_type":1,"energy_label":7,"from_year":1937,"lat":60.63322,"local_area_name":null,"lon":10.69918,"number_of_bedrooms":3,"owner_type_description":"Eier (Selveier)","property_type_description":"Enebolig","size_from":138,"to_year":1937,"type":"realestate"},{"Location":"Hafsøyveien 33, Egersund","ad_id":231630722,"ad_link":"https://www.finn.no/realestate/homes/ad.html?finnkode=231630722","ad_type":1,"energy_label":7,"from_year":1937,"lat":58.4559,"local_area_name":"Havsøy","lon":6.0053,"number_of_bedrooms":4,"owner_type_description":"Eier (Selveier)","property_type_description":"Enebolig","size_from":208,"to_year":1937,"type":"realestate"},{"Location":"Grunnstollvegen 19, Malm","ad_id":246102422,"ad_link":"https://www.finn.no/realestate/homes/ad.html?finnkode=246102422","ad_type":1,"energy_label":7,"from_year":1937,"lat":64.07747,"local_area_name":null,"lon":11.22171,"number_of_bedrooms":3,"owner_type_description":"Eier (Selveier)","property_type_description":"Enebolig","size_from":78,"to_year":1937,"type":"realestate"},{"Location":"Torfæus' gate 83, Stavanger","ad_id":240703886,"ad_link":"https://www.finn.no/realestate/homes/ad.html?finnkode=240703886","ad_type":1,"energy_label":7,"from_year":1937,"lat":58.9678,"local_area_name":"Eiganes","lon":5.7129,"number_of_bedrooms":4,"owner_type_description":"Eier (Selveier)","property_type_description":"Enebolig","size_from":260,"to_year":1937,"type":"realestate"},{"Location":"Moheim (Trollkroa), Storvegen 220., Dalen","ad_id":237529655,"ad_link":"https://www.finn.no/realestate/homes/ad.html?finnkode=237529655","ad_type":1,"energy_label":7,"from_year":1937,"lat":59.44539,"local_area_name":null,"lon":7.98511,"number_of_bedrooms":9,"owner_type_description":"Eier (Selveier)","property_type_description":"Andre","size_from":306,"to_year":1937,"type":"realestate"}]