[{"Location":"Olav Magnussons veg 5, Trondheim","ad_id":261505361,"ad_link":"https://www.finn.no/realestate/homes/ad.html?finnkode=261505361","ad_type":1,"energy_label":6,"from_year":1966,"lat":63.42299,"local_area_name":"Valentinlyst","lon":10.44147,"number_of_bedrooms":2,"owner_type_description":"Andel","property_type_description":"Leilighet","size_from":72,"to_year":1966,"type":"realestate"},{"Location":"Eli Sjursdotters vei 7 D, Trondheim","ad_id":261453487,"ad_link":"https://www.finn.no/realestate/homes/ad.html?finnkode=261453487","ad_type":1,"energy_label":6,"from_year":1966,"lat":63.40958,"local_area_name":"Nyborg","lon":10.35537,"number_of_bedrooms":3,"owner_type_description":"Eier (Selveier)","property_type_description":"Rekkehus","size_from":115,"to_year":1966,"type":"realestate"},{"Location":"Gamle Kjelsåsvei 43B, Oslo","ad_id":261082539,"ad_link":"https://www.finn.no/realestate/homes/ad.html?finnkode=261082539","ad_type":1,"energy_label":6,"from_year":1966,"lat":59.95863,"local_area_name":"Grefsen/Kjelsås","lon":10.78348,"number_of_bedrooms":3,"owner_type_description":"Eier (Selveier)","property_type_description":"Tomannsbolig","size_from":132,"to_year":1966,"type":"realestate"},{"Location":"Tårnveien 46, Drammen","ad_id":260944238,"ad_link":"https://www.finn.no/realestate/homes/ad.html?finnkode=260944238","ad_type":1,"energy_label":6,"from_year":1966,"lat":59.73793,"local_area_name":"Gulskogen","lon":10.17176,"number_of_bedrooms":4,"owner_type_description":"Eier (Selveier)","property_type_description":"Enebolig","size_from":165,"to_year":1966,"type":"realestate"},{"Location":"Jederveien 31, Moss","ad_id":253739494,"ad_link":"https://www.finn.no/realestate/homes/ad.html?finnkode=253739494","ad_type":1,"energy_label":6,"from_year":1966,"lat":59.4401,"local_area_name":"JELØY","lon":10.6253,"number_of_bedrooms":6,"owner_type_description":"Eier (Selveier)","property_type_description":"Enebolig","size_from":330,"to_year":1966,"type":"realestate"},{"Location":"Olav Magnussons veg 3, Trondheim","ad_id":260554220,"ad_link":"https://www.finn.no/realestate/homes/ad.html?finnkode=260554220","ad_type":1,"energy_label":6,"from_year":1966,"lat":63.42224,"local_area_name":"Valentinlyst","lon":10.44092,"number_of_bedrooms":2,"owner_type_description":"Andel","property_type_description":"Leilighet","size_from":72,"to_year":1966,"type":"realestate"},{"Location":"Ekebergveien 294 K, Oslo","ad_id":259011673,"ad_link":"https://www.finn.no/realestate/homes/ad.html?finnkode=259011673","ad_type":1,"energy_label":6,"from_year":1966,"lat":59.85197,"local_area_name":null,"lon":10.79951,"number_of_bedrooms":3,"owner_type_description":"Eier (Selveier)","property_type_description":"Leilighet","size_from":162,"to_year":1966,"type":"realestate"},{"Location":"Delerudbakken 14, Ski","ad_id":260253704,"ad_link":"https://www.finn.no/realestate/homes/ad.html?finnkode=260253704","ad_type":1,"energy_label":6,"from_year":1966,"lat":59.7087,"local_area_name":"SKI","lon":10.84117,"number_of_bedrooms":4,"owner_type_description":"Eier (Selveier)","property_type_description":"Enebolig","size_from":128,"to_year":1966,"type":"realestate"},{"Location":"Godalsveien 1, Stavanger","ad_id":259738978,"ad_link":"https://www.finn.no/realestate/homes/ad.html?finnkode=259738978","ad_type":1,"energy_label":6,"from_year":1966,"lat":58.9585,"local_area_name":"Paradis","lon":5.7471,"number_of_bedrooms":4,"owner_type_description":"Eier (Selveier)","property_type_description":"Enebolig","size_from":197,"to_year":1966,"type":"realestate"},{"Location":"Gangdalsveien 71, Kristiansand S","ad_id":254168403,"ad_link":"https://www.finn.no/realestate/homes/ad.html?finnkode=254168403","ad_type":1,"energy_label":6,"from_year":1966,"lat":58.1893,"local_area_name":"STRAI","lon":7.9391,"number_of_bedrooms":3,"owner_type_description":"Eier (Selveier)","property_type_description":"Enebolig","size_from":146,"to_year":1966,"type":"realestate"},{"Location":"Haakon Tveters vei 7B, Oslo","ad_id":150171276,"ad_link":"https://www.finn.no/realestate/homes/ad.html?finnkode=150171276","ad_type":1,"energy_label":6,"from_year":1966,"lat":59.89928,"local_area_name":"Solrikt på Skøyenåsen","lon":10.83346,"number_of_bedrooms":3,"owner_type_description":"Eier (Selveier)","property_type_description":"Leilighet","size_from":89,"to_year":1966,"type":"realestate"},{"Location":"Holmevegen 9, Ulsteinvik","ad_id":258356717,"ad_link":"https://www.finn.no/realestate/homes/ad.html?finnkode=258356717","ad_type":1,"energy_label":6,"from_year":1966,"lat":62.33872,"local_area_name":null,"lon":5.85578,"number_of_bedrooms":5,"owner_type_description":"Eier (Selveier)","property_type_description":"Enebolig","size_from":139,"to_year":1966,"type":"realestate"},{"Location":"Evjenvegen 131, Tomasjord","ad_id":257901084,"ad_link":"https://www.finn.no/realestate/homes/ad.html?finnkode=257901084","ad_type":1,"energy_label":6,"from_year":1966,"lat":69.6659,"local_area_name":"Tomasjord","lon":19.0243,"number_of_bedrooms":6,"owner_type_description":"Eier (Selveier)","property_type_description":"Enebolig","size_from":192,"to_year":1966,"type":"realestate"},{"Location":"Melvikveien 27, Sørvik","ad_id":258013613,"ad_link":"https://www.finn.no/realestate/homes/ad.html?finnkode=258013613","ad_type":1,"energy_label":6,"from_year":1966,"lat":68.69065,"local_area_name":null,"lon":16.5489,"number_of_bedrooms":1,"owner_type_description":"Eier (Selveier)","property_type_description":"Enebolig","size_from":27,"to_year":1966,"type":"realestate"},{"Location":"Omagata 20, Kristiansund N","ad_id":257355516,"ad_link":"https://www.finn.no/realestate/homes/ad.html?finnkode=257355516","ad_type":1,"energy_label":6,"from_year":1966,"lat":63.10642,"local_area_name":null,"lon":7.75598,"number_of_bedrooms":5,"owner_type_description":"Eier (Selveier)","property_type_description":"Enebolig","size_from":174,"to_year":1966,"type":"realestate"},{"Location":"Andreas Grøttings veg 13 B, Elverum","ad_id":257140005,"ad_link":"https://www.finn.no/realestate/homes/ad.html?finnkode=257140005","ad_type":1,"energy_label":6,"from_year":1966,"lat":60.89108,"local_area_name":null,"lon":11.56461,"number_of_bedrooms":3,"owner_type_description":"Andel","property_type_description":"Leilighet","size_from":78,"to_year":1966,"type":"realestate"},{"Location":"Sandbrekkgata 5, Sunndalsøra","ad_id":257038415,"ad_link":"https://www.finn.no/realestate/homes/ad.html?finnkode=257038415","ad_type":1,"energy_label":6,"from_year":1966,"lat":62.6694,"local_area_name":"SANDE","lon":8.5827,"number_of_bedrooms":4,"owner_type_description":"Eier (Selveier)","property_type_description":"Enebolig","size_from":160,"to_year":1966,"type":"realestate"},{"Location":"Frænavegen 157, Molde","ad_id":255637422,"ad_link":"https://www.finn.no/realestate/homes/ad.html?finnkode=255637422","ad_type":1,"energy_label":6,"from_year":1966,"lat":62.74882,"local_area_name":"Fannebostad","lon":7.23178,"number_of_bedrooms":3,"owner_type_description":"Eier (Selveier)","property_type_description":"Enebolig","size_from":162,"to_year":1966,"type":"realestate"},{"Location":"Kirkeveien 18, Myre","ad_id":254637140,"ad_link":"https://www.finn.no/realestate/homes/ad.html?finnkode=254637140","ad_type":1,"energy_label":6,"from_year":1966,"lat":68.91934,"local_area_name":"MYRE SENTRALT","lon":15.08281,"number_of_bedrooms":3,"owner_type_description":"Eier (Selveier)","property_type_description":"Enebolig","size_from":144,"to_year":1966,"type":"realestate"},{"Location":"Åsas vei 10, Kristiansand S","ad_id":253829067,"ad_link":"https://www.finn.no/realestate/homes/ad.html?finnkode=253829067","ad_type":1,"energy_label":6,"from_year":1966,"lat":58.1727,"local_area_name":"Utsiktseiendom!","lon":8.0405,"number_of_bedrooms":3,"owner_type_description":"Eier (Selveier)","property_type_description":"Enebolig","size_from":158,"to_year":1966,"type":"realestate"},{"Location":"Grønvegen 19, Elverum","ad_id":253148132,"ad_link":"https://www.finn.no/realestate/homes/ad.html?finnkode=253148132","ad_type":1,"energy_label":6,"from_year":1966,"lat":60.8862,"local_area_name":"Vestad","lon":11.5335,"number_of_bedrooms":3,"owner_type_description":"Eier (Selveier)","property_type_description":"Enebolig","size_from":166,"to_year":1966,"type":"realestate"},{"Location":"Mostravegen 101, Mosterhamn","ad_id":229050205,"ad_link":"https://www.finn.no/realestate/homes/ad.html?finnkode=229050205","ad_type":1,"energy_label":6,"from_year":1966,"lat":59.7308,"local_area_name":null,"lon":5.33396,"number_of_bedrooms":4,"owner_type_description":"Eier (Selveier)","property_type_description":"Enebolig","size_from":210,"to_year":1966,"type":"realestate"},{"Location":"Prestegårdsveien 23A, Egersund","ad_id":221229849,"ad_link":"https://www.finn.no/realestate/homes/ad.html?finnkode=221229849","ad_type":1,"energy_label":6,"from_year":1966,"lat":58.4452,"local_area_name":"Husabø","lon":5.9963,"number_of_bedrooms":4,"owner_type_description":"Eier (Selveier)","property_type_description":"Tomannsbolig","size_from":150,"to_year":1966,"type":"realestate"}]