[{"Location":"Bjønner'n 6, Tolvsrød","ad_id":251084545,"ad_link":"https://www.finn.no/realestate/homes/ad.html?finnkode=251084545","ad_type":1,"energy_label":4,"from_year":1998,"lat":59.29207,"local_area_name":"BASBERGRØNNINGEN/ RINGSHAUG","lon":10.48687,"number_of_bedrooms":4,"owner_type_description":"Eier (Selveier)","property_type_description":"Enebolig","size_from":170,"to_year":1998,"type":"realestate"},{"Location":"Bergheimsvegen 30, Trondheim","ad_id":260891635,"ad_link":"https://www.finn.no/realestate/homes/ad.html?finnkode=260891635","ad_type":1,"energy_label":4,"from_year":1998,"lat":63.40848,"local_area_name":"Bergheim","lon":10.4569,"number_of_bedrooms":2,"owner_type_description":"Eier (Selveier)","property_type_description":"Leilighet","size_from":76,"to_year":1998,"type":"realestate"},{"Location":"Kolbotn terrasse 29, Kolbotn","ad_id":257268906,"ad_link":"https://www.finn.no/realestate/homes/ad.html?finnkode=257268906","ad_type":1,"energy_label":4,"from_year":1998,"lat":59.81195,"local_area_name":null,"lon":10.80095,"number_of_bedrooms":2,"owner_type_description":"Eier (Selveier)","property_type_description":"Leilighet","size_from":98,"to_year":1998,"type":"realestate"},{"Location":"Bentsegata 2B, Oslo","ad_id":260969193,"ad_link":"https://www.finn.no/realestate/homes/ad.html?finnkode=260969193","ad_type":1,"energy_label":4,"from_year":1998,"lat":59.9384,"local_area_name":"Sagene","lon":10.7574,"number_of_bedrooms":2,"owner_type_description":"Andel","property_type_description":"Leilighet","size_from":73,"to_year":1998,"type":"realestate"},{"Location":"Sundgata 1, Hønefoss","ad_id":260937260,"ad_link":"https://www.finn.no/realestate/homes/ad.html?finnkode=260937260","ad_type":1,"energy_label":4,"from_year":1998,"lat":60.1624,"local_area_name":"Sundgata","lon":10.2556,"number_of_bedrooms":1,"owner_type_description":"Eier (Selveier)","property_type_description":"Leilighet","size_from":91,"to_year":1998,"type":"realestate"},{"Location":"Granittveien 8, Hakadal","ad_id":260649007,"ad_link":"https://www.finn.no/realestate/homes/ad.html?finnkode=260649007","ad_type":1,"energy_label":4,"from_year":1998,"lat":60.1162,"local_area_name":null,"lon":10.866,"number_of_bedrooms":3,"owner_type_description":"Eier (Selveier)","property_type_description":"Enebolig","size_from":156,"to_year":1998,"type":"realestate"},{"Location":"Lurudveien 12F, Skedsmokorset","ad_id":260922202,"ad_link":"https://www.finn.no/realestate/homes/ad.html?finnkode=260922202","ad_type":1,"energy_label":4,"from_year":1998,"lat":60.0136,"local_area_name":null,"lon":11.0467,"number_of_bedrooms":2,"owner_type_description":"Andel","property_type_description":"Leilighet","size_from":75,"to_year":1998,"type":"realestate"},{"Location":"Lervikvenna 12, Manstad","ad_id":260920153,"ad_link":"https://www.finn.no/realestate/homes/ad.html?finnkode=260920153","ad_type":1,"energy_label":4,"from_year":1998,"lat":59.2729,"local_area_name":"Lervik","lon":10.7468,"number_of_bedrooms":3,"owner_type_description":"Eier (Selveier)","property_type_description":"Enebolig","size_from":142,"to_year":1998,"type":"realestate"},{"Location":"Liaveien 27, Vear","ad_id":260908466,"ad_link":"https://www.finn.no/realestate/homes/ad.html?finnkode=260908466","ad_type":1,"energy_label":4,"from_year":1998,"lat":59.26222,"local_area_name":"Tønsberg/Vear","lon":10.36418,"number_of_bedrooms":3,"owner_type_description":"Eier (Selveier)","property_type_description":"Enebolig","size_from":193,"to_year":1998,"type":"realestate"},{"Location":"Kvastebyveien 209, Skjeberg","ad_id":256631393,"ad_link":"https://www.finn.no/realestate/homes/ad.html?finnkode=256631393","ad_type":1,"energy_label":4,"from_year":1998,"lat":59.1968,"local_area_name":null,"lon":11.1713,"number_of_bedrooms":4,"owner_type_description":"Eier (Selveier)","property_type_description":"Enebolig","size_from":242,"to_year":1998,"type":"realestate"},{"Location":"Øyravegen 31, Naustdal","ad_id":260766832,"ad_link":"https://www.finn.no/realestate/homes/ad.html?finnkode=260766832","ad_type":1,"energy_label":4,"from_year":1998,"lat":61.50655,"local_area_name":null,"lon":5.72298,"number_of_bedrooms":2,"owner_type_description":"Eier (Selveier)","property_type_description":"Leilighet","size_from":80,"to_year":1998,"type":"realestate"},{"Location":"Elvhusvegen 53A, Tromsdalen","ad_id":256284283,"ad_link":"https://www.finn.no/realestate/homes/ad.html?finnkode=256284283","ad_type":1,"energy_label":4,"from_year":1998,"lat":69.6291,"local_area_name":"Reinen","lon":18.9596,"number_of_bedrooms":2,"owner_type_description":"Eier (Selveier)","property_type_description":"Leilighet","size_from":88,"to_year":1998,"type":"realestate"},{"Location":"Parkveien 10, Rygge","ad_id":260535798,"ad_link":"https://www.finn.no/realestate/homes/ad.html?finnkode=260535798","ad_type":1,"energy_label":4,"from_year":1998,"lat":59.3774,"local_area_name":"Halmstad","lon":10.7652,"number_of_bedrooms":4,"owner_type_description":"Eier (Selveier)","property_type_description":"Enebolig","size_from":127,"to_year":1998,"type":"realestate"},{"Location":"Morildvegen 30B, Kvaløysletta","ad_id":260423505,"ad_link":"https://www.finn.no/realestate/homes/ad.html?finnkode=260423505","ad_type":1,"energy_label":4,"from_year":1998,"lat":69.6848,"local_area_name":"KVALØYSLETTA","lon":18.8354,"number_of_bedrooms":4,"owner_type_description":"Eier (Selveier)","property_type_description":"Enebolig","size_from":131,"to_year":1998,"type":"realestate"},{"Location":"Middelthuns gate 19, Oslo","ad_id":260471693,"ad_link":"https://www.finn.no/realestate/homes/ad.html?finnkode=260471693","ad_type":1,"energy_label":4,"from_year":1998,"lat":59.92849,"local_area_name":null,"lon":10.71077,"number_of_bedrooms":3,"owner_type_description":"Eier (Selveier)","property_type_description":"Leilighet","size_from":79,"to_year":1998,"type":"realestate"},{"Location":"Bærumsveien 196, Bekkestua","ad_id":259643300,"ad_link":"https://www.finn.no/realestate/homes/ad.html?finnkode=259643300","ad_type":1,"energy_label":4,"from_year":1998,"lat":59.918,"local_area_name":"Bekkestua","lon":10.5908,"number_of_bedrooms":2,"owner_type_description":"Eier (Selveier)","property_type_description":"Leilighet","size_from":99,"to_year":1998,"type":"realestate"},{"Location":"Simensbakken 19B, Raufoss","ad_id":260105762,"ad_link":"https://www.finn.no/realestate/homes/ad.html?finnkode=260105762","ad_type":1,"energy_label":4,"from_year":1998,"lat":60.73604,"local_area_name":"VESTRUMENGA","lon":10.6249,"number_of_bedrooms":3,"owner_type_description":"Eier (Selveier)","property_type_description":"Tomannsbolig","size_from":93,"to_year":1998,"type":"realestate"},{"Location":"Milåsfaret 23, Tjodalyng","ad_id":259875224,"ad_link":"https://www.finn.no/realestate/homes/ad.html?finnkode=259875224","ad_type":1,"energy_label":4,"from_year":1998,"lat":59.0732,"local_area_name":"Hem","lon":10.1977,"number_of_bedrooms":3,"owner_type_description":"Eier (Selveier)","property_type_description":"Enebolig","size_from":128,"to_year":1998,"type":"realestate"},{"Location":"Nedre Prinsdals vei 100D, Oslo","ad_id":259997778,"ad_link":"https://www.finn.no/realestate/homes/ad.html?finnkode=259997778","ad_type":1,"energy_label":4,"from_year":1998,"lat":59.827,"local_area_name":"Prinsdal","lon":10.8095,"number_of_bedrooms":4,"owner_type_description":"Eier (Selveier)","property_type_description":"Enebolig","size_from":134,"to_year":1998,"type":"realestate"},{"Location":"Bølstadstubben 12, Spikkestad","ad_id":260004278,"ad_link":"https://www.finn.no/realestate/homes/ad.html?finnkode=260004278","ad_type":1,"energy_label":4,"from_year":1998,"lat":59.74073,"local_area_name":"Spikkestad","lon":10.33779,"number_of_bedrooms":3,"owner_type_description":"Andel","property_type_description":"Enebolig","size_from":127,"to_year":1998,"type":"realestate"},{"Location":"Claude Monets allè 21, Sandvika","ad_id":250196400,"ad_link":"https://www.finn.no/realestate/homes/ad.html?finnkode=250196400","ad_type":1,"energy_label":4,"from_year":1998,"lat":59.8894,"local_area_name":"Sandvika sentrum","lon":10.5223,"number_of_bedrooms":1,"owner_type_description":"Eier (Selveier)","property_type_description":"Leilighet","size_from":84,"to_year":1998,"type":"realestate"},{"Location":"Gråkamveien 15C, Oslo","ad_id":259269021,"ad_link":"https://www.finn.no/realestate/homes/ad.html?finnkode=259269021","ad_type":1,"energy_label":4,"from_year":1998,"lat":59.95809,"local_area_name":"GRÅKAMMEN/SLEMDAL","lon":10.70383,"number_of_bedrooms":5,"owner_type_description":"Eier (Selveier)","property_type_description":"Enebolig","size_from":397,"to_year":1998,"type":"realestate"},{"Location":"Løvika 46, Kristiansand S","ad_id":258348046,"ad_link":"https://www.finn.no/realestate/homes/ad.html?finnkode=258348046","ad_type":1,"energy_label":4,"from_year":1998,"lat":58.11293,"local_area_name":"KR.SAND - ANDØYA","lon":7.9865,"number_of_bedrooms":4,"owner_type_description":"Eier (Selveier)","property_type_description":"Enebolig","size_from":376,"to_year":1998,"type":"realestate"},{"Location":"Sjukehusveien 39A, Egersund","ad_id":258312795,"ad_link":"https://www.finn.no/realestate/homes/ad.html?finnkode=258312795","ad_type":1,"energy_label":4,"from_year":1998,"lat":58.4639,"local_area_name":"Lagård","lon":6.0162,"number_of_bedrooms":3,"owner_type_description":"Eier (Selveier)","property_type_description":"Enebolig","size_from":107,"to_year":1998,"type":"realestate"},{"Location":"Sandhoppet 20, Brusand","ad_id":257293695,"ad_link":"https://www.finn.no/realestate/homes/ad.html?finnkode=257293695","ad_type":1,"energy_label":4,"from_year":1998,"lat":58.5422,"local_area_name":"Brusand","lon":5.7377,"number_of_bedrooms":4,"owner_type_description":"Eier (Selveier)","property_type_description":"Enebolig","size_from":195,"to_year":1998,"type":"realestate"},{"Location":"Langgata 97, Sandnes","ad_id":257352319,"ad_link":"https://www.finn.no/realestate/homes/ad.html?finnkode=257352319","ad_type":1,"energy_label":4,"from_year":1998,"lat":58.85616,"local_area_name":"Sandnes sentrum","lon":5.74094,"number_of_bedrooms":3,"owner_type_description":"Eier (Selveier)","property_type_description":"Leilighet","size_from":105,"to_year":1998,"type":"realestate"},{"Location":"Rådhusgata 12, Drammen","ad_id":253144034,"ad_link":"https://www.finn.no/realestate/homes/ad.html?finnkode=253144034","ad_type":1,"energy_label":4,"from_year":1998,"lat":59.7454,"local_area_name":"Bragernes sentralt/Torget vest","lon":10.2041,"number_of_bedrooms":2,"owner_type_description":"Eier (Selveier)","property_type_description":"Leilighet","size_from":100,"to_year":1998,"type":"realestate"},{"Location":"Innherredsvegen 53 D, Stjørdal","ad_id":254057058,"ad_link":"https://www.finn.no/realestate/homes/ad.html?finnkode=254057058","ad_type":1,"energy_label":4,"from_year":1998,"lat":63.4662,"local_area_name":"Stjørdal","lon":10.914,"number_of_bedrooms":0,"owner_type_description":"Eier (Selveier)","property_type_description":"Rekkehus","size_from":129,"to_year":1998,"type":"realestate"},{"Location":"Konsul Moes gate 3, Verdal","ad_id":243885861,"ad_link":"https://www.finn.no/realestate/homes/ad.html?finnkode=243885861","ad_type":1,"energy_label":4,"from_year":1998,"lat":63.7925,"local_area_name":"VERDAL SENTRUM","lon":11.48073,"number_of_bedrooms":2,"owner_type_description":"Eier (Selveier)","property_type_description":"Leilighet","size_from":114,"to_year":1998,"type":"realestate"},{"Location":"Røyslandstunet 6, Bjerkreim","ad_id":250583480,"ad_link":"https://www.finn.no/realestate/homes/ad.html?finnkode=250583480","ad_type":1,"energy_label":4,"from_year":1998,"lat":58.5851,"local_area_name":"Bjerkreim","lon":6.0734,"number_of_bedrooms":3,"owner_type_description":"Eier (Selveier)","property_type_description":"Enebolig","size_from":83,"to_year":1998,"type":"realestate"},{"Location":"Nerstranda 31, Tromsø","ad_id":233576609,"ad_link":"https://www.finn.no/realestate/homes/ad.html?finnkode=233576609","ad_type":1,"energy_label":4,"from_year":1998,"lat":69.64671,"local_area_name":null,"lon":18.95429,"number_of_bedrooms":2,"owner_type_description":"Eier (Selveier)","property_type_description":"Leilighet","size_from":137,"to_year":1998,"type":"realestate"},{"Location":"Strengenvegen 2I, Lunde","ad_id":248420972,"ad_link":"https://www.finn.no/realestate/homes/ad.html?finnkode=248420972","ad_type":1,"energy_label":4,"from_year":1998,"lat":59.29842,"local_area_name":null,"lon":9.10227,"number_of_bedrooms":2,"owner_type_description":"Eier (Selveier)","property_type_description":"Leilighet","size_from":69,"to_year":1998,"type":"realestate"}]