[{"Location":"Nyhavnsveien 13, Bergen","ad_id":261468940,"ad_link":"https://www.finn.no/realestate/homes/ad.html?finnkode=261468940","ad_type":1,"energy_label":7,"from_year":1958,"lat":60.41914,"local_area_name":null,"lon":5.30977,"number_of_bedrooms":2,"owner_type_description":"Andel","property_type_description":"Leilighet","size_from":72,"to_year":1958,"type":"realestate"},{"Location":"Kronprins Olavs veg 5B, Gjøvik","ad_id":261459334,"ad_link":"https://www.finn.no/realestate/homes/ad.html?finnkode=261459334","ad_type":1,"energy_label":7,"from_year":1958,"lat":60.80487,"local_area_name":null,"lon":10.66954,"number_of_bedrooms":3,"owner_type_description":"Eier (Selveier)","property_type_description":"Enebolig","size_from":204,"to_year":1958,"type":"realestate"},{"Location":"Sjøgata 30 A, Levanger","ad_id":261448628,"ad_link":"https://www.finn.no/realestate/homes/ad.html?finnkode=261448628","ad_type":1,"energy_label":7,"from_year":1958,"lat":63.74812,"local_area_name":"Levanger sentrum","lon":11.30049,"number_of_bedrooms":2,"owner_type_description":"Andel","property_type_description":"Leilighet","size_from":66,"to_year":1958,"type":"realestate"},{"Location":"Emil Korsmos vei 13, Oslo","ad_id":261349579,"ad_link":"https://www.finn.no/realestate/homes/ad.html?finnkode=261349579","ad_type":1,"energy_label":7,"from_year":1958,"lat":59.8979,"local_area_name":"Manglerud/Høyenhall","lon":10.8076,"number_of_bedrooms":2,"owner_type_description":"Andel","property_type_description":"Leilighet","size_from":67,"to_year":1958,"type":"realestate"},{"Location":"Ekebergveien 83, Drøbak","ad_id":261345445,"ad_link":"https://www.finn.no/realestate/homes/ad.html?finnkode=261345445","ad_type":1,"energy_label":7,"from_year":1958,"lat":59.6384,"local_area_name":"Drøbak/Ekeberg","lon":10.654,"number_of_bedrooms":3,"owner_type_description":"Eier (Selveier)","property_type_description":"Rekkehus","size_from":230,"to_year":1958,"type":"realestate"},{"Location":"Maria Fegths gate 5, Drammen","ad_id":261402363,"ad_link":"https://www.finn.no/realestate/homes/ad.html?finnkode=261402363","ad_type":1,"energy_label":7,"from_year":1958,"lat":59.72605,"local_area_name":"Rundtom","lon":10.22969,"number_of_bedrooms":1,"owner_type_description":"Andel","property_type_description":"Leilighet","size_from":45,"to_year":1958,"type":"realestate"},{"Location":"Corn Moes gate 9B, Hammerfest","ad_id":261374315,"ad_link":"https://www.finn.no/realestate/homes/ad.html?finnkode=261374315","ad_type":1,"energy_label":7,"from_year":1958,"lat":70.66275,"local_area_name":null,"lon":23.67782,"number_of_bedrooms":3,"owner_type_description":"Eier (Selveier)","property_type_description":"Tomannsbolig","size_from":128,"to_year":1958,"type":"realestate"},{"Location":"Skårervegen 29, Sander","ad_id":220624667,"ad_link":"https://www.finn.no/realestate/homes/ad.html?finnkode=220624667","ad_type":1,"energy_label":7,"from_year":1958,"lat":60.2178,"local_area_name":"Sander","lon":11.7817,"number_of_bedrooms":3,"owner_type_description":"Eier (Selveier)","property_type_description":"Enebolig","size_from":128,"to_year":1958,"type":"realestate"},{"Location":"Kalbakkveien 13A, Oslo","ad_id":261267238,"ad_link":"https://www.finn.no/realestate/homes/ad.html?finnkode=261267238","ad_type":1,"energy_label":7,"from_year":1958,"lat":59.9532,"local_area_name":"SENTRALT PÅ KALBAKKEN","lon":10.8736,"number_of_bedrooms":2,"owner_type_description":"Andel","property_type_description":"Leilighet","size_from":70,"to_year":1958,"type":"realestate"},{"Location":"Solbergliveien 104A, Oslo","ad_id":261088297,"ad_link":"https://www.finn.no/realestate/homes/ad.html?finnkode=261088297","ad_type":1,"energy_label":7,"from_year":1958,"lat":59.90027,"local_area_name":"Oppsal","lon":10.84647,"number_of_bedrooms":2,"owner_type_description":"Andel","property_type_description":"Leilighet","size_from":65,"to_year":1958,"type":"realestate"},{"Location":"Alexander Kiellands gate 18F, Lillestrøm","ad_id":260572930,"ad_link":"https://www.finn.no/realestate/homes/ad.html?finnkode=260572930","ad_type":1,"energy_label":7,"from_year":1958,"lat":59.9618,"local_area_name":"Lillestrøm","lon":11.0587,"number_of_bedrooms":1,"owner_type_description":"Andel","property_type_description":"Leilighet","size_from":50,"to_year":1958,"type":"realestate"},{"Location":"Prestvannvegen 4 B, Tromsø","ad_id":260941222,"ad_link":"https://www.finn.no/realestate/homes/ad.html?finnkode=260941222","ad_type":1,"energy_label":7,"from_year":1958,"lat":69.66027,"local_area_name":"Visn 9/6 kl. 18.30-19.15! MYRENG","lon":18.94927,"number_of_bedrooms":3,"owner_type_description":"Eier (Selveier)","property_type_description":"Enebolig","size_from":88,"to_year":1958,"type":"realestate"},{"Location":"Gotevegen 30, Sandane","ad_id":260929638,"ad_link":"https://www.finn.no/realestate/homes/ad.html?finnkode=260929638","ad_type":1,"energy_label":7,"from_year":1958,"lat":61.77223,"local_area_name":null,"lon":6.22208,"number_of_bedrooms":6,"owner_type_description":"Eier (Selveier)","property_type_description":"Enebolig","size_from":146,"to_year":1958,"type":"realestate"},{"Location":"Brattråket 5A, Otta","ad_id":260783189,"ad_link":"https://www.finn.no/realestate/homes/ad.html?finnkode=260783189","ad_type":1,"energy_label":7,"from_year":1958,"lat":61.7758,"local_area_name":null,"lon":9.546,"number_of_bedrooms":3,"owner_type_description":"Eier (Selveier)","property_type_description":"Enebolig","size_from":45,"to_year":1958,"type":"realestate"},{"Location":"Beverveien 14, Oslo","ad_id":260773415,"ad_link":"https://www.finn.no/realestate/homes/ad.html?finnkode=260773415","ad_type":1,"energy_label":7,"from_year":1958,"lat":59.9434,"local_area_name":null,"lon":10.8492,"number_of_bedrooms":3,"owner_type_description":"Andel","property_type_description":"Leilighet","size_from":84,"to_year":1958,"type":"realestate"},{"Location":"Anna Hagmans gate 21, Moss","ad_id":260757732,"ad_link":"https://www.finn.no/realestate/homes/ad.html?finnkode=260757732","ad_type":1,"energy_label":7,"from_year":1958,"lat":59.44102,"local_area_name":null,"lon":10.63108,"number_of_bedrooms":6,"owner_type_description":"Eier (Selveier)","property_type_description":"Enebolig","size_from":270,"to_year":1958,"type":"realestate"},{"Location":"Brettvegen 17, Mauseidvåg","ad_id":260671408,"ad_link":"https://www.finn.no/realestate/homes/ad.html?finnkode=260671408","ad_type":1,"energy_label":7,"from_year":1958,"lat":62.4217,"local_area_name":"Mauseidvåg","lon":6.2663,"number_of_bedrooms":4,"owner_type_description":"Eier (Selveier)","property_type_description":"Enebolig","size_from":109,"to_year":1958,"type":"realestate"},{"Location":"Møllendalsveien 61B, Bergen","ad_id":260667901,"ad_link":"https://www.finn.no/realestate/homes/ad.html?finnkode=260667901","ad_type":1,"energy_label":7,"from_year":1958,"lat":60.37869,"local_area_name":"Møllendal","lon":5.35369,"number_of_bedrooms":1,"owner_type_description":"Eier (Selveier)","property_type_description":"Leilighet","size_from":64,"to_year":1958,"type":"realestate"},{"Location":"Storvollen 13, Mandal","ad_id":260651993,"ad_link":"https://www.finn.no/realestate/homes/ad.html?finnkode=260651993","ad_type":1,"energy_label":7,"from_year":1958,"lat":58.0269,"local_area_name":"Vestnes","lon":7.4384,"number_of_bedrooms":6,"owner_type_description":"Eier (Selveier)","property_type_description":"Enebolig","size_from":275,"to_year":1958,"type":"realestate"},{"Location":"Porfyrveien 7B, Oslo","ad_id":259102209,"ad_link":"https://www.finn.no/realestate/homes/ad.html?finnkode=259102209","ad_type":1,"energy_label":7,"from_year":1958,"lat":59.9439,"local_area_name":"Idyllisk og skjermet på Ullerntoppen/Røa","lon":10.6486,"number_of_bedrooms":2,"owner_type_description":"Eier (Selveier)","property_type_description":"Leilighet","size_from":69,"to_year":1958,"type":"realestate"},{"Location":"Harry Borthens vei 9, Trondheim","ad_id":258050550,"ad_link":"https://www.finn.no/realestate/homes/ad.html?finnkode=258050550","ad_type":1,"energy_label":7,"from_year":1958,"lat":63.45333,"local_area_name":null,"lon":10.44584,"number_of_bedrooms":2,"owner_type_description":"Aksje","property_type_description":"Leilighet","size_from":70,"to_year":1958,"type":"realestate"},{"Location":"Jonsokveien 17, Tistedal","ad_id":260640066,"ad_link":"https://www.finn.no/realestate/homes/ad.html?finnkode=260640066","ad_type":1,"energy_label":7,"from_year":1958,"lat":59.1102,"local_area_name":"Øberg","lon":11.4329,"number_of_bedrooms":4,"owner_type_description":"Eier (Selveier)","property_type_description":"Tomannsbolig","size_from":157,"to_year":1958,"type":"realestate"},{"Location":"Nordahl Rolfsens vei 28B, Bergen","ad_id":260400763,"ad_link":"https://www.finn.no/realestate/homes/ad.html?finnkode=260400763","ad_type":1,"energy_label":7,"from_year":1958,"lat":60.356,"local_area_name":"Landås","lon":5.3666,"number_of_bedrooms":1,"owner_type_description":"Aksje","property_type_description":"Leilighet","size_from":45,"to_year":1958,"type":"realestate"},{"Location":"Rugdeveien 42, Bergen","ad_id":259569577,"ad_link":"https://www.finn.no/realestate/homes/ad.html?finnkode=259569577","ad_type":1,"energy_label":7,"from_year":1958,"lat":60.36077,"local_area_name":null,"lon":5.36928,"number_of_bedrooms":2,"owner_type_description":"Andel","property_type_description":"Leilighet","size_from":71,"to_year":1958,"type":"realestate"},{"Location":"Falkenstensveien 428, Nykirke","ad_id":260517220,"ad_link":"https://www.finn.no/realestate/homes/ad.html?finnkode=260517220","ad_type":1,"energy_label":7,"from_year":1958,"lat":59.4362,"local_area_name":null,"lon":10.4009,"number_of_bedrooms":3,"owner_type_description":"Eier (Selveier)","property_type_description":"Enebolig","size_from":270,"to_year":1958,"type":"realestate"},{"Location":"Ulveveien 20, Sandnes","ad_id":260395013,"ad_link":"https://www.finn.no/realestate/homes/ad.html?finnkode=260395013","ad_type":1,"energy_label":7,"from_year":1958,"lat":58.8236,"local_area_name":"Ganddal","lon":5.7246,"number_of_bedrooms":4,"owner_type_description":"Eier (Selveier)","property_type_description":"Enebolig","size_from":144,"to_year":1958,"type":"realestate"},{"Location":"Hvittingfossveien 238A, Holmestrand","ad_id":259125267,"ad_link":"https://www.finn.no/realestate/homes/ad.html?finnkode=259125267","ad_type":1,"energy_label":7,"from_year":1958,"lat":59.5029,"local_area_name":"Holmestrand/Gullhaug","lon":10.248,"number_of_bedrooms":4,"owner_type_description":"Eier (Selveier)","property_type_description":"Enebolig","size_from":156,"to_year":1958,"type":"realestate"},{"Location":"Vipeveien 8, Asker","ad_id":258385697,"ad_link":"https://www.finn.no/realestate/homes/ad.html?finnkode=258385697","ad_type":1,"energy_label":7,"from_year":1958,"lat":59.8374,"local_area_name":"NÆR ASKER SENTRUM","lon":10.4445,"number_of_bedrooms":4,"owner_type_description":"Eier (Selveier)","property_type_description":"Enebolig","size_from":190,"to_year":1958,"type":"realestate"},{"Location":"Grønlibakken 9, Oslo","ad_id":252680145,"ad_link":"https://www.finn.no/realestate/homes/ad.html?finnkode=252680145","ad_type":1,"energy_label":7,"from_year":1958,"lat":59.89693,"local_area_name":"Skøyenåsen","lon":10.83466,"number_of_bedrooms":1,"owner_type_description":"Andel","property_type_description":"Leilighet","size_from":52,"to_year":1958,"type":"realestate"},{"Location":"Telthusvegen 9, Stange","ad_id":260039255,"ad_link":"https://www.finn.no/realestate/homes/ad.html?finnkode=260039255","ad_type":1,"energy_label":7,"from_year":1958,"lat":60.7173,"local_area_name":"Stange","lon":11.1843,"number_of_bedrooms":4,"owner_type_description":"Eier (Selveier)","property_type_description":"Enebolig","size_from":197,"to_year":1958,"type":"realestate"},{"Location":"Enerveien 10B, Nesoddtangen","ad_id":260080782,"ad_link":"https://www.finn.no/realestate/homes/ad.html?finnkode=260080782","ad_type":1,"energy_label":7,"from_year":1958,"lat":59.8593,"local_area_name":"Tangen","lon":10.6648,"number_of_bedrooms":3,"owner_type_description":"Andel","property_type_description":"Rekkehus","size_from":92,"to_year":1958,"type":"realestate"},{"Location":"Bjørnvegen 11, Raufoss","ad_id":249979319,"ad_link":"https://www.finn.no/realestate/homes/ad.html?finnkode=249979319","ad_type":1,"energy_label":7,"from_year":1958,"lat":60.71753,"local_area_name":null,"lon":10.61964,"number_of_bedrooms":3,"owner_type_description":"Eier (Selveier)","property_type_description":"Enebolig","size_from":140,"to_year":1958,"type":"realestate"},{"Location":"Bjørnstjerne Bjørnsons vei 6, Fredrikstad","ad_id":259747816,"ad_link":"https://www.finn.no/realestate/homes/ad.html?finnkode=259747816","ad_type":1,"energy_label":7,"from_year":1958,"lat":59.2185,"local_area_name":"Karivold","lon":10.9519,"number_of_bedrooms":4,"owner_type_description":"Eier (Selveier)","property_type_description":"Enebolig","size_from":206,"to_year":1958,"type":"realestate"},{"Location":"John Koppangs veg 4, Elverum","ad_id":260031316,"ad_link":"https://www.finn.no/realestate/homes/ad.html?finnkode=260031316","ad_type":1,"energy_label":7,"from_year":1958,"lat":60.87234,"local_area_name":"GAARDERLØKKA","lon":11.57016,"number_of_bedrooms":2,"owner_type_description":"Andel","property_type_description":"Leilighet","size_from":66,"to_year":1958,"type":"realestate"},{"Location":"Liavegen 9, Hol","ad_id":260029266,"ad_link":"https://www.finn.no/realestate/homes/ad.html?finnkode=260029266","ad_type":1,"energy_label":7,"from_year":1958,"lat":60.59734,"local_area_name":null,"lon":8.35167,"number_of_bedrooms":4,"owner_type_description":"Eier (Selveier)","property_type_description":"Enebolig","size_from":120,"to_year":1958,"type":"realestate"},{"Location":"Odenseveien 21, Trondheim","ad_id":260029185,"ad_link":"https://www.finn.no/realestate/homes/ad.html?finnkode=260029185","ad_type":1,"energy_label":7,"from_year":1958,"lat":63.41574,"local_area_name":"Sverresborg","lon":10.34917,"number_of_bedrooms":2,"owner_type_description":"Andel","property_type_description":"Leilighet","size_from":63,"to_year":1958,"type":"realestate"},{"Location":"Skavhauggbakkan 96, Vuku","ad_id":260027539,"ad_link":"https://www.finn.no/realestate/homes/ad.html?finnkode=260027539","ad_type":1,"energy_label":7,"from_year":1958,"lat":63.7399,"local_area_name":null,"lon":11.78101,"number_of_bedrooms":4,"owner_type_description":"Eier (Selveier)","property_type_description":"Gårdsbruk/Småbruk","size_from":187,"to_year":1958,"type":"realestate"},{"Location":"Ljan terrasse 8, Oslo","ad_id":259881778,"ad_link":"https://www.finn.no/realestate/homes/ad.html?finnkode=259881778","ad_type":1,"energy_label":7,"from_year":1958,"lat":59.8497,"local_area_name":"Idylliske Ljan på Nordstrand;","lon":10.783,"number_of_bedrooms":1,"owner_type_description":"Aksje","property_type_description":"Leilighet","size_from":67,"to_year":1958,"type":"realestate"},{"Location":"Lundahaugan 133, Skjåk","ad_id":259607621,"ad_link":"https://www.finn.no/realestate/homes/ad.html?finnkode=259607621","ad_type":1,"energy_label":7,"from_year":1958,"lat":61.8782,"local_area_name":null,"lon":8.299,"number_of_bedrooms":3,"owner_type_description":"Eier (Selveier)","property_type_description":"Enebolig","size_from":111,"to_year":1958,"type":"realestate"},{"Location":"Ålefjærvegen 596, Vennesla","ad_id":248849156,"ad_link":"https://www.finn.no/realestate/homes/ad.html?finnkode=248849156","ad_type":1,"energy_label":7,"from_year":1958,"lat":58.26007,"local_area_name":null,"lon":7.98221,"number_of_bedrooms":2,"owner_type_description":"Eier (Selveier)","property_type_description":"Enebolig","size_from":130,"to_year":1958,"type":"realestate"},{"Location":"Odden 30, Lyngør","ad_id":256313026,"ad_link":"https://www.finn.no/realestate/homes/ad.html?finnkode=256313026","ad_type":1,"energy_label":7,"from_year":1958,"lat":58.63634,"local_area_name":null,"lon":9.13376,"number_of_bedrooms":4,"owner_type_description":"Eier (Selveier)","property_type_description":"Enebolig","size_from":137,"to_year":1958,"type":"realestate"},{"Location":"Yngves vei 3, Sandefjord","ad_id":257358625,"ad_link":"https://www.finn.no/realestate/homes/ad.html?finnkode=257358625","ad_type":1,"energy_label":7,"from_year":1958,"lat":59.14639,"local_area_name":"Breidablikk","lon":10.22522,"number_of_bedrooms":3,"owner_type_description":"Eier (Selveier)","property_type_description":"Enebolig","size_from":215,"to_year":1958,"type":"realestate"},{"Location":"Ole Fladagers gate 1B, Oslo","ad_id":255703976,"ad_link":"https://www.finn.no/realestate/homes/ad.html?finnkode=255703976","ad_type":1,"energy_label":7,"from_year":1958,"lat":59.92535,"local_area_name":"Majorstuen ved Vestkanttorvet","lon":10.71751,"number_of_bedrooms":2,"owner_type_description":"Eier (Selveier)","property_type_description":"Leilighet","size_from":73,"to_year":1958,"type":"realestate"},{"Location":"Lars Jordes veg 15, Hamar","ad_id":259761086,"ad_link":"https://www.finn.no/realestate/homes/ad.html?finnkode=259761086","ad_type":1,"energy_label":7,"from_year":1958,"lat":60.80258,"local_area_name":null,"lon":11.08575,"number_of_bedrooms":2,"owner_type_description":"Eier (Selveier)","property_type_description":"Leilighet","size_from":70,"to_year":1958,"type":"realestate"},{"Location":"Fløybakken 1, Flekkerøy","ad_id":256047438,"ad_link":"https://www.finn.no/realestate/homes/ad.html?finnkode=256047438","ad_type":1,"energy_label":7,"from_year":1958,"lat":58.0751,"local_area_name":"Flekkerøy - Påmeldingsvisning 31.05","lon":7.9976,"number_of_bedrooms":6,"owner_type_description":"Eier (Selveier)","property_type_description":"Enebolig","size_from":204,"to_year":1958,"type":"realestate"},{"Location":"Funnosmoen 3, Meråker","ad_id":219359385,"ad_link":"https://www.finn.no/realestate/homes/ad.html?finnkode=219359385","ad_type":1,"energy_label":7,"from_year":1958,"lat":63.4296,"local_area_name":"MERÅKER","lon":11.72565,"number_of_bedrooms":5,"owner_type_description":"Eier (Selveier)","property_type_description":"Enebolig","size_from":187,"to_year":1958,"type":"realestate"},{"Location":"Guvågveien 70, Straumsjøen","ad_id":241006862,"ad_link":"https://www.finn.no/realestate/homes/ad.html?finnkode=241006862","ad_type":1,"energy_label":7,"from_year":1958,"lat":68.70111,"local_area_name":null,"lon":14.70703,"number_of_bedrooms":4,"owner_type_description":"Eier (Selveier)","property_type_description":"Enebolig","size_from":105,"to_year":1958,"type":"realestate"},{"Location":"Rambergveien 31, Holmestrand","ad_id":258710081,"ad_link":"https://www.finn.no/realestate/homes/ad.html?finnkode=258710081","ad_type":1,"energy_label":7,"from_year":1958,"lat":59.496,"local_area_name":null,"lon":10.3013,"number_of_bedrooms":4,"owner_type_description":"Eier (Selveier)","property_type_description":"Enebolig","size_from":197,"to_year":1958,"type":"realestate"},{"Location":"Skarragata 53, Vestfossen","ad_id":258691953,"ad_link":"https://www.finn.no/realestate/homes/ad.html?finnkode=258691953","ad_type":1,"energy_label":7,"from_year":1958,"lat":59.73375,"local_area_name":null,"lon":9.85428,"number_of_bedrooms":3,"owner_type_description":"Eier (Selveier)","property_type_description":"Enebolig","size_from":126,"to_year":1958,"type":"realestate"},{"Location":"Johan Sverdrups gate 19, Gjøvik","ad_id":258486331,"ad_link":"https://www.finn.no/realestate/homes/ad.html?finnkode=258486331","ad_type":1,"energy_label":7,"from_year":1958,"lat":60.8059,"local_area_name":"NORDBYEN","lon":10.68038,"number_of_bedrooms":5,"owner_type_description":"Eier (Selveier)","property_type_description":"Enebolig","size_from":202,"to_year":1958,"type":"realestate"},{"Location":"Gjøvikvegen 1152, Nordre Toten","ad_id":258411819,"ad_link":"https://www.finn.no/realestate/homes/ad.html?finnkode=258411819","ad_type":1,"energy_label":7,"from_year":1958,"lat":60.76069,"local_area_name":"STEINSJÅ","lon":10.73,"number_of_bedrooms":2,"owner_type_description":"Eier (Selveier)","property_type_description":"Enebolig","size_from":180,"to_year":1958,"type":"realestate"},{"Location":"Valvatnavegen 57, Sagvåg","ad_id":212334295,"ad_link":"https://www.finn.no/realestate/homes/ad.html?finnkode=212334295","ad_type":1,"energy_label":7,"from_year":1958,"lat":59.7667,"local_area_name":"Valvatna","lon":5.4275,"number_of_bedrooms":4,"owner_type_description":"Eier (Selveier)","property_type_description":"Enebolig","size_from":221,"to_year":1958,"type":"realestate"},{"Location":"Krokemoveien 151, Sandefjord","ad_id":257846316,"ad_link":"https://www.finn.no/realestate/homes/ad.html?finnkode=257846316","ad_type":1,"energy_label":7,"from_year":1958,"lat":59.1331,"local_area_name":"Krokemoa/Bugården","lon":10.1635,"number_of_bedrooms":3,"owner_type_description":"Eier (Selveier)","property_type_description":"Enebolig","size_from":230,"to_year":1958,"type":"realestate"},{"Location":"Steineveien 280, Stamsund","ad_id":257252531,"ad_link":"https://www.finn.no/realestate/homes/ad.html?finnkode=257252531","ad_type":1,"energy_label":7,"from_year":1958,"lat":68.1489,"local_area_name":"Storfjorden/Lofoten","lon":13.7606,"number_of_bedrooms":3,"owner_type_description":"Eier (Selveier)","property_type_description":"Enebolig","size_from":82,"to_year":1958,"type":"realestate"},{"Location":"Kaptein Linges veg 25, Ålesund","ad_id":257363994,"ad_link":"https://www.finn.no/realestate/homes/ad.html?finnkode=257363994","ad_type":1,"energy_label":7,"from_year":1958,"lat":62.46256,"local_area_name":"Skarbøvik","lon":6.12055,"number_of_bedrooms":2,"owner_type_description":"Eier (Selveier)","property_type_description":"Tomannsbolig","size_from":69,"to_year":1958,"type":"realestate"},{"Location":"Kolstien 67, Bergen","ad_id":257031056,"ad_link":"https://www.finn.no/realestate/homes/ad.html?finnkode=257031056","ad_type":1,"energy_label":7,"from_year":1958,"lat":60.35691,"local_area_name":null,"lon":5.37235,"number_of_bedrooms":2,"owner_type_description":"Eier (Selveier)","property_type_description":"Tomannsbolig","size_from":105,"to_year":1958,"type":"realestate"},{"Location":"Vinterbakken 1, Hammerfest","ad_id":257021699,"ad_link":"https://www.finn.no/realestate/homes/ad.html?finnkode=257021699","ad_type":1,"energy_label":7,"from_year":1958,"lat":70.65864,"local_area_name":null,"lon":23.71125,"number_of_bedrooms":3,"owner_type_description":"Eier (Selveier)","property_type_description":"Enebolig","size_from":136,"to_year":1958,"type":"realestate"},{"Location":"Roald Amundsensgate 37, Andenes","ad_id":255417512,"ad_link":"https://www.finn.no/realestate/homes/ad.html?finnkode=255417512","ad_type":1,"energy_label":7,"from_year":1958,"lat":69.3179,"local_area_name":null,"lon":16.11934,"number_of_bedrooms":3,"owner_type_description":"Eier (Selveier)","property_type_description":"Enebolig","size_from":107,"to_year":1958,"type":"realestate"},{"Location":"Skarbøvikgata 4, Ålesund","ad_id":255426737,"ad_link":"https://www.finn.no/realestate/homes/ad.html?finnkode=255426737","ad_type":1,"energy_label":7,"from_year":1958,"lat":62.4697,"local_area_name":"Skarbøvik","lon":6.1132,"number_of_bedrooms":2,"owner_type_description":"Andel","property_type_description":"Leilighet","size_from":67,"to_year":1958,"type":"realestate"},{"Location":"Måkeveien 13, Tønsberg","ad_id":254587589,"ad_link":"https://www.finn.no/realestate/homes/ad.html?finnkode=254587589","ad_type":1,"energy_label":7,"from_year":1958,"lat":59.26389,"local_area_name":null,"lon":10.42702,"number_of_bedrooms":4,"owner_type_description":"Andel","property_type_description":"Leilighet","size_from":108,"to_year":1958,"type":"realestate"},{"Location":"Skriverheia 9, Kragerø","ad_id":252481727,"ad_link":"https://www.finn.no/realestate/homes/ad.html?finnkode=252481727","ad_type":1,"energy_label":7,"from_year":1958,"lat":58.87221,"local_area_name":"SKRIVERHEIA / KRAGERØ","lon":9.41011,"number_of_bedrooms":0,"owner_type_description":"Eier (Selveier)","property_type_description":"Enebolig","size_from":296,"to_year":1958,"type":"realestate"},{"Location":"Folke Bernadottes veg 1, Elverum","ad_id":250646570,"ad_link":"https://www.finn.no/realestate/homes/ad.html?finnkode=250646570","ad_type":1,"energy_label":7,"from_year":1958,"lat":60.87554,"local_area_name":null,"lon":11.5679,"number_of_bedrooms":5,"owner_type_description":"Eier (Selveier)","property_type_description":"Enebolig","size_from":191,"to_year":1958,"type":"realestate"},{"Location":"Tittelsnesvegen 37, Haugesund","ad_id":247688705,"ad_link":"https://www.finn.no/realestate/homes/ad.html?finnkode=247688705","ad_type":1,"energy_label":7,"from_year":1958,"lat":59.42902,"local_area_name":"Gard","lon":5.26489,"number_of_bedrooms":4,"owner_type_description":"Eier (Selveier)","property_type_description":"Enebolig","size_from":125,"to_year":1958,"type":"realestate"},{"Location":"Steinbergveien 17, Kristiansund N","ad_id":228997816,"ad_link":"https://www.finn.no/realestate/homes/ad.html?finnkode=228997816","ad_type":1,"energy_label":7,"from_year":1958,"lat":63.11727,"local_area_name":"Steinberget, Goma, Kristiansund","lon":7.7454,"number_of_bedrooms":3,"owner_type_description":"Andel","property_type_description":"Leilighet","size_from":72,"to_year":1958,"type":"realestate"},{"Location":"Brekkvegen 1227, Aure","ad_id":232768711,"ad_link":"https://www.finn.no/realestate/homes/ad.html?finnkode=232768711","ad_type":1,"energy_label":7,"from_year":1958,"lat":63.32787,"local_area_name":null,"lon":8.70881,"number_of_bedrooms":5,"owner_type_description":"Eier (Selveier)","property_type_description":"Enebolig","size_from":206,"to_year":1958,"type":"realestate"}]