[{"Location":"Svaleveien 1D, Siggerud","ad_id":261475507,"ad_link":"https://www.finn.no/realestate/homes/ad.html?finnkode=261475507","ad_type":1,"energy_label":5,"from_year":1969,"lat":59.79198,"local_area_name":"SIGGERUD","lon":10.88205,"number_of_bedrooms":3,"owner_type_description":"Eier (Selveier)","property_type_description":"Rekkehus","size_from":147,"to_year":1969,"type":"realestate"},{"Location":"Sandvollveien 40A, Klavestadhaugen","ad_id":261350957,"ad_link":"https://www.finn.no/realestate/homes/ad.html?finnkode=261350957","ad_type":1,"energy_label":5,"from_year":1969,"lat":59.2599,"local_area_name":"Klavestadhaugen","lon":11.1796,"number_of_bedrooms":1,"owner_type_description":"Andel","property_type_description":"Leilighet","size_from":42,"to_year":1969,"type":"realestate"},{"Location":"Skogfaret 54, Skedsmokorset","ad_id":260905535,"ad_link":"https://www.finn.no/realestate/homes/ad.html?finnkode=260905535","ad_type":1,"energy_label":5,"from_year":1969,"lat":60.00509,"local_area_name":"Skedsmokorset","lon":11.04407,"number_of_bedrooms":4,"owner_type_description":"Eier (Selveier)","property_type_description":"Enebolig","size_from":227,"to_year":1969,"type":"realestate"},{"Location":"Runevegen 20 B, Steinkjer","ad_id":260751812,"ad_link":"https://www.finn.no/realestate/homes/ad.html?finnkode=260751812","ad_type":1,"energy_label":5,"from_year":1969,"lat":64.02479,"local_area_name":"Eggelia","lon":11.48317,"number_of_bedrooms":2,"owner_type_description":"Andel","property_type_description":"Leilighet","size_from":76,"to_year":1969,"type":"realestate"},{"Location":"Øksnevad ring 35, Klepp stasjon","ad_id":260555495,"ad_link":"https://www.finn.no/realestate/homes/ad.html?finnkode=260555495","ad_type":1,"energy_label":5,"from_year":1969,"lat":58.7856,"local_area_name":null,"lon":5.7109,"number_of_bedrooms":4,"owner_type_description":"Eier (Selveier)","property_type_description":"Enebolig","size_from":183,"to_year":1969,"type":"realestate"},{"Location":"Blåtoppveien 14A, Stavanger","ad_id":260520880,"ad_link":"https://www.finn.no/realestate/homes/ad.html?finnkode=260520880","ad_type":1,"energy_label":5,"from_year":1969,"lat":58.9385,"local_area_name":"Kristianslyst","lon":5.7373,"number_of_bedrooms":2,"owner_type_description":"Eier (Selveier)","property_type_description":"Leilighet","size_from":64,"to_year":1969,"type":"realestate"},{"Location":"Dag Hammarskjölds vei 39, Fyllingsdalen","ad_id":259129821,"ad_link":"https://www.finn.no/realestate/homes/ad.html?finnkode=259129821","ad_type":1,"energy_label":5,"from_year":1969,"lat":60.3547,"local_area_name":null,"lon":5.2984,"number_of_bedrooms":2,"owner_type_description":"Andel","property_type_description":"Leilighet","size_from":78,"to_year":1969,"type":"realestate"},{"Location":"Nordre Hagavei 19, Larvik","ad_id":257356583,"ad_link":"https://www.finn.no/realestate/homes/ad.html?finnkode=257356583","ad_type":1,"energy_label":5,"from_year":1969,"lat":59.0771,"local_area_name":"Hagalia","lon":10.0538,"number_of_bedrooms":3,"owner_type_description":"Eier (Selveier)","property_type_description":"Enebolig","size_from":185,"to_year":1969,"type":"realestate"},{"Location":"TJERNSLIVEIEN 24, Sollihøgda","ad_id":227970568,"ad_link":"https://www.finn.no/realestate/homes/ad.html?finnkode=227970568","ad_type":1,"energy_label":5,"from_year":1969,"lat":59.96063,"local_area_name":null,"lon":10.34684,"number_of_bedrooms":5,"owner_type_description":"Eier (Selveier)","property_type_description":"Enebolig","size_from":452,"to_year":1969,"type":"realestate"}]