[{"Location":"Bokfinken 12B, Drøbak","ad_id":261505618,"ad_link":"https://www.finn.no/realestate/homes/ad.html?finnkode=261505618","ad_type":1,"energy_label":3,"from_year":1998,"lat":59.6654,"local_area_name":"DRØBAK/SKORKEBERG","lon":10.6565,"number_of_bedrooms":2,"owner_type_description":"Eier (Selveier)","property_type_description":"Leilighet","size_from":72,"to_year":1998,"type":"realestate"},{"Location":"Heimtrøa 4 A, Ranheim","ad_id":261461736,"ad_link":"https://www.finn.no/realestate/homes/ad.html?finnkode=261461736","ad_type":1,"energy_label":3,"from_year":1998,"lat":63.41843,"local_area_name":"Ranheim/Reppe","lon":10.54163,"number_of_bedrooms":3,"owner_type_description":"Andel","property_type_description":"Leilighet","size_from":92,"to_year":1998,"type":"realestate"},{"Location":"Andersrudveien 42B, Ytre Enebakk","ad_id":260994052,"ad_link":"https://www.finn.no/realestate/homes/ad.html?finnkode=260994052","ad_type":1,"energy_label":3,"from_year":1998,"lat":59.77152,"local_area_name":"YTRE ENEBAKK","lon":10.98842,"number_of_bedrooms":3,"owner_type_description":"Eier (Selveier)","property_type_description":"Enebolig","size_from":147,"to_year":1998,"type":"realestate"},{"Location":"Sløssåsveien 48, Ytre Enebakk","ad_id":257373323,"ad_link":"https://www.finn.no/realestate/homes/ad.html?finnkode=257373323","ad_type":1,"energy_label":3,"from_year":1998,"lat":59.74067,"local_area_name":null,"lon":11.02425,"number_of_bedrooms":6,"owner_type_description":"Eier (Selveier)","property_type_description":"Enebolig","size_from":242,"to_year":1998,"type":"realestate"},{"Location":"Rådhusgata 6, Drammen","ad_id":260659346,"ad_link":"https://www.finn.no/realestate/homes/ad.html?finnkode=260659346","ad_type":1,"energy_label":3,"from_year":1998,"lat":59.7456,"local_area_name":"Bragernes sentralt/Torget vest","lon":10.2031,"number_of_bedrooms":2,"owner_type_description":"Andel","property_type_description":"Leilighet","size_from":82,"to_year":1998,"type":"realestate"},{"Location":"Daleveien 73A, Sandnes","ad_id":260777183,"ad_link":"https://www.finn.no/realestate/homes/ad.html?finnkode=260777183","ad_type":1,"energy_label":3,"from_year":1998,"lat":58.85979,"local_area_name":"Hana/Rovika","lon":5.75511,"number_of_bedrooms":3,"owner_type_description":"Eier (Selveier)","property_type_description":"Enebolig","size_from":106,"to_year":1998,"type":"realestate"},{"Location":"Eikåsveien 1, Nesodden","ad_id":260645738,"ad_link":"https://www.finn.no/realestate/homes/ad.html?finnkode=260645738","ad_type":1,"energy_label":3,"from_year":1998,"lat":59.832,"local_area_name":"Berger","lon":10.6795,"number_of_bedrooms":3,"owner_type_description":"Eier (Selveier)","property_type_description":"Enebolig","size_from":111,"to_year":1998,"type":"realestate"},{"Location":"Kleiverhagen 19, Larvik","ad_id":256997902,"ad_link":"https://www.finn.no/realestate/homes/ad.html?finnkode=256997902","ad_type":1,"energy_label":3,"from_year":1998,"lat":59.05154,"local_area_name":null,"lon":9.9827,"number_of_bedrooms":0,"owner_type_description":"Andel","property_type_description":"Enebolig","size_from":108,"to_year":1998,"type":"realestate"},{"Location":"Nerstranda 35, Tromsø","ad_id":258564969,"ad_link":"https://www.finn.no/realestate/homes/ad.html?finnkode=258564969","ad_type":1,"energy_label":3,"from_year":1998,"lat":69.6467,"local_area_name":"NERSTRANDA KJØPESENTER","lon":18.9543,"number_of_bedrooms":2,"owner_type_description":"Eier (Selveier)","property_type_description":"Leilighet","size_from":96,"to_year":1998,"type":"realestate"},{"Location":"Lotheparkvegen 6, Haugesund","ad_id":254610686,"ad_link":"https://www.finn.no/realestate/homes/ad.html?finnkode=254610686","ad_type":1,"energy_label":3,"from_year":1998,"lat":59.4217,"local_area_name":"Haugesund","lon":5.269,"number_of_bedrooms":6,"owner_type_description":"Eier (Selveier)","property_type_description":"Enebolig","size_from":222,"to_year":1998,"type":"realestate"},{"Location":"Solveien 29 B, Oslo","ad_id":239329925,"ad_link":"https://www.finn.no/realestate/homes/ad.html?finnkode=239329925","ad_type":1,"energy_label":3,"from_year":1998,"lat":59.87832,"local_area_name":"Bekkelaget","lon":10.77888,"number_of_bedrooms":4,"owner_type_description":"Eier (Selveier)","property_type_description":"Enebolig","size_from":305,"to_year":1998,"type":"realestate"}]