[{"Location":"Tangkleiv 5, Skien","ad_id":261468718,"ad_link":"https://www.finn.no/realestate/homes/ad.html?finnkode=261468718","ad_type":1,"energy_label":5,"from_year":1980,"lat":59.1978,"local_area_name":"ÅFOSS - SKIEN","lon":9.5411,"number_of_bedrooms":3,"owner_type_description":"Eier (Selveier)","property_type_description":"Enebolig","size_from":176,"to_year":1980,"type":"realestate"},{"Location":"Hunstadhjulet 14A, Bodø","ad_id":260789393,"ad_link":"https://www.finn.no/realestate/homes/ad.html?finnkode=260789393","ad_type":1,"energy_label":5,"from_year":1980,"lat":67.2784,"local_area_name":"Hunstad","lon":14.4989,"number_of_bedrooms":4,"owner_type_description":"Eier (Selveier)","property_type_description":"Enebolig","size_from":256,"to_year":1980,"type":"realestate"},{"Location":"Steinsoppgrenda 27, Kolsås","ad_id":260787811,"ad_link":"https://www.finn.no/realestate/homes/ad.html?finnkode=260787811","ad_type":1,"energy_label":5,"from_year":1980,"lat":59.9248,"local_area_name":"Etterspurt området på Løkenhavna","lon":10.4992,"number_of_bedrooms":2,"owner_type_description":"Eier (Selveier)","property_type_description":"Leilighet","size_from":86,"to_year":1980,"type":"realestate"},{"Location":"Holmenkollveien 80 A, Oslo","ad_id":261119768,"ad_link":"https://www.finn.no/realestate/homes/ad.html?finnkode=261119768","ad_type":1,"energy_label":5,"from_year":1980,"lat":59.95496,"local_area_name":"Kragskogen / Holmenkollen","lon":10.66449,"number_of_bedrooms":2,"owner_type_description":"Eier (Selveier)","property_type_description":"Leilighet","size_from":88,"to_year":1980,"type":"realestate"},{"Location":"Blåbærstien 33A, Nesoddtangen","ad_id":261018284,"ad_link":"https://www.finn.no/realestate/homes/ad.html?finnkode=261018284","ad_type":1,"energy_label":5,"from_year":1980,"lat":59.8505,"local_area_name":"Blåbærstien / Tangen","lon":10.6702,"number_of_bedrooms":2,"owner_type_description":"Eier (Selveier)","property_type_description":"Rekkehus","size_from":109,"to_year":1980,"type":"realestate"},{"Location":"Langsethvegen 1A, Lillehammer","ad_id":260896751,"ad_link":"https://www.finn.no/realestate/homes/ad.html?finnkode=260896751","ad_type":1,"energy_label":5,"from_year":1980,"lat":61.1063,"local_area_name":"Lillehammer","lon":10.4811,"number_of_bedrooms":3,"owner_type_description":"Eier (Selveier)","property_type_description":"Enebolig","size_from":134,"to_year":1980,"type":"realestate"},{"Location":"Brusemyrtoppen 4A, Borgenhaugen","ad_id":260903110,"ad_link":"https://www.finn.no/realestate/homes/ad.html?finnkode=260903110","ad_type":1,"energy_label":5,"from_year":1980,"lat":59.27327,"local_area_name":"BORGENHAUGEN","lon":11.17523,"number_of_bedrooms":3,"owner_type_description":"Andel","property_type_description":"Rekkehus","size_from":105,"to_year":1980,"type":"realestate"},{"Location":"Stokkandveien 11, Son","ad_id":260778149,"ad_link":"https://www.finn.no/realestate/homes/ad.html?finnkode=260778149","ad_type":1,"energy_label":5,"from_year":1980,"lat":59.5059,"local_area_name":null,"lon":10.6922,"number_of_bedrooms":3,"owner_type_description":"Eier (Selveier)","property_type_description":"Tomannsbolig","size_from":115,"to_year":1980,"type":"realestate"},{"Location":"Sivesindvegen 2, Hunndalen","ad_id":260899471,"ad_link":"https://www.finn.no/realestate/homes/ad.html?finnkode=260899471","ad_type":1,"energy_label":5,"from_year":1980,"lat":60.78229,"local_area_name":null,"lon":10.63688,"number_of_bedrooms":3,"owner_type_description":"Eier (Selveier)","property_type_description":"Enebolig","size_from":138,"to_year":1980,"type":"realestate"},{"Location":"Svartabrotet 5, Hagavik","ad_id":260897041,"ad_link":"https://www.finn.no/realestate/homes/ad.html?finnkode=260897041","ad_type":1,"energy_label":5,"from_year":1980,"lat":60.17422,"local_area_name":null,"lon":5.4149,"number_of_bedrooms":4,"owner_type_description":"Eier (Selveier)","property_type_description":"Enebolig","size_from":153,"to_year":1980,"type":"realestate"},{"Location":"Kristiansands gate 12C, Oslo","ad_id":260782361,"ad_link":"https://www.finn.no/realestate/homes/ad.html?finnkode=260782361","ad_type":1,"energy_label":5,"from_year":1980,"lat":59.93887,"local_area_name":"SAGENE","lon":10.75363,"number_of_bedrooms":3,"owner_type_description":"Andel","property_type_description":"Leilighet","size_from":100,"to_year":1980,"type":"realestate"},{"Location":"Holtan 10, Bodø","ad_id":260890001,"ad_link":"https://www.finn.no/realestate/homes/ad.html?finnkode=260890001","ad_type":1,"energy_label":5,"from_year":1980,"lat":67.3065,"local_area_name":"Skivika","lon":14.4383,"number_of_bedrooms":6,"owner_type_description":"Eier (Selveier)","property_type_description":"Enebolig","size_from":238,"to_year":1980,"type":"realestate"},{"Location":"Stjerneveien 8A, Nittedal","ad_id":259750384,"ad_link":"https://www.finn.no/realestate/homes/ad.html?finnkode=259750384","ad_type":1,"energy_label":5,"from_year":1980,"lat":60.0608,"local_area_name":null,"lon":10.8677,"number_of_bedrooms":5,"owner_type_description":"Eier (Selveier)","property_type_description":"Enebolig","size_from":202,"to_year":1980,"type":"realestate"},{"Location":"Toravegen 3, Tornes i Romsdal","ad_id":260787374,"ad_link":"https://www.finn.no/realestate/homes/ad.html?finnkode=260787374","ad_type":1,"energy_label":5,"from_year":1980,"lat":62.8427,"local_area_name":null,"lon":7.0425,"number_of_bedrooms":4,"owner_type_description":"Eier (Selveier)","property_type_description":"Enebolig","size_from":185,"to_year":1980,"type":"realestate"},{"Location":"Lotheveien 7, Bergen","ad_id":260774407,"ad_link":"https://www.finn.no/realestate/homes/ad.html?finnkode=260774407","ad_type":1,"energy_label":5,"from_year":1980,"lat":60.37967,"local_area_name":"Damsgårdssundet","lon":5.32199,"number_of_bedrooms":1,"owner_type_description":"Andel","property_type_description":"Leilighet","size_from":56,"to_year":1980,"type":"realestate"},{"Location":"Thorsheimveien 52, Alvdal","ad_id":260019917,"ad_link":"https://www.finn.no/realestate/homes/ad.html?finnkode=260019917","ad_type":1,"energy_label":5,"from_year":1980,"lat":62.1116,"local_area_name":null,"lon":10.6386,"number_of_bedrooms":5,"owner_type_description":"Eier (Selveier)","property_type_description":"Enebolig","size_from":267,"to_year":1980,"type":"realestate"},{"Location":"Havreveien 82F, Kristiansand S","ad_id":260711987,"ad_link":"https://www.finn.no/realestate/homes/ad.html?finnkode=260711987","ad_type":1,"energy_label":5,"from_year":1980,"lat":58.1822,"local_area_name":"Hånes","lon":8.0921,"number_of_bedrooms":3,"owner_type_description":"Andel","property_type_description":"Tomannsbolig","size_from":115,"to_year":1980,"type":"realestate"},{"Location":"Viuvegen 8, Ilseng","ad_id":260244746,"ad_link":"https://www.finn.no/realestate/homes/ad.html?finnkode=260244746","ad_type":1,"energy_label":5,"from_year":1980,"lat":60.7765,"local_area_name":"ILSENG","lon":11.2311,"number_of_bedrooms":4,"owner_type_description":"Eier (Selveier)","property_type_description":"Enebolig","size_from":207,"to_year":1980,"type":"realestate"},{"Location":"Nordsetergrenda 1A, Oslo","ad_id":260521518,"ad_link":"https://www.finn.no/realestate/homes/ad.html?finnkode=260521518","ad_type":1,"energy_label":5,"from_year":1980,"lat":59.8711,"local_area_name":"Nordseter/Nordstrand","lon":10.7984,"number_of_bedrooms":1,"owner_type_description":"Andel","property_type_description":"Leilighet","size_from":45,"to_year":1980,"type":"realestate"},{"Location":"Alkeveien 1, Brønnøysund","ad_id":260521246,"ad_link":"https://www.finn.no/realestate/homes/ad.html?finnkode=260521246","ad_type":1,"energy_label":5,"from_year":1980,"lat":65.45763,"local_area_name":null,"lon":12.19639,"number_of_bedrooms":3,"owner_type_description":"Eier (Selveier)","property_type_description":"Enebolig","size_from":198,"to_year":1980,"type":"realestate"},{"Location":"Nordsidevegen 736 og 738, Isfjorden","ad_id":260504003,"ad_link":"https://www.finn.no/realestate/homes/ad.html?finnkode=260504003","ad_type":1,"energy_label":5,"from_year":1980,"lat":62.577,"local_area_name":"Isfjorden","lon":7.76843,"number_of_bedrooms":4,"owner_type_description":"Eier (Selveier)","property_type_description":"Enebolig","size_from":176,"to_year":1980,"type":"realestate"},{"Location":"Nedre Holen 11F, Ålesund","ad_id":260438539,"ad_link":"https://www.finn.no/realestate/homes/ad.html?finnkode=260438539","ad_type":1,"energy_label":5,"from_year":1980,"lat":62.4675,"local_area_name":null,"lon":6.3704,"number_of_bedrooms":4,"owner_type_description":"Eier (Selveier)","property_type_description":"Enebolig","size_from":160,"to_year":1980,"type":"realestate"},{"Location":"Eikremsvegen 94, Mauseidvåg","ad_id":260338578,"ad_link":"https://www.finn.no/realestate/homes/ad.html?finnkode=260338578","ad_type":1,"energy_label":5,"from_year":1980,"lat":62.40942,"local_area_name":null,"lon":6.25466,"number_of_bedrooms":4,"owner_type_description":"Eier (Selveier)","property_type_description":"Enebolig","size_from":268,"to_year":1980,"type":"realestate"},{"Location":"Nordsetergrenda 1A, Oslo","ad_id":259996331,"ad_link":"https://www.finn.no/realestate/homes/ad.html?finnkode=259996331","ad_type":1,"energy_label":5,"from_year":1980,"lat":59.8711,"local_area_name":"Nordstrand","lon":10.7984,"number_of_bedrooms":1,"owner_type_description":"Andel","property_type_description":"Leilighet","size_from":53,"to_year":1980,"type":"realestate"},{"Location":"Flaktveitgeila 1, Flaktveit","ad_id":260048294,"ad_link":"https://www.finn.no/realestate/homes/ad.html?finnkode=260048294","ad_type":1,"energy_label":5,"from_year":1980,"lat":60.46586,"local_area_name":null,"lon":5.35879,"number_of_bedrooms":5,"owner_type_description":"Eier (Selveier)","property_type_description":"Enebolig","size_from":259,"to_year":1980,"type":"realestate"},{"Location":"Rømmesveien 277, Lysøysundet","ad_id":260046737,"ad_link":"https://www.finn.no/realestate/homes/ad.html?finnkode=260046737","ad_type":1,"energy_label":5,"from_year":1980,"lat":63.87389,"local_area_name":"Bjugn/Lysøysund","lon":9.84303,"number_of_bedrooms":3,"owner_type_description":"Eier (Selveier)","property_type_description":"Enebolig","size_from":177,"to_year":1980,"type":"realestate"},{"Location":"Lilleenget 8D, Namsos","ad_id":259738661,"ad_link":"https://www.finn.no/realestate/homes/ad.html?finnkode=259738661","ad_type":1,"energy_label":5,"from_year":1980,"lat":64.47944,"local_area_name":"Fossbrenna","lon":11.53429,"number_of_bedrooms":3,"owner_type_description":"Andel","property_type_description":"Leilighet","size_from":118,"to_year":1980,"type":"realestate"},{"Location":"Kolåshøyen 36, Flaktveit","ad_id":259571556,"ad_link":"https://www.finn.no/realestate/homes/ad.html?finnkode=259571556","ad_type":1,"energy_label":5,"from_year":1980,"lat":60.462,"local_area_name":null,"lon":5.3591,"number_of_bedrooms":3,"owner_type_description":"Eier (Selveier)","property_type_description":"Tomannsbolig","size_from":154,"to_year":1980,"type":"realestate"},{"Location":"Åskanten 8, Dilling","ad_id":259504279,"ad_link":"https://www.finn.no/realestate/homes/ad.html?finnkode=259504279","ad_type":1,"energy_label":5,"from_year":1980,"lat":59.38873,"local_area_name":"FUGLEVIK / DILLING","lon":10.65657,"number_of_bedrooms":3,"owner_type_description":"Eier (Selveier)","property_type_description":"Enebolig","size_from":257,"to_year":1980,"type":"realestate"},{"Location":"Tryms veg 2A, Levanger","ad_id":255652886,"ad_link":"https://www.finn.no/realestate/homes/ad.html?finnkode=255652886","ad_type":1,"energy_label":5,"from_year":1980,"lat":63.7528,"local_area_name":"Nesset.","lon":11.26463,"number_of_bedrooms":3,"owner_type_description":"Andel","property_type_description":"Leilighet","size_from":94,"to_year":1980,"type":"realestate"},{"Location":"Overlege Bratts veg 52, Trondheim","ad_id":258209170,"ad_link":"https://www.finn.no/realestate/homes/ad.html?finnkode=258209170","ad_type":1,"energy_label":5,"from_year":1980,"lat":63.38889,"local_area_name":"Nilsbyen / Byåsen","lon":10.32387,"number_of_bedrooms":4,"owner_type_description":"Eier (Selveier)","property_type_description":"Tomannsbolig","size_from":252,"to_year":1980,"type":"realestate"},{"Location":"Ekebergveien 208, Oslo","ad_id":250120133,"ad_link":"https://www.finn.no/realestate/homes/ad.html?finnkode=250120133","ad_type":1,"energy_label":5,"from_year":1980,"lat":59.86594,"local_area_name":"Nordstrand","lon":10.79594,"number_of_bedrooms":1,"owner_type_description":"Eier (Selveier)","property_type_description":"Leilighet","size_from":37,"to_year":1980,"type":"realestate"},{"Location":"Tyristubben 6, Skogbygda","ad_id":258074240,"ad_link":"https://www.finn.no/realestate/homes/ad.html?finnkode=258074240","ad_type":1,"energy_label":5,"from_year":1980,"lat":60.23056,"local_area_name":null,"lon":11.52392,"number_of_bedrooms":4,"owner_type_description":"Eier (Selveier)","property_type_description":"Enebolig","size_from":225,"to_year":1980,"type":"realestate"},{"Location":"Nedre Kolsberggrend 4, Kolsås","ad_id":257762800,"ad_link":"https://www.finn.no/realestate/homes/ad.html?finnkode=257762800","ad_type":1,"energy_label":5,"from_year":1980,"lat":59.91458,"local_area_name":null,"lon":10.5025,"number_of_bedrooms":0,"owner_type_description":"Eier (Selveier)","property_type_description":"Leilighet","size_from":48,"to_year":1980,"type":"realestate"},{"Location":"Lensbygdavegen 468, Skreia","ad_id":255320561,"ad_link":"https://www.finn.no/realestate/homes/ad.html?finnkode=255320561","ad_type":1,"energy_label":5,"from_year":1980,"lat":60.6397,"local_area_name":"Lensbygda","lon":10.8644,"number_of_bedrooms":2,"owner_type_description":"Eier (Selveier)","property_type_description":"Enebolig","size_from":137,"to_year":1980,"type":"realestate"},{"Location":"Omborsnesveien 18, Stathelle","ad_id":257244775,"ad_link":"https://www.finn.no/realestate/homes/ad.html?finnkode=257244775","ad_type":1,"energy_label":5,"from_year":1980,"lat":59.0443,"local_area_name":"Bamble - Rugtvedtmyra","lon":9.67,"number_of_bedrooms":3,"owner_type_description":"Eier (Selveier)","property_type_description":"Enebolig","size_from":129,"to_year":1980,"type":"realestate"},{"Location":"Liadalsveien 39, Oslo","ad_id":256716949,"ad_link":"https://www.finn.no/realestate/homes/ad.html?finnkode=256716949","ad_type":1,"energy_label":5,"from_year":1980,"lat":59.8482,"local_area_name":"Ljan | Nordstrand","lon":10.79118,"number_of_bedrooms":2,"owner_type_description":"Eier (Selveier)","property_type_description":"Leilighet","size_from":99,"to_year":1980,"type":"realestate"},{"Location":"Skrenten 19b, Molde","ad_id":255456792,"ad_link":"https://www.finn.no/realestate/homes/ad.html?finnkode=255456792","ad_type":1,"energy_label":5,"from_year":1980,"lat":62.7355,"local_area_name":null,"lon":7.096,"number_of_bedrooms":1,"owner_type_description":"Andel","property_type_description":"Leilighet","size_from":37,"to_year":1980,"type":"realestate"},{"Location":"Vågedalen 35, Laksevåg","ad_id":251453247,"ad_link":"https://www.finn.no/realestate/homes/ad.html?finnkode=251453247","ad_type":1,"energy_label":5,"from_year":1980,"lat":60.3874,"local_area_name":null,"lon":5.2866,"number_of_bedrooms":1,"owner_type_description":"Andel","property_type_description":"Leilighet","size_from":41,"to_year":1980,"type":"realestate"},{"Location":"Kvennvegen 21, Lesja","ad_id":250106956,"ad_link":"https://www.finn.no/realestate/homes/ad.html?finnkode=250106956","ad_type":1,"energy_label":5,"from_year":1980,"lat":62.0882,"local_area_name":null,"lon":9.0978,"number_of_bedrooms":4,"owner_type_description":"Eier (Selveier)","property_type_description":"Enebolig","size_from":156,"to_year":1980,"type":"realestate"},{"Location":"Moldbergsvegen 29, Søre Osen","ad_id":221657073,"ad_link":"https://www.finn.no/realestate/homes/ad.html?finnkode=221657073","ad_type":1,"energy_label":5,"from_year":1980,"lat":61.2236,"local_area_name":"SØRE OSEN","lon":11.82256,"number_of_bedrooms":3,"owner_type_description":"Eier (Selveier)","property_type_description":"Enebolig","size_from":123,"to_year":1980,"type":"realestate"},{"Location":"Haugveien 9, Hattfjelldal","ad_id":224593557,"ad_link":"https://www.finn.no/realestate/homes/ad.html?finnkode=224593557","ad_type":1,"energy_label":5,"from_year":1980,"lat":65.5915,"local_area_name":"Hattfjelldal","lon":14.00394,"number_of_bedrooms":4,"owner_type_description":"Eier (Selveier)","property_type_description":"Enebolig","size_from":154,"to_year":1980,"type":"realestate"}]