[{"Location":"Hegglia 3 B, Levanger","ad_id":261448458,"ad_link":"https://www.finn.no/realestate/homes/ad.html?finnkode=261448458","ad_type":1,"energy_label":2,"from_year":2016,"lat":63.74917,"local_area_name":null,"lon":11.28534,"number_of_bedrooms":2,"owner_type_description":"Eier (Selveier)","property_type_description":"Tomannsbolig","size_from":94,"to_year":2016,"type":"realestate"},{"Location":"Vesterålsgata 47 B, Sortland","ad_id":260685108,"ad_link":"https://www.finn.no/realestate/homes/ad.html?finnkode=260685108","ad_type":1,"energy_label":2,"from_year":2016,"lat":68.70257,"local_area_name":"SORTLAND SENTRALT","lon":15.41259,"number_of_bedrooms":2,"owner_type_description":"Eier (Selveier)","property_type_description":"Leilighet","size_from":67,"to_year":2016,"type":"realestate"},{"Location":"Sørengkaia 33, Oslo","ad_id":261091473,"ad_link":"https://www.finn.no/realestate/homes/ad.html?finnkode=261091473","ad_type":1,"energy_label":2,"from_year":2016,"lat":59.9035,"local_area_name":"Sørenga","lon":10.756,"number_of_bedrooms":1,"owner_type_description":"Eier (Selveier)","property_type_description":"Leilighet","size_from":49,"to_year":2016,"type":"realestate"},{"Location":"Ferjmannskroken 21 B, Svorkmo","ad_id":261317556,"ad_link":"https://www.finn.no/realestate/homes/ad.html?finnkode=261317556","ad_type":1,"energy_label":2,"from_year":2016,"lat":63.19827,"local_area_name":"Vormstad","lon":9.77334,"number_of_bedrooms":3,"owner_type_description":"Eier (Selveier)","property_type_description":"Tomannsbolig","size_from":101,"to_year":2016,"type":"realestate"},{"Location":"Økern torgvei 16, Oslo","ad_id":261065597,"ad_link":"https://www.finn.no/realestate/homes/ad.html?finnkode=261065597","ad_type":1,"energy_label":2,"from_year":2016,"lat":59.9346,"local_area_name":"Nybyen Økern","lon":10.8067,"number_of_bedrooms":1,"owner_type_description":"Eier (Selveier)","property_type_description":"Leilighet","size_from":40,"to_year":2016,"type":"realestate"},{"Location":"Lørenvangen 32, Oslo","ad_id":260909458,"ad_link":"https://www.finn.no/realestate/homes/ad.html?finnkode=260909458","ad_type":1,"energy_label":2,"from_year":2016,"lat":59.9319,"local_area_name":"LØREN","lon":10.7966,"number_of_bedrooms":1,"owner_type_description":"Andel","property_type_description":"Leilighet","size_from":44,"to_year":2016,"type":"realestate"},{"Location":"Sørlia 12 B, Levanger","ad_id":260970216,"ad_link":"https://www.finn.no/realestate/homes/ad.html?finnkode=260970216","ad_type":1,"energy_label":2,"from_year":2016,"lat":63.7368,"local_area_name":null,"lon":11.25303,"number_of_bedrooms":2,"owner_type_description":"Andel","property_type_description":"Leilighet","size_from":70,"to_year":2016,"type":"realestate"},{"Location":"Sagaveien 43A, Ås","ad_id":260790406,"ad_link":"https://www.finn.no/realestate/homes/ad.html?finnkode=260790406","ad_type":1,"energy_label":2,"from_year":2016,"lat":59.6575,"local_area_name":"Ås sentrum","lon":10.7909,"number_of_bedrooms":3,"owner_type_description":"Eier (Selveier)","property_type_description":"Enebolig","size_from":144,"to_year":2016,"type":"realestate"},{"Location":"Hans Nordahls gate 62, Oslo","ad_id":258075723,"ad_link":"https://www.finn.no/realestate/homes/ad.html?finnkode=258075723","ad_type":1,"energy_label":2,"from_year":2016,"lat":59.9418,"local_area_name":"Grefsen Stasjon","lon":10.7794,"number_of_bedrooms":3,"owner_type_description":"Eier (Selveier)","property_type_description":"Leilighet","size_from":96,"to_year":2016,"type":"realestate"},{"Location":"Fjørevegen 18D, Sogndal","ad_id":260914396,"ad_link":"https://www.finn.no/realestate/homes/ad.html?finnkode=260914396","ad_type":1,"energy_label":2,"from_year":2016,"lat":61.2316,"local_area_name":null,"lon":7.10563,"number_of_bedrooms":1,"owner_type_description":"Eier (Selveier)","property_type_description":"Leilighet","size_from":59,"to_year":2016,"type":"realestate"},{"Location":"Sørjordet 65, Stange","ad_id":260899914,"ad_link":"https://www.finn.no/realestate/homes/ad.html?finnkode=260899914","ad_type":1,"energy_label":2,"from_year":2016,"lat":60.71423,"local_area_name":"STANGE","lon":11.21049,"number_of_bedrooms":1,"owner_type_description":"Eier (Selveier)","property_type_description":"Leilighet","size_from":40,"to_year":2016,"type":"realestate"},{"Location":"Elgestien 18E, Horten","ad_id":260878923,"ad_link":"https://www.finn.no/realestate/homes/ad.html?finnkode=260878923","ad_type":1,"energy_label":2,"from_year":2016,"lat":59.4219,"local_area_name":"Horten/Holtandalen","lon":10.4546,"number_of_bedrooms":3,"owner_type_description":"Eier (Selveier)","property_type_description":"Tomannsbolig","size_from":94,"to_year":2016,"type":"realestate"},{"Location":"Kunnskapsveien 85, Spikkestad","ad_id":260762273,"ad_link":"https://www.finn.no/realestate/homes/ad.html?finnkode=260762273","ad_type":1,"energy_label":2,"from_year":2016,"lat":59.7512,"local_area_name":"NÆR SPIKKESTAD SENTRUM","lon":10.337,"number_of_bedrooms":3,"owner_type_description":"Eier (Selveier)","property_type_description":"Leilighet","size_from":94,"to_year":2016,"type":"realestate"},{"Location":"Garsosveien 14, Svolvær","ad_id":260642696,"ad_link":"https://www.finn.no/realestate/homes/ad.html?finnkode=260642696","ad_type":1,"energy_label":2,"from_year":2016,"lat":68.24544,"local_area_name":null,"lon":14.5724,"number_of_bedrooms":6,"owner_type_description":"Eier (Selveier)","property_type_description":"Tomannsbolig","size_from":194,"to_year":2016,"type":"realestate"},{"Location":"Sannervegen 7B, Stange","ad_id":260782883,"ad_link":"https://www.finn.no/realestate/homes/ad.html?finnkode=260782883","ad_type":1,"energy_label":2,"from_year":2016,"lat":60.7228,"local_area_name":"STANGE","lon":11.19399,"number_of_bedrooms":2,"owner_type_description":"Eier (Selveier)","property_type_description":"Leilighet","size_from":80,"to_year":2016,"type":"realestate"},{"Location":"Otto Sverdrups vei 15E, Fjellhamar","ad_id":260704532,"ad_link":"https://www.finn.no/realestate/homes/ad.html?finnkode=260704532","ad_type":1,"energy_label":2,"from_year":2016,"lat":59.94199,"local_area_name":"Bo attraktivt på Haneborglia/Fjellhamar","lon":10.96975,"number_of_bedrooms":4,"owner_type_description":"Eier (Selveier)","property_type_description":"Tomannsbolig","size_from":206,"to_year":2016,"type":"realestate"},{"Location":"Turistveien 65, Tiller","ad_id":259790471,"ad_link":"https://www.finn.no/realestate/homes/ad.html?finnkode=259790471","ad_type":1,"energy_label":2,"from_year":2016,"lat":63.3806,"local_area_name":"Kroppanmarka","lon":10.3929,"number_of_bedrooms":3,"owner_type_description":"Eier (Selveier)","property_type_description":"Tomannsbolig","size_from":125,"to_year":2016,"type":"realestate"},{"Location":"Fossbekkveien 33, Lillesand","ad_id":260535906,"ad_link":"https://www.finn.no/realestate/homes/ad.html?finnkode=260535906","ad_type":1,"energy_label":2,"from_year":2016,"lat":58.2411,"local_area_name":null,"lon":8.3732,"number_of_bedrooms":2,"owner_type_description":"Eier (Selveier)","property_type_description":"Leilighet","size_from":68,"to_year":2016,"type":"realestate"},{"Location":"Hulderveien 11, Stjørdal","ad_id":260643715,"ad_link":"https://www.finn.no/realestate/homes/ad.html?finnkode=260643715","ad_type":1,"energy_label":2,"from_year":2016,"lat":63.47603,"local_area_name":null,"lon":10.95648,"number_of_bedrooms":3,"owner_type_description":"Eier (Selveier)","property_type_description":"Tomannsbolig","size_from":94,"to_year":2016,"type":"realestate"},{"Location":"Strandavegen 114, Bryggja","ad_id":260629094,"ad_link":"https://www.finn.no/realestate/homes/ad.html?finnkode=260629094","ad_type":1,"energy_label":2,"from_year":2016,"lat":61.93823,"local_area_name":null,"lon":5.42921,"number_of_bedrooms":2,"owner_type_description":"Eier (Selveier)","property_type_description":"Leilighet","size_from":73,"to_year":2016,"type":"realestate"},{"Location":"Mindes vei 4B, Hønefoss","ad_id":260574433,"ad_link":"https://www.finn.no/realestate/homes/ad.html?finnkode=260574433","ad_type":1,"energy_label":2,"from_year":2016,"lat":60.17217,"local_area_name":"STORLØKKA","lon":10.25225,"number_of_bedrooms":2,"owner_type_description":"Eier (Selveier)","property_type_description":"Leilighet","size_from":60,"to_year":2016,"type":"realestate"},{"Location":"Stokkbekken 135, Trondheim","ad_id":260561843,"ad_link":"https://www.finn.no/realestate/homes/ad.html?finnkode=260561843","ad_type":1,"energy_label":2,"from_year":2016,"lat":63.41429,"local_area_name":"Angelltrøa","lon":10.48188,"number_of_bedrooms":1,"owner_type_description":"Eier (Selveier)","property_type_description":"Leilighet","size_from":28,"to_year":2016,"type":"realestate"},{"Location":"Tangflatavegen 17, Buvika","ad_id":260437203,"ad_link":"https://www.finn.no/realestate/homes/ad.html?finnkode=260437203","ad_type":1,"energy_label":2,"from_year":2016,"lat":63.31257,"local_area_name":"Buvika","lon":10.18512,"number_of_bedrooms":3,"owner_type_description":"Eier (Selveier)","property_type_description":"Rekkehus","size_from":104,"to_year":2016,"type":"realestate"},{"Location":"Nordbråtan 5, Hokksund","ad_id":257886425,"ad_link":"https://www.finn.no/realestate/homes/ad.html?finnkode=257886425","ad_type":1,"energy_label":2,"from_year":2016,"lat":59.7838,"local_area_name":"Harakollen","lon":9.9306,"number_of_bedrooms":3,"owner_type_description":"Eier (Selveier)","property_type_description":"Enebolig","size_from":132,"to_year":2016,"type":"realestate"},{"Location":"Lars Hagerups veg 35, Tromsø","ad_id":260196929,"ad_link":"https://www.finn.no/realestate/homes/ad.html?finnkode=260196929","ad_type":1,"energy_label":2,"from_year":2016,"lat":69.64691,"local_area_name":"Bekkevoll","lon":18.9288,"number_of_bedrooms":6,"owner_type_description":"Eier (Selveier)","property_type_description":"Enebolig","size_from":245,"to_year":2016,"type":"realestate"},{"Location":"Grillstadfjæra 43, Ranheim","ad_id":260399839,"ad_link":"https://www.finn.no/realestate/homes/ad.html?finnkode=260399839","ad_type":1,"energy_label":2,"from_year":2016,"lat":63.43517,"local_area_name":"Grilstad Marina","lon":10.50444,"number_of_bedrooms":1,"owner_type_description":"Eier (Selveier)","property_type_description":"Leilighet","size_from":46,"to_year":2016,"type":"realestate"},{"Location":"Gatuveien 37A, Rygge","ad_id":260396680,"ad_link":"https://www.finn.no/realestate/homes/ad.html?finnkode=260396680","ad_type":1,"energy_label":2,"from_year":2016,"lat":59.37646,"local_area_name":null,"lon":10.75302,"number_of_bedrooms":2,"owner_type_description":"Eier (Selveier)","property_type_description":"Rekkehus","size_from":67,"to_year":2016,"type":"realestate"},{"Location":"Lørenvangen 36, Oslo","ad_id":260054774,"ad_link":"https://www.finn.no/realestate/homes/ad.html?finnkode=260054774","ad_type":1,"energy_label":2,"from_year":2016,"lat":59.9324,"local_area_name":"LØREN/GARTNERLØKKA","lon":10.7971,"number_of_bedrooms":2,"owner_type_description":"Andel","property_type_description":"Leilighet","size_from":74,"to_year":2016,"type":"realestate"},{"Location":"Margrethe Thomsets veg 13, Trondheim","ad_id":260040582,"ad_link":"https://www.finn.no/realestate/homes/ad.html?finnkode=260040582","ad_type":1,"energy_label":2,"from_year":2016,"lat":63.39004,"local_area_name":"Utleir","lon":10.43672,"number_of_bedrooms":1,"owner_type_description":"Eier (Selveier)","property_type_description":"Leilighet","size_from":41,"to_year":2016,"type":"realestate"},{"Location":"Engersand Havn 12, Gullaug","ad_id":260057130,"ad_link":"https://www.finn.no/realestate/homes/ad.html?finnkode=260057130","ad_type":1,"energy_label":2,"from_year":2016,"lat":59.73118,"local_area_name":"Engersand Havn","lon":10.30331,"number_of_bedrooms":2,"owner_type_description":"Andel","property_type_description":"Leilighet","size_from":74,"to_year":2016,"type":"realestate"},{"Location":"Ullagerveien 9A, Oslo","ad_id":259655798,"ad_link":"https://www.finn.no/realestate/homes/ad.html?finnkode=259655798","ad_type":1,"energy_label":2,"from_year":2016,"lat":59.9305,"local_area_name":"Bo godt på Løren!","lon":10.7901,"number_of_bedrooms":2,"owner_type_description":"Eier (Selveier)","property_type_description":"Leilighet","size_from":47,"to_year":2016,"type":"realestate"},{"Location":"Vassbonnveien 10 A, Kolbotn","ad_id":260050185,"ad_link":"https://www.finn.no/realestate/homes/ad.html?finnkode=260050185","ad_type":1,"energy_label":2,"from_year":2016,"lat":59.80357,"local_area_name":"Kolbotn / Ingierodden","lon":10.78225,"number_of_bedrooms":4,"owner_type_description":"Eier (Selveier)","property_type_description":"Tomannsbolig","size_from":130,"to_year":2016,"type":"realestate"},{"Location":"Paulinehagen 6A, Sandnes","ad_id":259850624,"ad_link":"https://www.finn.no/realestate/homes/ad.html?finnkode=259850624","ad_type":1,"energy_label":2,"from_year":2016,"lat":58.8166,"local_area_name":"Ganddal","lon":5.7045,"number_of_bedrooms":4,"owner_type_description":"Eier (Selveier)","property_type_description":"Enebolig","size_from":144,"to_year":2016,"type":"realestate"},{"Location":"Gamle Ridevei 11 A, Harstad","ad_id":259742775,"ad_link":"https://www.finn.no/realestate/homes/ad.html?finnkode=259742775","ad_type":1,"energy_label":2,"from_year":2016,"lat":68.81582,"local_area_name":"Mustapartajordet","lon":16.50581,"number_of_bedrooms":3,"owner_type_description":"Eier (Selveier)","property_type_description":"Tomannsbolig","size_from":95,"to_year":2016,"type":"realestate"},{"Location":"Thunvegen 11, Kapp","ad_id":259947791,"ad_link":"https://www.finn.no/realestate/homes/ad.html?finnkode=259947791","ad_type":1,"energy_label":2,"from_year":2016,"lat":60.71279,"local_area_name":null,"lon":10.86754,"number_of_bedrooms":3,"owner_type_description":"Eier (Selveier)","property_type_description":"Tomannsbolig","size_from":112,"to_year":2016,"type":"realestate"},{"Location":"Nattfiolen 18, Holmestrand","ad_id":259759508,"ad_link":"https://www.finn.no/realestate/homes/ad.html?finnkode=259759508","ad_type":1,"energy_label":2,"from_year":2016,"lat":59.5168,"local_area_name":"Søndre Kleivan","lon":10.2817,"number_of_bedrooms":2,"owner_type_description":"Eier (Selveier)","property_type_description":"Leilighet","size_from":66,"to_year":2016,"type":"realestate"},{"Location":"Nyfundvegen 14 C, Elverum","ad_id":259752152,"ad_link":"https://www.finn.no/realestate/homes/ad.html?finnkode=259752152","ad_type":1,"energy_label":2,"from_year":2016,"lat":60.89425,"local_area_name":null,"lon":11.57744,"number_of_bedrooms":2,"owner_type_description":"Eier (Selveier)","property_type_description":"Leilighet","size_from":56,"to_year":2016,"type":"realestate"},{"Location":"Galterudkvea 16, Lillehammer","ad_id":259747564,"ad_link":"https://www.finn.no/realestate/homes/ad.html?finnkode=259747564","ad_type":1,"energy_label":2,"from_year":2016,"lat":61.08376,"local_area_name":"Søre Ål","lon":10.4892,"number_of_bedrooms":3,"owner_type_description":"Eier (Selveier)","property_type_description":"Leilighet","size_from":111,"to_year":2016,"type":"realestate"},{"Location":"Svehaugen 12D, Sveio","ad_id":220072388,"ad_link":"https://www.finn.no/realestate/homes/ad.html?finnkode=220072388","ad_type":1,"energy_label":2,"from_year":2016,"lat":59.4866,"local_area_name":null,"lon":5.318,"number_of_bedrooms":2,"owner_type_description":"Eier (Selveier)","property_type_description":"Leilighet","size_from":67,"to_year":2016,"type":"realestate"},{"Location":"Eliløkken 17, Børsa","ad_id":259048195,"ad_link":"https://www.finn.no/realestate/homes/ad.html?finnkode=259048195","ad_type":1,"energy_label":2,"from_year":2016,"lat":63.33413,"local_area_name":null,"lon":10.06777,"number_of_bedrooms":2,"owner_type_description":"Eier (Selveier)","property_type_description":"Leilighet","size_from":72,"to_year":2016,"type":"realestate"},{"Location":"Dragsjøvegen 55, Årnes","ad_id":259126432,"ad_link":"https://www.finn.no/realestate/homes/ad.html?finnkode=259126432","ad_type":1,"energy_label":2,"from_year":2016,"lat":60.1071,"local_area_name":"#ÅRNES","lon":11.50327,"number_of_bedrooms":3,"owner_type_description":"Eier (Selveier)","property_type_description":"Enebolig","size_from":166,"to_year":2016,"type":"realestate"},{"Location":"Tømmerlunna 5 B, Tiller","ad_id":259087612,"ad_link":"https://www.finn.no/realestate/homes/ad.html?finnkode=259087612","ad_type":1,"energy_label":2,"from_year":2016,"lat":63.34677,"local_area_name":"Tiller","lon":10.38538,"number_of_bedrooms":4,"owner_type_description":"Eier (Selveier)","property_type_description":"Enebolig","size_from":122,"to_year":2016,"type":"realestate"},{"Location":"Vestlundveien 33, Spydeberg","ad_id":258963903,"ad_link":"https://www.finn.no/realestate/homes/ad.html?finnkode=258963903","ad_type":1,"energy_label":2,"from_year":2016,"lat":59.616,"local_area_name":null,"lon":11.058,"number_of_bedrooms":2,"owner_type_description":"Eier (Selveier)","property_type_description":"Rekkehus","size_from":93,"to_year":2016,"type":"realestate"},{"Location":"Stekervika 55, Straume","ad_id":258716142,"ad_link":"https://www.finn.no/realestate/homes/ad.html?finnkode=258716142","ad_type":1,"energy_label":2,"from_year":2016,"lat":60.3637,"local_area_name":null,"lon":5.1345,"number_of_bedrooms":3,"owner_type_description":"Eier (Selveier)","property_type_description":"Rekkehus","size_from":117,"to_year":2016,"type":"realestate"},{"Location":"Frydenbergveien 2A, Oppegård","ad_id":251738066,"ad_link":"https://www.finn.no/realestate/homes/ad.html?finnkode=251738066","ad_type":1,"energy_label":2,"from_year":2016,"lat":59.7711,"local_area_name":null,"lon":10.80798,"number_of_bedrooms":6,"owner_type_description":"Eier (Selveier)","property_type_description":"Enebolig","size_from":203,"to_year":2016,"type":"realestate"},{"Location":"Lundveien 57A, Fetsund","ad_id":258308874,"ad_link":"https://www.finn.no/realestate/homes/ad.html?finnkode=258308874","ad_type":1,"energy_label":2,"from_year":2016,"lat":59.92702,"local_area_name":"FETSUND","lon":11.13243,"number_of_bedrooms":1,"owner_type_description":"Eier (Selveier)","property_type_description":"Leilighet","size_from":47,"to_year":2016,"type":"realestate"},{"Location":"Berglia 12, Flekkefjord","ad_id":258307071,"ad_link":"https://www.finn.no/realestate/homes/ad.html?finnkode=258307071","ad_type":1,"energy_label":2,"from_year":2016,"lat":58.28487,"local_area_name":null,"lon":6.67686,"number_of_bedrooms":3,"owner_type_description":"Eier (Selveier)","property_type_description":"Leilighet","size_from":86,"to_year":2016,"type":"realestate"},{"Location":"Tandeskogvegen 15, Rudshøgda","ad_id":257764687,"ad_link":"https://www.finn.no/realestate/homes/ad.html?finnkode=257764687","ad_type":1,"energy_label":2,"from_year":2016,"lat":60.9208,"local_area_name":"Rudshøgda","lon":10.8095,"number_of_bedrooms":4,"owner_type_description":"Eier (Selveier)","property_type_description":"Enebolig","size_from":225,"to_year":2016,"type":"realestate"},{"Location":"Myrdalsvegen 30E, Nyborg","ad_id":254206869,"ad_link":"https://www.finn.no/realestate/homes/ad.html?finnkode=254206869","ad_type":1,"energy_label":2,"from_year":2016,"lat":60.4705,"local_area_name":"Horisont","lon":5.3202,"number_of_bedrooms":2,"owner_type_description":"Eier (Selveier)","property_type_description":"Leilighet","size_from":94,"to_year":2016,"type":"realestate"},{"Location":"Vannveien 7, Alta","ad_id":256851743,"ad_link":"https://www.finn.no/realestate/homes/ad.html?finnkode=256851743","ad_type":1,"energy_label":2,"from_year":2016,"lat":69.96258,"local_area_name":null,"lon":23.24424,"number_of_bedrooms":2,"owner_type_description":"Eier (Selveier)","property_type_description":"Leilighet","size_from":67,"to_year":2016,"type":"realestate"},{"Location":"Hystadvegen 58A, Stord","ad_id":256536556,"ad_link":"https://www.finn.no/realestate/homes/ad.html?finnkode=256536556","ad_type":1,"energy_label":2,"from_year":2016,"lat":59.79073,"local_area_name":"HYSTAD","lon":5.51626,"number_of_bedrooms":4,"owner_type_description":"Eier (Selveier)","property_type_description":"Tomannsbolig","size_from":138,"to_year":2016,"type":"realestate"},{"Location":"Skipsbyggergata 36, leil. 203, Mandal","ad_id":256507323,"ad_link":"https://www.finn.no/realestate/homes/ad.html?finnkode=256507323","ad_type":1,"energy_label":2,"from_year":2016,"lat":58.03018,"local_area_name":null,"lon":7.43233,"number_of_bedrooms":2,"owner_type_description":"Eier (Selveier)","property_type_description":"Leilighet","size_from":84,"to_year":2016,"type":"realestate"},{"Location":"Roastrandvegen 2, Ølen","ad_id":256150296,"ad_link":"https://www.finn.no/realestate/homes/ad.html?finnkode=256150296","ad_type":1,"energy_label":2,"from_year":2016,"lat":59.6121,"local_area_name":"Ølen/Roafeltet","lon":5.82,"number_of_bedrooms":3,"owner_type_description":"Eier (Selveier)","property_type_description":"Enebolig","size_from":136,"to_year":2016,"type":"realestate"},{"Location":"Breiløkvegen 15D, Molde","ad_id":254173107,"ad_link":"https://www.finn.no/realestate/homes/ad.html?finnkode=254173107","ad_type":1,"energy_label":2,"from_year":2016,"lat":62.7771,"local_area_name":"HOLLINGEN","lon":6.9822,"number_of_bedrooms":2,"owner_type_description":"Eier (Selveier)","property_type_description":"Leilighet","size_from":69,"to_year":2016,"type":"realestate"},{"Location":"Verkstedveien 2A, Sandefjord","ad_id":252203936,"ad_link":"https://www.finn.no/realestate/homes/ad.html?finnkode=252203936","ad_type":1,"energy_label":2,"from_year":2016,"lat":59.1186,"local_area_name":"Framnes","lon":10.2297,"number_of_bedrooms":2,"owner_type_description":"Eier (Selveier)","property_type_description":"Leilighet","size_from":104,"to_year":2016,"type":"realestate"},{"Location":"Hammerstranda 59, Buvika","ad_id":246334081,"ad_link":"https://www.finn.no/realestate/homes/ad.html?finnkode=246334081","ad_type":1,"energy_label":2,"from_year":2016,"lat":63.31379,"local_area_name":null,"lon":10.16042,"number_of_bedrooms":3,"owner_type_description":"Eier (Selveier)","property_type_description":"Rekkehus","size_from":103,"to_year":2016,"type":"realestate"},{"Location":"Havhestvegen 5, Kvaløya","ad_id":252413462,"ad_link":"https://www.finn.no/realestate/homes/ad.html?finnkode=252413462","ad_type":1,"energy_label":2,"from_year":2016,"lat":69.68613,"local_area_name":"Strand","lon":18.82215,"number_of_bedrooms":3,"owner_type_description":"Eier (Selveier)","property_type_description":"Leilighet","size_from":109,"to_year":2016,"type":"realestate"},{"Location":"Blåbærdalen 46, Kristiansund N","ad_id":251620311,"ad_link":"https://www.finn.no/realestate/homes/ad.html?finnkode=251620311","ad_type":1,"energy_label":2,"from_year":2016,"lat":63.12686,"local_area_name":"Draget","lon":7.80132,"number_of_bedrooms":2,"owner_type_description":"Andel","property_type_description":"Enebolig","size_from":134,"to_year":2016,"type":"realestate"},{"Location":"Linaaes gate 8, Larvik","ad_id":236989595,"ad_link":"https://www.finn.no/realestate/homes/ad.html?finnkode=236989595","ad_type":1,"energy_label":2,"from_year":2016,"lat":59.05241,"local_area_name":null,"lon":10.02533,"number_of_bedrooms":5,"owner_type_description":"Eier (Selveier)","property_type_description":"Leilighet","size_from":241,"to_year":2016,"type":"realestate"},{"Location":"Vikesdalslia 76, Vikeså","ad_id":244578967,"ad_link":"https://www.finn.no/realestate/homes/ad.html?finnkode=244578967","ad_type":1,"energy_label":2,"from_year":2016,"lat":58.6437,"local_area_name":"Vikeså","lon":6.1046,"number_of_bedrooms":5,"owner_type_description":"Eier (Selveier)","property_type_description":"Enebolig","size_from":176,"to_year":2016,"type":"realestate"},{"Location":"Nedre Sørliveg 26, Steinkjer","ad_id":242809676,"ad_link":"https://www.finn.no/realestate/homes/ad.html?finnkode=242809676","ad_type":1,"energy_label":2,"from_year":2016,"lat":63.99609,"local_area_name":null,"lon":11.46803,"number_of_bedrooms":3,"owner_type_description":"Andel","property_type_description":"Leilighet","size_from":69,"to_year":2016,"type":"realestate"},{"Location":"Nedre Sørliveg 26, Steinkjer","ad_id":242633071,"ad_link":"https://www.finn.no/realestate/homes/ad.html?finnkode=242633071","ad_type":1,"energy_label":2,"from_year":2016,"lat":63.99609,"local_area_name":null,"lon":11.46803,"number_of_bedrooms":3,"owner_type_description":"Andel","property_type_description":"Leilighet","size_from":69,"to_year":2016,"type":"realestate"},{"Location":"Hagebyveien 98, Harstad","ad_id":229300409,"ad_link":"https://www.finn.no/realestate/homes/ad.html?finnkode=229300409","ad_type":1,"energy_label":2,"from_year":2016,"lat":68.81684,"local_area_name":null,"lon":16.55313,"number_of_bedrooms":3,"owner_type_description":"Eier (Selveier)","property_type_description":"Leilighet","size_from":94,"to_year":2016,"type":"realestate"},{"Location":"Ingolf Hellands vei 20, Hellvik","ad_id":225807862,"ad_link":"https://www.finn.no/realestate/homes/ad.html?finnkode=225807862","ad_type":1,"energy_label":2,"from_year":2016,"lat":58.4812,"local_area_name":"Kvednabakken","lon":5.8765,"number_of_bedrooms":3,"owner_type_description":"Eier (Selveier)","property_type_description":"Enebolig","size_from":112,"to_year":2016,"type":"realestate"}]