[{"Location":"Helmer Hanssens gate 4C, Stavanger","ad_id":260897128,"ad_link":"https://www.finn.no/realestate/homes/ad.html?finnkode=260897128","ad_type":1,"energy_label":5,"from_year":1958,"lat":58.9491,"local_area_name":"Auglend/Saxemarka","lon":5.7211,"number_of_bedrooms":2,"owner_type_description":"Andel","property_type_description":"Leilighet","size_from":69,"to_year":1958,"type":"realestate"},{"Location":"Ludvig Kristensen Daas veg 4, Namsos","ad_id":260907280,"ad_link":"https://www.finn.no/realestate/homes/ad.html?finnkode=260907280","ad_type":1,"energy_label":5,"from_year":1958,"lat":64.4708,"local_area_name":"Bjørum","lon":11.51704,"number_of_bedrooms":2,"owner_type_description":"Eier (Selveier)","property_type_description":"Leilighet","size_from":66,"to_year":1958,"type":"realestate"},{"Location":"Høghallet 16, Stavanger","ad_id":260900323,"ad_link":"https://www.finn.no/realestate/homes/ad.html?finnkode=260900323","ad_type":1,"energy_label":5,"from_year":1958,"lat":58.9312,"local_area_name":"Øvre Vaulen","lon":5.7276,"number_of_bedrooms":5,"owner_type_description":"Eier (Selveier)","property_type_description":"Enebolig","size_from":256,"to_year":1958,"type":"realestate"},{"Location":"Stavangergata 46A, Oslo","ad_id":260430667,"ad_link":"https://www.finn.no/realestate/homes/ad.html?finnkode=260430667","ad_type":1,"energy_label":5,"from_year":1958,"lat":59.9444,"local_area_name":"Bjølsen","lon":10.7588,"number_of_bedrooms":0,"owner_type_description":"Andel","property_type_description":"Leilighet","size_from":15,"to_year":1958,"type":"realestate"},{"Location":"Ludvig Skattums gate 28C, Gjøvik","ad_id":259150583,"ad_link":"https://www.finn.no/realestate/homes/ad.html?finnkode=259150583","ad_type":1,"energy_label":5,"from_year":1958,"lat":60.80469,"local_area_name":null,"lon":10.67713,"number_of_bedrooms":1,"owner_type_description":"Eier (Selveier)","property_type_description":"Leilighet","size_from":32,"to_year":1958,"type":"realestate"},{"Location":"Elgeseter gate 26 A, Trondheim","ad_id":245315300,"ad_link":"https://www.finn.no/realestate/homes/ad.html?finnkode=245315300","ad_type":1,"energy_label":5,"from_year":1958,"lat":63.41892,"local_area_name":"Øya/Elgeseter","lon":10.3957,"number_of_bedrooms":2,"owner_type_description":"Aksje","property_type_description":"Leilighet","size_from":61,"to_year":1958,"type":"realestate"},{"Location":"Vågavegen 301, Tingvoll","ad_id":253280203,"ad_link":"https://www.finn.no/realestate/homes/ad.html?finnkode=253280203","ad_type":1,"energy_label":5,"from_year":1958,"lat":62.9011,"local_area_name":null,"lon":8.1982,"number_of_bedrooms":4,"owner_type_description":"Eier (Selveier)","property_type_description":"Enebolig","size_from":125,"to_year":1958,"type":"realestate"}]