[{"Location":"Hustruberget 9, Lillehammer","ad_id":261437829,"ad_link":"https://www.finn.no/realestate/homes/ad.html?finnkode=261437829","ad_type":1,"energy_label":6,"from_year":1985,"lat":61.10052,"local_area_name":"Vingnes","lon":10.43242,"number_of_bedrooms":4,"owner_type_description":"Eier (Selveier)","property_type_description":"Enebolig","size_from":212,"to_year":1985,"type":"realestate"},{"Location":"Heireveien 59, Moss","ad_id":256929645,"ad_link":"https://www.finn.no/realestate/homes/ad.html?finnkode=256929645","ad_type":1,"energy_label":6,"from_year":1985,"lat":59.42532,"local_area_name":"#ØREÅSEN/MOSS","lon":10.69354,"number_of_bedrooms":2,"owner_type_description":"Andel","property_type_description":"Leilighet","size_from":66,"to_year":1985,"type":"realestate"},{"Location":"Kittilsvegen 22, Ål","ad_id":260956152,"ad_link":"https://www.finn.no/realestate/homes/ad.html?finnkode=260956152","ad_type":1,"energy_label":6,"from_year":1985,"lat":60.6249,"local_area_name":"Vestlia","lon":8.567,"number_of_bedrooms":4,"owner_type_description":"Eier (Selveier)","property_type_description":"Enebolig","size_from":145,"to_year":1985,"type":"realestate"},{"Location":"Einerveien 22, Langhus","ad_id":260908021,"ad_link":"https://www.finn.no/realestate/homes/ad.html?finnkode=260908021","ad_type":1,"energy_label":6,"from_year":1985,"lat":59.7655,"local_area_name":null,"lon":10.8503,"number_of_bedrooms":3,"owner_type_description":"Eier (Selveier)","property_type_description":"Enebolig","size_from":119,"to_year":1985,"type":"realestate"},{"Location":"Redaktør Baggethuns vei 23, Horten","ad_id":261349603,"ad_link":"https://www.finn.no/realestate/homes/ad.html?finnkode=261349603","ad_type":1,"energy_label":6,"from_year":1985,"lat":59.41586,"local_area_name":null,"lon":10.4545,"number_of_bedrooms":3,"owner_type_description":"Eier (Selveier)","property_type_description":"Enebolig","size_from":156,"to_year":1985,"type":"realestate"},{"Location":"Jarbruveien 34, Røkland","ad_id":257804213,"ad_link":"https://www.finn.no/realestate/homes/ad.html?finnkode=257804213","ad_type":1,"energy_label":6,"from_year":1985,"lat":66.98374,"local_area_name":"Røkland","lon":15.30955,"number_of_bedrooms":5,"owner_type_description":"Eier (Selveier)","property_type_description":"Enebolig","size_from":224,"to_year":1985,"type":"realestate"},{"Location":"Nedre Prinsdals vei 183, Oslo","ad_id":261127557,"ad_link":"https://www.finn.no/realestate/homes/ad.html?finnkode=261127557","ad_type":1,"energy_label":6,"from_year":1985,"lat":59.82581,"local_area_name":"Prinsdal","lon":10.80772,"number_of_bedrooms":3,"owner_type_description":"Eier (Selveier)","property_type_description":"Rekkehus","size_from":139,"to_year":1985,"type":"realestate"},{"Location":"Lofsrudhøgda 209, Oslo","ad_id":260958731,"ad_link":"https://www.finn.no/realestate/homes/ad.html?finnkode=260958731","ad_type":1,"energy_label":6,"from_year":1985,"lat":59.8458,"local_area_name":"Mortensrud","lon":10.8261,"number_of_bedrooms":3,"owner_type_description":"Eier (Selveier)","property_type_description":"Leilighet","size_from":80,"to_year":1985,"type":"realestate"},{"Location":"Landstads gate 27, Sandefjord","ad_id":261037812,"ad_link":"https://www.finn.no/realestate/homes/ad.html?finnkode=261037812","ad_type":1,"energy_label":6,"from_year":1985,"lat":59.1335,"local_area_name":"Sentrum","lon":10.2243,"number_of_bedrooms":1,"owner_type_description":"Eier (Selveier)","property_type_description":"Leilighet","size_from":49,"to_year":1985,"type":"realestate"},{"Location":"Olsvollen 18, Ålesund","ad_id":260876260,"ad_link":"https://www.finn.no/realestate/homes/ad.html?finnkode=260876260","ad_type":1,"energy_label":6,"from_year":1985,"lat":62.478,"local_area_name":"Olsvika","lon":6.3785,"number_of_bedrooms":0,"owner_type_description":"Eier (Selveier)","property_type_description":"Enebolig","size_from":198,"to_year":1985,"type":"realestate"},{"Location":"Gregers Grams vei 2B, Oslo","ad_id":260814550,"ad_link":"https://www.finn.no/realestate/homes/ad.html?finnkode=260814550","ad_type":1,"energy_label":6,"from_year":1985,"lat":59.9336,"local_area_name":"Ullernåsen","lon":10.6466,"number_of_bedrooms":4,"owner_type_description":"Eier (Selveier)","property_type_description":"Enebolig","size_from":206,"to_year":1985,"type":"realestate"},{"Location":"Forusskogen 100, Stavanger","ad_id":260925037,"ad_link":"https://www.finn.no/realestate/homes/ad.html?finnkode=260925037","ad_type":1,"energy_label":6,"from_year":1985,"lat":58.892,"local_area_name":null,"lon":5.74584,"number_of_bedrooms":4,"owner_type_description":"Eier (Selveier)","property_type_description":"Enebolig","size_from":215,"to_year":1985,"type":"realestate"},{"Location":"Nordseterveien 31A, Oslo","ad_id":260916835,"ad_link":"https://www.finn.no/realestate/homes/ad.html?finnkode=260916835","ad_type":1,"energy_label":6,"from_year":1985,"lat":59.87627,"local_area_name":"Nordstrand","lon":10.79465,"number_of_bedrooms":4,"owner_type_description":"Eier (Selveier)","property_type_description":"Enebolig","size_from":213,"to_year":1985,"type":"realestate"},{"Location":"Svartedalsvegen 142, Florvåg","ad_id":260653443,"ad_link":"https://www.finn.no/realestate/homes/ad.html?finnkode=260653443","ad_type":1,"energy_label":6,"from_year":1985,"lat":60.434,"local_area_name":null,"lon":5.2274,"number_of_bedrooms":2,"owner_type_description":"Eier (Selveier)","property_type_description":"Tomannsbolig","size_from":112,"to_year":1985,"type":"realestate"},{"Location":"Tømteveien 128, Skjetten","ad_id":259096791,"ad_link":"https://www.finn.no/realestate/homes/ad.html?finnkode=259096791","ad_type":1,"energy_label":6,"from_year":1985,"lat":59.9616,"local_area_name":"Guldhaug Tømte / Skjetten","lon":10.9818,"number_of_bedrooms":3,"owner_type_description":"Eier (Selveier)","property_type_description":"Enebolig","size_from":154,"to_year":1985,"type":"realestate"},{"Location":"Sogstikollen 22B, Drøbak","ad_id":256455306,"ad_link":"https://www.finn.no/realestate/homes/ad.html?finnkode=256455306","ad_type":1,"energy_label":6,"from_year":1985,"lat":59.6564,"local_area_name":"Sogsti","lon":10.636,"number_of_bedrooms":3,"owner_type_description":"Eier (Selveier)","property_type_description":"Enebolig","size_from":247,"to_year":1985,"type":"realestate"},{"Location":"Knesvegen 50, Steinkjer","ad_id":260396955,"ad_link":"https://www.finn.no/realestate/homes/ad.html?finnkode=260396955","ad_type":1,"energy_label":6,"from_year":1985,"lat":64.12666,"local_area_name":null,"lon":11.61616,"number_of_bedrooms":4,"owner_type_description":"Eier (Selveier)","property_type_description":"Enebolig","size_from":187,"to_year":1985,"type":"realestate"},{"Location":"Klostergaten 3D, Tønsberg","ad_id":260636704,"ad_link":"https://www.finn.no/realestate/homes/ad.html?finnkode=260636704","ad_type":1,"energy_label":6,"from_year":1985,"lat":59.26548,"local_area_name":null,"lon":10.41027,"number_of_bedrooms":4,"owner_type_description":"Andel","property_type_description":"Leilighet","size_from":118,"to_year":1985,"type":"realestate"},{"Location":"Gudrunsveg 23, Porsgrunn","ad_id":260533912,"ad_link":"https://www.finn.no/realestate/homes/ad.html?finnkode=260533912","ad_type":1,"energy_label":6,"from_year":1985,"lat":59.1516,"local_area_name":"Hovenga","lon":9.6721,"number_of_bedrooms":3,"owner_type_description":"Eier (Selveier)","property_type_description":"Enebolig","size_from":167,"to_year":1985,"type":"realestate"},{"Location":"Krokåsvegen 24, Kleppestø","ad_id":257017203,"ad_link":"https://www.finn.no/realestate/homes/ad.html?finnkode=257017203","ad_type":1,"energy_label":6,"from_year":1985,"lat":60.42219,"local_area_name":"Kleppestø","lon":5.19656,"number_of_bedrooms":4,"owner_type_description":"Eier (Selveier)","property_type_description":"Enebolig","size_from":223,"to_year":1985,"type":"realestate"},{"Location":"Bodils vei 18, Ski","ad_id":260432018,"ad_link":"https://www.finn.no/realestate/homes/ad.html?finnkode=260432018","ad_type":1,"energy_label":6,"from_year":1985,"lat":59.7193,"local_area_name":"Tamburbakken","lon":10.8068,"number_of_bedrooms":3,"owner_type_description":"Eier (Selveier)","property_type_description":"Leilighet","size_from":77,"to_year":1985,"type":"realestate"},{"Location":"Gydas vei 103, Tårnåsen","ad_id":260412317,"ad_link":"https://www.finn.no/realestate/homes/ad.html?finnkode=260412317","ad_type":1,"energy_label":6,"from_year":1985,"lat":59.8235,"local_area_name":null,"lon":10.8124,"number_of_bedrooms":4,"owner_type_description":"Andel","property_type_description":"Rekkehus","size_from":120,"to_year":1985,"type":"realestate"},{"Location":"Pilvegen 13, Klæbu","ad_id":260163169,"ad_link":"https://www.finn.no/realestate/homes/ad.html?finnkode=260163169","ad_type":1,"energy_label":6,"from_year":1985,"lat":63.30321,"local_area_name":"Klæbu","lon":10.47481,"number_of_bedrooms":3,"owner_type_description":"Eier (Selveier)","property_type_description":"Enebolig","size_from":146,"to_year":1985,"type":"realestate"},{"Location":"Stjerneveien 1A, Nittedal","ad_id":259893266,"ad_link":"https://www.finn.no/realestate/homes/ad.html?finnkode=259893266","ad_type":1,"energy_label":6,"from_year":1985,"lat":60.0618,"local_area_name":"ROTNES","lon":10.8664,"number_of_bedrooms":3,"owner_type_description":"Eier (Selveier)","property_type_description":"Enebolig","size_from":143,"to_year":1985,"type":"realestate"},{"Location":"Rektor Oldens gate 4B, Stavanger","ad_id":260079916,"ad_link":"https://www.finn.no/realestate/homes/ad.html?finnkode=260079916","ad_type":1,"energy_label":6,"from_year":1985,"lat":58.9557,"local_area_name":null,"lon":5.6912,"number_of_bedrooms":2,"owner_type_description":"Eier (Selveier)","property_type_description":"Leilighet","size_from":109,"to_year":1985,"type":"realestate"},{"Location":"Midnattsolveien 4294, Strønstad","ad_id":260003265,"ad_link":"https://www.finn.no/realestate/homes/ad.html?finnkode=260003265","ad_type":1,"energy_label":6,"from_year":1985,"lat":68.43553,"local_area_name":null,"lon":14.73024,"number_of_bedrooms":4,"owner_type_description":"Eier (Selveier)","property_type_description":"Enebolig","size_from":130,"to_year":1985,"type":"realestate"},{"Location":"Lyngåsen 56, Langhus","ad_id":259893381,"ad_link":"https://www.finn.no/realestate/homes/ad.html?finnkode=259893381","ad_type":1,"energy_label":6,"from_year":1985,"lat":59.7661,"local_area_name":"Langhus/Bøleråsen","lon":10.8473,"number_of_bedrooms":3,"owner_type_description":"Andel","property_type_description":"Rekkehus","size_from":111,"to_year":1985,"type":"realestate"},{"Location":"Nedre Toppenhaug 166, Bærums Verk","ad_id":259888539,"ad_link":"https://www.finn.no/realestate/homes/ad.html?finnkode=259888539","ad_type":1,"energy_label":6,"from_year":1985,"lat":59.93841,"local_area_name":"Nedre Toppenhaug/Bærums Verk","lon":10.50821,"number_of_bedrooms":3,"owner_type_description":"Eier (Selveier)","property_type_description":"Rekkehus","size_from":106,"to_year":1985,"type":"realestate"},{"Location":"Lokes vei 156, Haslum","ad_id":259497344,"ad_link":"https://www.finn.no/realestate/homes/ad.html?finnkode=259497344","ad_type":1,"energy_label":6,"from_year":1985,"lat":59.91478,"local_area_name":"HASLUM","lon":10.55659,"number_of_bedrooms":1,"owner_type_description":"Eier (Selveier)","property_type_description":"Leilighet","size_from":49,"to_year":1985,"type":"realestate"},{"Location":"Kløversvingen 9, Kongsberg","ad_id":255678143,"ad_link":"https://www.finn.no/realestate/homes/ad.html?finnkode=255678143","ad_type":1,"energy_label":6,"from_year":1985,"lat":59.6662,"local_area_name":null,"lon":9.6737,"number_of_bedrooms":5,"owner_type_description":"Eier (Selveier)","property_type_description":"Enebolig","size_from":190,"to_year":1985,"type":"realestate"},{"Location":"Sarabråtveien 4h, Oslo","ad_id":258643364,"ad_link":"https://www.finn.no/realestate/homes/ad.html?finnkode=258643364","ad_type":1,"energy_label":6,"from_year":1985,"lat":59.89075,"local_area_name":"Ulsrud","lon":10.85528,"number_of_bedrooms":3,"owner_type_description":"Eier (Selveier)","property_type_description":"Leilighet","size_from":106,"to_year":1985,"type":"realestate"},{"Location":"Fredlyveien 18A, Harstad","ad_id":258062816,"ad_link":"https://www.finn.no/realestate/homes/ad.html?finnkode=258062816","ad_type":1,"energy_label":6,"from_year":1985,"lat":68.7778,"local_area_name":"Kanebogen","lon":16.5693,"number_of_bedrooms":1,"owner_type_description":"Andel","property_type_description":"Tomannsbolig","size_from":54,"to_year":1985,"type":"realestate"},{"Location":"Hølleheiveien 11, Søgne","ad_id":254628443,"ad_link":"https://www.finn.no/realestate/homes/ad.html?finnkode=254628443","ad_type":1,"energy_label":6,"from_year":1985,"lat":58.07812,"local_area_name":"HØLLEHEIA - SØGNE","lon":7.81253,"number_of_bedrooms":7,"owner_type_description":"Eier (Selveier)","property_type_description":"Enebolig","size_from":377,"to_year":1985,"type":"realestate"},{"Location":"Leangveien 40B, Asker","ad_id":258192776,"ad_link":"https://www.finn.no/realestate/homes/ad.html?finnkode=258192776","ad_type":1,"energy_label":6,"from_year":1985,"lat":59.83507,"local_area_name":"Asker / Øvre Båstad","lon":10.45961,"number_of_bedrooms":3,"owner_type_description":"Eier (Selveier)","property_type_description":"Leilighet","size_from":136,"to_year":1985,"type":"realestate"},{"Location":"Klynga 10, Kristiansand S","ad_id":257355189,"ad_link":"https://www.finn.no/realestate/homes/ad.html?finnkode=257355189","ad_type":1,"energy_label":6,"from_year":1985,"lat":58.15697,"local_area_name":null,"lon":7.99868,"number_of_bedrooms":3,"owner_type_description":"Eier (Selveier)","property_type_description":"Enebolig","size_from":210,"to_year":1985,"type":"realestate"},{"Location":"Strandavegen 93, Bryggja","ad_id":257178673,"ad_link":"https://www.finn.no/realestate/homes/ad.html?finnkode=257178673","ad_type":1,"energy_label":6,"from_year":1985,"lat":61.93864,"local_area_name":"Bryggja","lon":5.43298,"number_of_bedrooms":5,"owner_type_description":"Eier (Selveier)","property_type_description":"Enebolig","size_from":230,"to_year":1985,"type":"realestate"},{"Location":"Toftestøvegen 34, Fosnavåg","ad_id":256946290,"ad_link":"https://www.finn.no/realestate/homes/ad.html?finnkode=256946290","ad_type":1,"energy_label":6,"from_year":1985,"lat":62.32375,"local_area_name":null,"lon":5.6322,"number_of_bedrooms":3,"owner_type_description":"Eier (Selveier)","property_type_description":"Tomannsbolig","size_from":143,"to_year":1985,"type":"realestate"},{"Location":"Vollabakkveien 42, Nordkjosbotn","ad_id":196404070,"ad_link":"https://www.finn.no/realestate/homes/ad.html?finnkode=196404070","ad_type":1,"energy_label":6,"from_year":1985,"lat":69.22118,"local_area_name":null,"lon":19.56615,"number_of_bedrooms":4,"owner_type_description":"Eier (Selveier)","property_type_description":"Enebolig","size_from":137,"to_year":1985,"type":"realestate"},{"Location":"Vikerveien 86, Gressvik","ad_id":230683077,"ad_link":"https://www.finn.no/realestate/homes/ad.html?finnkode=230683077","ad_type":1,"energy_label":6,"from_year":1985,"lat":59.18978,"local_area_name":"VIKER / GRESSVIK","lon":10.87513,"number_of_bedrooms":3,"owner_type_description":"Eier (Selveier)","property_type_description":"Enebolig","size_from":211,"to_year":1985,"type":"realestate"},{"Location":"Vestre vei 36, Nesøya","ad_id":255643580,"ad_link":"https://www.finn.no/realestate/homes/ad.html?finnkode=255643580","ad_type":1,"energy_label":6,"from_year":1985,"lat":59.86708,"local_area_name":"Nesøya","lon":10.51497,"number_of_bedrooms":2,"owner_type_description":"Eier (Selveier)","property_type_description":"Leilighet","size_from":133,"to_year":1985,"type":"realestate"},{"Location":"Øvrehusvegen 37P, Tjelta","ad_id":254524828,"ad_link":"https://www.finn.no/realestate/homes/ad.html?finnkode=254524828","ad_type":1,"energy_label":6,"from_year":1985,"lat":58.8428,"local_area_name":"Tjelta","lon":5.5982,"number_of_bedrooms":2,"owner_type_description":"Eier (Selveier)","property_type_description":"Leilighet","size_from":62,"to_year":1985,"type":"realestate"},{"Location":"Vågholmvegen 47, Fjørtoft","ad_id":253362042,"ad_link":"https://www.finn.no/realestate/homes/ad.html?finnkode=253362042","ad_type":1,"energy_label":6,"from_year":1985,"lat":62.7091,"local_area_name":"Fjørtoft","lon":6.4058,"number_of_bedrooms":3,"owner_type_description":"Eier (Selveier)","property_type_description":"Enebolig","size_from":115,"to_year":1985,"type":"realestate"},{"Location":"Kilhusveien 8, Harstad","ad_id":252091777,"ad_link":"https://www.finn.no/realestate/homes/ad.html?finnkode=252091777","ad_type":1,"energy_label":6,"from_year":1985,"lat":68.8074,"local_area_name":"Bergseng","lon":16.5015,"number_of_bedrooms":4,"owner_type_description":"Eier (Selveier)","property_type_description":"Enebolig","size_from":191,"to_year":1985,"type":"realestate"},{"Location":"Sandal Terrasse 20, Stavanger","ad_id":220867595,"ad_link":"https://www.finn.no/realestate/homes/ad.html?finnkode=220867595","ad_type":1,"energy_label":6,"from_year":1985,"lat":58.9569,"local_area_name":"SANDAL","lon":5.6851,"number_of_bedrooms":5,"owner_type_description":"Eier (Selveier)","property_type_description":"Enebolig","size_from":178,"to_year":1985,"type":"realestate"},{"Location":"Stasjonsvegen 15, Nelaug","ad_id":250206491,"ad_link":"https://www.finn.no/realestate/homes/ad.html?finnkode=250206491","ad_type":1,"energy_label":6,"from_year":1985,"lat":58.65766,"local_area_name":null,"lon":8.63472,"number_of_bedrooms":3,"owner_type_description":"Eier (Selveier)","property_type_description":"Enebolig","size_from":160,"to_year":1985,"type":"realestate"},{"Location":"Audnedalsveien 41, Lindesnes","ad_id":237694764,"ad_link":"https://www.finn.no/realestate/homes/ad.html?finnkode=237694764","ad_type":1,"energy_label":6,"from_year":1985,"lat":58.0905,"local_area_name":"Vigeland","lon":7.3177,"number_of_bedrooms":4,"owner_type_description":"Eier (Selveier)","property_type_description":"Enebolig","size_from":160,"to_year":1985,"type":"realestate"}]