[{"Location":"Børkesvevegen 1, Brumunddal","ad_id":261449810,"ad_link":"https://www.finn.no/realestate/homes/ad.html?finnkode=261449810","ad_type":1,"energy_label":5,"from_year":1977,"lat":60.2733,"local_area_name":null,"lon":12.0949,"number_of_bedrooms":3,"owner_type_description":"Andel","property_type_description":"Leilighet","size_from":92,"to_year":1977,"type":"realestate"},{"Location":"Delfinen 19C, Hamar","ad_id":261406651,"ad_link":"https://www.finn.no/realestate/homes/ad.html?finnkode=261406651","ad_type":1,"energy_label":5,"from_year":1977,"lat":60.8139,"local_area_name":"Hamar","lon":11.0533,"number_of_bedrooms":2,"owner_type_description":"Andel","property_type_description":"Rekkehus","size_from":89,"to_year":1977,"type":"realestate"},{"Location":"Sagerudsvingen 7, Våler i Solør","ad_id":260921355,"ad_link":"https://www.finn.no/realestate/homes/ad.html?finnkode=260921355","ad_type":1,"energy_label":5,"from_year":1977,"lat":60.674,"local_area_name":null,"lon":11.8388,"number_of_bedrooms":5,"owner_type_description":"Eier (Selveier)","property_type_description":"Enebolig","size_from":176,"to_year":1977,"type":"realestate"},{"Location":"Solbråtanveien 46C, Kolbotn","ad_id":260658178,"ad_link":"https://www.finn.no/realestate/homes/ad.html?finnkode=260658178","ad_type":1,"energy_label":5,"from_year":1977,"lat":59.8015,"local_area_name":"Solbråtan/Kolbotn","lon":10.803,"number_of_bedrooms":3,"owner_type_description":"Eier (Selveier)","property_type_description":"Enebolig","size_from":248,"to_year":1977,"type":"realestate"},{"Location":"Professor Hansteens gate 49, Stavanger","ad_id":260876882,"ad_link":"https://www.finn.no/realestate/homes/ad.html?finnkode=260876882","ad_type":1,"energy_label":5,"from_year":1977,"lat":58.9496,"local_area_name":"Tjensvoll","lon":5.7025,"number_of_bedrooms":2,"owner_type_description":"Andel","property_type_description":"Leilighet","size_from":86,"to_year":1977,"type":"realestate"},{"Location":"Slettavegen 29, Valsøyfjord","ad_id":260956782,"ad_link":"https://www.finn.no/realestate/homes/ad.html?finnkode=260956782","ad_type":1,"energy_label":5,"from_year":1977,"lat":63.1292,"local_area_name":"HESTNES","lon":8.51222,"number_of_bedrooms":4,"owner_type_description":"Eier (Selveier)","property_type_description":"Enebolig","size_from":149,"to_year":1977,"type":"realestate"},{"Location":"Hegnavegen 24, Siljan","ad_id":260784956,"ad_link":"https://www.finn.no/realestate/homes/ad.html?finnkode=260784956","ad_type":1,"energy_label":5,"from_year":1977,"lat":59.272,"local_area_name":"TORSHOLT","lon":9.7252,"number_of_bedrooms":3,"owner_type_description":"Eier (Selveier)","property_type_description":"Enebolig","size_from":190,"to_year":1977,"type":"realestate"},{"Location":"Kvithammarn 30, Harstad","ad_id":260085354,"ad_link":"https://www.finn.no/realestate/homes/ad.html?finnkode=260085354","ad_type":1,"energy_label":5,"from_year":1977,"lat":68.75203,"local_area_name":null,"lon":16.5659,"number_of_bedrooms":3,"owner_type_description":"Eier (Selveier)","property_type_description":"Enebolig","size_from":108,"to_year":1977,"type":"realestate"},{"Location":"Tollbugata 29B, Drammen","ad_id":260633313,"ad_link":"https://www.finn.no/realestate/homes/ad.html?finnkode=260633313","ad_type":1,"energy_label":5,"from_year":1977,"lat":59.7376,"local_area_name":"Strømsø","lon":10.2079,"number_of_bedrooms":1,"owner_type_description":"Andel","property_type_description":"Leilighet","size_from":49,"to_year":1977,"type":"realestate"},{"Location":"Sigrid Undsets gate 52, Sandnessjøen","ad_id":259496653,"ad_link":"https://www.finn.no/realestate/homes/ad.html?finnkode=259496653","ad_type":1,"energy_label":5,"from_year":1977,"lat":66.01033,"local_area_name":"Segelbergan","lon":12.57758,"number_of_bedrooms":3,"owner_type_description":"Eier (Selveier)","property_type_description":"Enebolig","size_from":148,"to_year":1977,"type":"realestate"},{"Location":"Skogfaret 6E, Kløfta","ad_id":260533043,"ad_link":"https://www.finn.no/realestate/homes/ad.html?finnkode=260533043","ad_type":1,"energy_label":5,"from_year":1977,"lat":60.0838,"local_area_name":"Kløfta","lon":11.1366,"number_of_bedrooms":4,"owner_type_description":"Eier (Selveier)","property_type_description":"Enebolig","size_from":226,"to_year":1977,"type":"realestate"},{"Location":"Erika Nissens vei 3D, Stavanger","ad_id":260521974,"ad_link":"https://www.finn.no/realestate/homes/ad.html?finnkode=260521974","ad_type":1,"energy_label":5,"from_year":1977,"lat":58.9634,"local_area_name":"Eiganes","lon":5.7044,"number_of_bedrooms":1,"owner_type_description":"Eier (Selveier)","property_type_description":"Leilighet","size_from":72,"to_year":1977,"type":"realestate"},{"Location":"Ekromskogen 49B, Lillehammer","ad_id":258747130,"ad_link":"https://www.finn.no/realestate/homes/ad.html?finnkode=258747130","ad_type":1,"energy_label":5,"from_year":1977,"lat":61.13904,"local_area_name":"Nordre Ål","lon":10.45256,"number_of_bedrooms":3,"owner_type_description":"Eier (Selveier)","property_type_description":"Rekkehus","size_from":129,"to_year":1977,"type":"realestate"},{"Location":"Fossegrenda 25 B, Trondheim","ad_id":260401676,"ad_link":"https://www.finn.no/realestate/homes/ad.html?finnkode=260401676","ad_type":1,"energy_label":5,"from_year":1977,"lat":63.38782,"local_area_name":"Fossegrenda","lon":10.4129,"number_of_bedrooms":0,"owner_type_description":"Eier (Selveier)","property_type_description":"Leilighet","size_from":25,"to_year":1977,"type":"realestate"},{"Location":"Granstangen 12B, Oslo","ad_id":260206016,"ad_link":"https://www.finn.no/realestate/homes/ad.html?finnkode=260206016","ad_type":1,"energy_label":5,"from_year":1977,"lat":59.9411,"local_area_name":"FURUSET","lon":10.9014,"number_of_bedrooms":2,"owner_type_description":"Andel","property_type_description":"Leilighet","size_from":58,"to_year":1977,"type":"realestate"},{"Location":"Nørstegard 1, Atrå","ad_id":259495826,"ad_link":"https://www.finn.no/realestate/homes/ad.html?finnkode=259495826","ad_type":1,"energy_label":5,"from_year":1977,"lat":59.9846,"local_area_name":null,"lon":8.7281,"number_of_bedrooms":4,"owner_type_description":"Eier (Selveier)","property_type_description":"Enebolig","size_from":168,"to_year":1977,"type":"realestate"},{"Location":"Vardåsveien 22, Ski","ad_id":260038104,"ad_link":"https://www.finn.no/realestate/homes/ad.html?finnkode=260038104","ad_type":1,"energy_label":5,"from_year":1977,"lat":59.7265,"local_area_name":null,"lon":10.8422,"number_of_bedrooms":5,"owner_type_description":"Eier (Selveier)","property_type_description":"Enebolig","size_from":174,"to_year":1977,"type":"realestate"},{"Location":"August Jacobsens gate 12, Bryne","ad_id":260041739,"ad_link":"https://www.finn.no/realestate/homes/ad.html?finnkode=260041739","ad_type":1,"energy_label":5,"from_year":1977,"lat":58.7332,"local_area_name":null,"lon":5.65981,"number_of_bedrooms":3,"owner_type_description":"Andel","property_type_description":"Tomannsbolig","size_from":129,"to_year":1977,"type":"realestate"},{"Location":"Fossegrenda 25 B, Trondheim","ad_id":259919503,"ad_link":"https://www.finn.no/realestate/homes/ad.html?finnkode=259919503","ad_type":1,"energy_label":5,"from_year":1977,"lat":63.38782,"local_area_name":"Fossegrenda","lon":10.4129,"number_of_bedrooms":1,"owner_type_description":"Eier (Selveier)","property_type_description":"Leilighet","size_from":53,"to_year":1977,"type":"realestate"},{"Location":"Opalveien 35, Nedenes","ad_id":251780879,"ad_link":"https://www.finn.no/realestate/homes/ad.html?finnkode=251780879","ad_type":1,"energy_label":5,"from_year":1977,"lat":58.41119,"local_area_name":null,"lon":8.71086,"number_of_bedrooms":3,"owner_type_description":"Eier (Selveier)","property_type_description":"Enebolig","size_from":203,"to_year":1977,"type":"realestate"},{"Location":"Engehaugen 10, Gjøvik","ad_id":259335712,"ad_link":"https://www.finn.no/realestate/homes/ad.html?finnkode=259335712","ad_type":1,"energy_label":5,"from_year":1977,"lat":60.7764,"local_area_name":"ENGEHAUGEN","lon":10.67071,"number_of_bedrooms":3,"owner_type_description":"Eier (Selveier)","property_type_description":"Enebolig","size_from":169,"to_year":1977,"type":"realestate"},{"Location":"Røedstien 20, Nedenes","ad_id":240689522,"ad_link":"https://www.finn.no/realestate/homes/ad.html?finnkode=240689522","ad_type":1,"energy_label":5,"from_year":1977,"lat":58.42865,"local_area_name":null,"lon":8.70855,"number_of_bedrooms":4,"owner_type_description":"Eier (Selveier)","property_type_description":"Enebolig","size_from":167,"to_year":1977,"type":"realestate"},{"Location":"Blåbærstien 11, Moss","ad_id":258707980,"ad_link":"https://www.finn.no/realestate/homes/ad.html?finnkode=258707980","ad_type":1,"energy_label":5,"from_year":1977,"lat":59.4187,"local_area_name":"Moss / Øreåsen","lon":10.6885,"number_of_bedrooms":3,"owner_type_description":"Andel","property_type_description":"Rekkehus","size_from":105,"to_year":1977,"type":"realestate"},{"Location":"Theodor Dahls vei 5, Sandnes","ad_id":258339666,"ad_link":"https://www.finn.no/realestate/homes/ad.html?finnkode=258339666","ad_type":1,"energy_label":5,"from_year":1977,"lat":58.8528,"local_area_name":"Stangeland","lon":5.7201,"number_of_bedrooms":2,"owner_type_description":"Eier (Selveier)","property_type_description":"Enebolig","size_from":281,"to_year":1977,"type":"realestate"},{"Location":"Vesteråsveien 40C, Oslo","ad_id":257127587,"ad_link":"https://www.finn.no/realestate/homes/ad.html?finnkode=257127587","ad_type":1,"energy_label":5,"from_year":1977,"lat":59.9367,"local_area_name":"Ullernåsen","lon":10.6437,"number_of_bedrooms":2,"owner_type_description":"Eier (Selveier)","property_type_description":"Leilighet","size_from":122,"to_year":1977,"type":"realestate"},{"Location":"Ryggjatunveien 1B, Randaberg","ad_id":258423154,"ad_link":"https://www.finn.no/realestate/homes/ad.html?finnkode=258423154","ad_type":1,"energy_label":5,"from_year":1977,"lat":58.99764,"local_area_name":"RANDABERG","lon":5.62359,"number_of_bedrooms":8,"owner_type_description":"Eier (Selveier)","property_type_description":"Enebolig","size_from":234,"to_year":1977,"type":"realestate"},{"Location":"Granittvegen 21, Verdal","ad_id":258207379,"ad_link":"https://www.finn.no/realestate/homes/ad.html?finnkode=258207379","ad_type":1,"energy_label":5,"from_year":1977,"lat":63.7691,"local_area_name":"Vinne","lon":11.48827,"number_of_bedrooms":3,"owner_type_description":"Eier (Selveier)","property_type_description":"Enebolig","size_from":136,"to_year":1977,"type":"realestate"},{"Location":"Mindejordet 3, Vanse","ad_id":257635586,"ad_link":"https://www.finn.no/realestate/homes/ad.html?finnkode=257635586","ad_type":1,"energy_label":5,"from_year":1977,"lat":58.10253,"local_area_name":"Minde","lon":6.68885,"number_of_bedrooms":3,"owner_type_description":"Eier (Selveier)","property_type_description":"Rekkehus","size_from":148,"to_year":1977,"type":"realestate"},{"Location":"Utsiragata 84, Haugesund","ad_id":257220727,"ad_link":"https://www.finn.no/realestate/homes/ad.html?finnkode=257220727","ad_type":1,"energy_label":5,"from_year":1977,"lat":59.3909,"local_area_name":null,"lon":5.3129,"number_of_bedrooms":3,"owner_type_description":"Eier (Selveier)","property_type_description":"Enebolig","size_from":223,"to_year":1977,"type":"realestate"},{"Location":"Kalveneset 35, Eidsbygda","ad_id":253158045,"ad_link":"https://www.finn.no/realestate/homes/ad.html?finnkode=253158045","ad_type":1,"energy_label":5,"from_year":1977,"lat":62.58581,"local_area_name":null,"lon":7.53208,"number_of_bedrooms":4,"owner_type_description":"Eier (Selveier)","property_type_description":"Enebolig","size_from":297,"to_year":1977,"type":"realestate"},{"Location":"Tjessheimveien 9, Figgjo","ad_id":252182334,"ad_link":"https://www.finn.no/realestate/homes/ad.html?finnkode=252182334","ad_type":1,"energy_label":5,"from_year":1977,"lat":58.787,"local_area_name":null,"lon":5.8148,"number_of_bedrooms":6,"owner_type_description":"Eier (Selveier)","property_type_description":"Enebolig","size_from":261,"to_year":1977,"type":"realestate"},{"Location":"Asphaugveien 1, Bjugn","ad_id":231922147,"ad_link":"https://www.finn.no/realestate/homes/ad.html?finnkode=231922147","ad_type":1,"energy_label":5,"from_year":1977,"lat":63.7663,"local_area_name":"BJUGN","lon":9.81471,"number_of_bedrooms":4,"owner_type_description":"Eier (Selveier)","property_type_description":"Enebolig","size_from":178,"to_year":1977,"type":"realestate"}]