[{"Location":"Torsrudveien 14A, Spikkestad","ad_id":260756483,"ad_link":"https://www.finn.no/realestate/homes/ad.html?finnkode=260756483","ad_type":1,"energy_label":7,"from_year":1989,"lat":59.7335,"local_area_name":"Spikkestad","lon":10.3276,"number_of_bedrooms":2,"owner_type_description":"Eier (Selveier)","property_type_description":"Rekkehus","size_from":71,"to_year":1989,"type":"realestate"},{"Location":"Ekornveien 3A, Tønsberg","ad_id":260238903,"ad_link":"https://www.finn.no/realestate/homes/ad.html?finnkode=260238903","ad_type":1,"energy_label":7,"from_year":1989,"lat":59.26482,"local_area_name":"Tønsberg","lon":10.42363,"number_of_bedrooms":3,"owner_type_description":"Eier (Selveier)","property_type_description":"Leilighet","size_from":111,"to_year":1989,"type":"realestate"},{"Location":"Bryggeriveien 9, Sarpsborg","ad_id":251001844,"ad_link":"https://www.finn.no/realestate/homes/ad.html?finnkode=251001844","ad_type":1,"energy_label":7,"from_year":1989,"lat":59.29029,"local_area_name":"#FRITZNERBAKKEN/KURLAND","lon":11.11434,"number_of_bedrooms":3,"owner_type_description":"Eier (Selveier)","property_type_description":"Leilighet","size_from":152,"to_year":1989,"type":"realestate"},{"Location":"Stemmen 20H, Froland","ad_id":254785332,"ad_link":"https://www.finn.no/realestate/homes/ad.html?finnkode=254785332","ad_type":1,"energy_label":7,"from_year":1989,"lat":58.50313,"local_area_name":null,"lon":8.64861,"number_of_bedrooms":2,"owner_type_description":"Eier (Selveier)","property_type_description":"Leilighet","size_from":61,"to_year":1989,"type":"realestate"},{"Location":"Bruveien 29, Leirfjord","ad_id":252426345,"ad_link":"https://www.finn.no/realestate/homes/ad.html?finnkode=252426345","ad_type":1,"energy_label":7,"from_year":1989,"lat":66.04088,"local_area_name":null,"lon":12.71191,"number_of_bedrooms":3,"owner_type_description":"Eier (Selveier)","property_type_description":"Enebolig","size_from":59,"to_year":1989,"type":"realestate"}]