[{"Location":"Gandsgaten 9B, Sandnes","ad_id":261469144,"ad_link":"https://www.finn.no/realestate/homes/ad.html?finnkode=261469144","ad_type":1,"energy_label":5,"from_year":1963,"lat":58.8577,"local_area_name":"Sandnes sentrum","lon":5.7405,"number_of_bedrooms":1,"owner_type_description":"Andel","property_type_description":"Leilighet","size_from":55,"to_year":1963,"type":"realestate"},{"Location":"Enerhauggata 7, Oslo","ad_id":260757486,"ad_link":"https://www.finn.no/realestate/homes/ad.html?finnkode=260757486","ad_type":1,"energy_label":5,"from_year":1963,"lat":59.91229,"local_area_name":"ENERHAUGEN","lon":10.76903,"number_of_bedrooms":2,"owner_type_description":"Andel","property_type_description":"Leilighet","size_from":71,"to_year":1963,"type":"realestate"},{"Location":"Otto Sogns vei 15, Oslo","ad_id":254733853,"ad_link":"https://www.finn.no/realestate/homes/ad.html?finnkode=254733853","ad_type":1,"energy_label":5,"from_year":1963,"lat":59.89994,"local_area_name":"MANGLERUD","lon":10.81746,"number_of_bedrooms":2,"owner_type_description":"Andel","property_type_description":"Leilighet","size_from":73,"to_year":1963,"type":"realestate"},{"Location":"Furukollen 13C, Laksevåg","ad_id":260586583,"ad_link":"https://www.finn.no/realestate/homes/ad.html?finnkode=260586583","ad_type":1,"energy_label":5,"from_year":1963,"lat":60.39058,"local_area_name":"FURUKOLLEN/LAKSEVÅG","lon":5.27323,"number_of_bedrooms":3,"owner_type_description":"Eier (Selveier)","property_type_description":"Tomannsbolig","size_from":98,"to_year":1963,"type":"realestate"},{"Location":"Skarvegen 16B, Tromsdalen","ad_id":258240930,"ad_link":"https://www.finn.no/realestate/homes/ad.html?finnkode=258240930","ad_type":1,"energy_label":5,"from_year":1963,"lat":69.6472,"local_area_name":null,"lon":19.0045,"number_of_bedrooms":4,"owner_type_description":"Eier (Selveier)","property_type_description":"Tomannsbolig","size_from":122,"to_year":1963,"type":"realestate"},{"Location":"Oluf Melvolds gate 66, Hamar","ad_id":249897756,"ad_link":"https://www.finn.no/realestate/homes/ad.html?finnkode=249897756","ad_type":1,"energy_label":5,"from_year":1963,"lat":60.8007,"local_area_name":"BØRSTAD","lon":11.0939,"number_of_bedrooms":3,"owner_type_description":"Andel","property_type_description":"Leilighet","size_from":84,"to_year":1963,"type":"realestate"}]