[{"Location":"Blåbærtråkket 2 A, Jessheim","ad_id":260954385,"ad_link":"https://www.finn.no/realestate/homes/ad.html?finnkode=260954385","ad_type":1,"energy_label":5,"from_year":1998,"lat":60.13889,"local_area_name":"Jessheim / Skogmo","lon":11.19344,"number_of_bedrooms":3,"owner_type_description":"Eier (Selveier)","property_type_description":"Rekkehus","size_from":98,"to_year":1998,"type":"realestate"},{"Location":"Thurmanns gate 10B, Oslo","ad_id":259794980,"ad_link":"https://www.finn.no/realestate/homes/ad.html?finnkode=259794980","ad_type":1,"energy_label":5,"from_year":1998,"lat":59.9359,"local_area_name":null,"lon":10.7543,"number_of_bedrooms":2,"owner_type_description":"Andel","property_type_description":"Leilighet","size_from":80,"to_year":1998,"type":"realestate"},{"Location":"Smibakken 4A, Lindesnes","ad_id":260629159,"ad_link":"https://www.finn.no/realestate/homes/ad.html?finnkode=260629159","ad_type":1,"energy_label":5,"from_year":1998,"lat":58.08404,"local_area_name":null,"lon":7.30582,"number_of_bedrooms":3,"owner_type_description":"Eier (Selveier)","property_type_description":"Leilighet","size_from":75,"to_year":1998,"type":"realestate"},{"Location":"POSTVEGEN 6, Nordfjordeid","ad_id":259658085,"ad_link":"https://www.finn.no/realestate/homes/ad.html?finnkode=259658085","ad_type":1,"energy_label":5,"from_year":1998,"lat":61.90834,"local_area_name":null,"lon":5.99253,"number_of_bedrooms":4,"owner_type_description":"Eier (Selveier)","property_type_description":"Rekkehus","size_from":93,"to_year":1998,"type":"realestate"},{"Location":"Orreveien 11B, Oslo","ad_id":257997829,"ad_link":"https://www.finn.no/realestate/homes/ad.html?finnkode=257997829","ad_type":1,"energy_label":5,"from_year":1998,"lat":59.9708,"local_area_name":"VOKSENLIA - HOLMENKOLLEN","lon":10.6552,"number_of_bedrooms":5,"owner_type_description":"Eier (Selveier)","property_type_description":"Enebolig","size_from":293,"to_year":1998,"type":"realestate"},{"Location":"Eikåsveien 52, Nesodden","ad_id":257492759,"ad_link":"https://www.finn.no/realestate/homes/ad.html?finnkode=257492759","ad_type":1,"energy_label":5,"from_year":1998,"lat":59.8318,"local_area_name":"Bergerhøgda","lon":10.6803,"number_of_bedrooms":3,"owner_type_description":"Eier (Selveier)","property_type_description":"Leilighet","size_from":81,"to_year":1998,"type":"realestate"},{"Location":"Kjøpmannsgata 31, Hareid","ad_id":256525455,"ad_link":"https://www.finn.no/realestate/homes/ad.html?finnkode=256525455","ad_type":1,"energy_label":5,"from_year":1998,"lat":62.3707,"local_area_name":"HAREID","lon":6.0263,"number_of_bedrooms":2,"owner_type_description":"Eier (Selveier)","property_type_description":"Leilighet","size_from":93,"to_year":1998,"type":"realestate"},{"Location":"Strandlinjen 32, Haugesund","ad_id":256281659,"ad_link":"https://www.finn.no/realestate/homes/ad.html?finnkode=256281659","ad_type":1,"energy_label":5,"from_year":1998,"lat":59.41197,"local_area_name":"Risøy","lon":5.26582,"number_of_bedrooms":4,"owner_type_description":"Eier (Selveier)","property_type_description":"Leilighet","size_from":159,"to_year":1998,"type":"realestate"}]