[{"Location":"Tuvnesveien 7, Kverva","ad_id":261447661,"ad_link":"https://www.finn.no/realestate/homes/ad.html?finnkode=261447661","ad_type":1,"energy_label":7,"from_year":1985,"lat":63.72778,"local_area_name":null,"lon":8.63174,"number_of_bedrooms":3,"owner_type_description":"Eier (Selveier)","property_type_description":"Enebolig","size_from":72,"to_year":1985,"type":"realestate"},{"Location":"Kvanndalen 6, Sennesvik","ad_id":260787005,"ad_link":"https://www.finn.no/realestate/homes/ad.html?finnkode=260787005","ad_type":1,"energy_label":7,"from_year":1985,"lat":68.11674,"local_area_name":null,"lon":13.71118,"number_of_bedrooms":0,"owner_type_description":"Eier (Selveier)","property_type_description":"Enebolig","size_from":128,"to_year":1985,"type":"realestate"},{"Location":"Hokkåsterrassen 18, Bodø","ad_id":260509269,"ad_link":"https://www.finn.no/realestate/homes/ad.html?finnkode=260509269","ad_type":1,"energy_label":7,"from_year":1985,"lat":67.29032,"local_area_name":null,"lon":14.57091,"number_of_bedrooms":1,"owner_type_description":"Andel","property_type_description":"Leilighet","size_from":56,"to_year":1985,"type":"realestate"},{"Location":"Jutulveien 9 F, Moss","ad_id":259831748,"ad_link":"https://www.finn.no/realestate/homes/ad.html?finnkode=259831748","ad_type":1,"energy_label":7,"from_year":1985,"lat":59.44709,"local_area_name":"MOSSESKOGEN","lon":10.68368,"number_of_bedrooms":1,"owner_type_description":"Eier (Selveier)","property_type_description":"Leilighet","size_from":50,"to_year":1985,"type":"realestate"},{"Location":"Ares vei 34, Tårnåsen","ad_id":258990571,"ad_link":"https://www.finn.no/realestate/homes/ad.html?finnkode=258990571","ad_type":1,"energy_label":7,"from_year":1985,"lat":59.8252,"local_area_name":"Tårnåsen","lon":10.8119,"number_of_bedrooms":3,"owner_type_description":"Eier (Selveier)","property_type_description":"Enebolig","size_from":195,"to_year":1985,"type":"realestate"},{"Location":"Leangveien 42C, Asker","ad_id":259106747,"ad_link":"https://www.finn.no/realestate/homes/ad.html?finnkode=259106747","ad_type":1,"energy_label":7,"from_year":1985,"lat":59.8348,"local_area_name":"ØVRE BÅSTAD","lon":10.459,"number_of_bedrooms":2,"owner_type_description":"Eier (Selveier)","property_type_description":"Leilighet","size_from":80,"to_year":1985,"type":"realestate"},{"Location":"Trondheimsveien 3G, Kyrksæterøra","ad_id":258963671,"ad_link":"https://www.finn.no/realestate/homes/ad.html?finnkode=258963671","ad_type":1,"energy_label":7,"from_year":1985,"lat":63.29164,"local_area_name":null,"lon":9.08731,"number_of_bedrooms":3,"owner_type_description":"Eier (Selveier)","property_type_description":"Leilighet","size_from":100,"to_year":1985,"type":"realestate"},{"Location":"Lillevannsveien 68A, Oslo","ad_id":258329757,"ad_link":"https://www.finn.no/realestate/homes/ad.html?finnkode=258329757","ad_type":1,"energy_label":7,"from_year":1985,"lat":59.97735,"local_area_name":"VOKSENLIA/HOLMENKOLLEN","lon":10.64839,"number_of_bedrooms":4,"owner_type_description":"Eier (Selveier)","property_type_description":"Enebolig","size_from":302,"to_year":1985,"type":"realestate"},{"Location":"Kroppanmarka 38, Tiller","ad_id":258304556,"ad_link":"https://www.finn.no/realestate/homes/ad.html?finnkode=258304556","ad_type":1,"energy_label":7,"from_year":1985,"lat":63.38264,"local_area_name":"Kroppanmarka","lon":10.38168,"number_of_bedrooms":3,"owner_type_description":"Eier (Selveier)","property_type_description":"Rekkehus","size_from":144,"to_year":1985,"type":"realestate"},{"Location":"Strandgata 54, Haugesund","ad_id":253159122,"ad_link":"https://www.finn.no/realestate/homes/ad.html?finnkode=253159122","ad_type":1,"energy_label":7,"from_year":1985,"lat":59.40867,"local_area_name":"Haugesund","lon":5.27314,"number_of_bedrooms":5,"owner_type_description":"Eier (Selveier)","property_type_description":"Leilighet","size_from":165,"to_year":1985,"type":"realestate"},{"Location":"Grøndokktunet 6, Lyngdal","ad_id":241077612,"ad_link":"https://www.finn.no/realestate/homes/ad.html?finnkode=241077612","ad_type":1,"energy_label":7,"from_year":1985,"lat":58.13787,"local_area_name":null,"lon":7.06567,"number_of_bedrooms":2,"owner_type_description":"Eier (Selveier)","property_type_description":"Leilighet","size_from":73,"to_year":1985,"type":"realestate"},{"Location":"Sandvegen 9, Molde","ad_id":240771577,"ad_link":"https://www.finn.no/realestate/homes/ad.html?finnkode=240771577","ad_type":1,"energy_label":7,"from_year":1985,"lat":62.7361,"local_area_name":"Molde","lon":7.1538,"number_of_bedrooms":3,"owner_type_description":"Eier (Selveier)","property_type_description":"Leilighet","size_from":133,"to_year":1985,"type":"realestate"}]