[{"Location":"Jahrenveien 79, Fetsund","ad_id":260954618,"ad_link":"https://www.finn.no/realestate/homes/ad.html?finnkode=260954618","ad_type":1,"energy_label":7,"from_year":1850,"lat":59.9074,"local_area_name":"Fetsund","lon":11.1659,"number_of_bedrooms":1,"owner_type_description":"Eier (Selveier)","property_type_description":"Gårdsbruk/Småbruk","size_from":125,"to_year":1850,"type":"realestate"},{"Location":"Borreveien 136 og 138, Horten","ad_id":252179712,"ad_link":"https://www.finn.no/realestate/homes/ad.html?finnkode=252179712","ad_type":1,"energy_label":7,"from_year":1850,"lat":59.38591,"local_area_name":null,"lon":10.46539,"number_of_bedrooms":6,"owner_type_description":"Eier (Selveier)","property_type_description":"Enebolig","size_from":343,"to_year":1850,"type":"realestate"},{"Location":"Lølandsveien 429, Lindesnes","ad_id":260891785,"ad_link":"https://www.finn.no/realestate/homes/ad.html?finnkode=260891785","ad_type":1,"energy_label":7,"from_year":1850,"lat":58.20019,"local_area_name":null,"lon":7.33795,"number_of_bedrooms":2,"owner_type_description":"Eier (Selveier)","property_type_description":"Enebolig","size_from":84,"to_year":1850,"type":"realestate"},{"Location":"Quinsgaards gate 7, Stathelle","ad_id":260650937,"ad_link":"https://www.finn.no/realestate/homes/ad.html?finnkode=260650937","ad_type":1,"energy_label":7,"from_year":1850,"lat":59.04453,"local_area_name":"Stathelle","lon":9.69788,"number_of_bedrooms":1,"owner_type_description":"Eier (Selveier)","property_type_description":"Enebolig","size_from":52,"to_year":1850,"type":"realestate"},{"Location":"Badehusgata 29, Drøbak","ad_id":260313058,"ad_link":"https://www.finn.no/realestate/homes/ad.html?finnkode=260313058","ad_type":1,"energy_label":7,"from_year":1850,"lat":59.6593,"local_area_name":"Drøbak sentrum","lon":10.6292,"number_of_bedrooms":5,"owner_type_description":"Eier (Selveier)","property_type_description":"Enebolig","size_from":216,"to_year":1850,"type":"realestate"},{"Location":"Korshavnveien 51, Skjærhalden","ad_id":260014794,"ad_link":"https://www.finn.no/realestate/homes/ad.html?finnkode=260014794","ad_type":1,"energy_label":7,"from_year":1850,"lat":59.06362,"local_area_name":null,"lon":11.00638,"number_of_bedrooms":2,"owner_type_description":"Eier (Selveier)","property_type_description":"Gårdsbruk/Småbruk","size_from":129,"to_year":1850,"type":"realestate"},{"Location":"Strandgata 205, Haugesund","ad_id":242219556,"ad_link":"https://www.finn.no/realestate/homes/ad.html?finnkode=242219556","ad_type":1,"energy_label":7,"from_year":1850,"lat":59.4156,"local_area_name":"Sentrum","lon":5.2647,"number_of_bedrooms":6,"owner_type_description":"Eier (Selveier)","property_type_description":"Enebolig","size_from":301,"to_year":1850,"type":"realestate"},{"Location":"Munkejordet 12, Arendal","ad_id":250988708,"ad_link":"https://www.finn.no/realestate/homes/ad.html?finnkode=250988708","ad_type":1,"energy_label":7,"from_year":1850,"lat":58.46329,"local_area_name":"Arendal sentrum","lon":8.7641,"number_of_bedrooms":4,"owner_type_description":"Eier (Selveier)","property_type_description":"Enebolig","size_from":153,"to_year":1850,"type":"realestate"},{"Location":"Øvrevegen 60, Raudeberg","ad_id":257017569,"ad_link":"https://www.finn.no/realestate/homes/ad.html?finnkode=257017569","ad_type":1,"energy_label":7,"from_year":1850,"lat":61.97877,"local_area_name":null,"lon":5.13395,"number_of_bedrooms":4,"owner_type_description":"Eier (Selveier)","property_type_description":"Gårdsbruk/Småbruk","size_from":133,"to_year":1850,"type":"realestate"},{"Location":"Håvet 24, Arendal","ad_id":256477766,"ad_link":"https://www.finn.no/realestate/homes/ad.html?finnkode=256477766","ad_type":1,"energy_label":7,"from_year":1850,"lat":58.46652,"local_area_name":"Arendal","lon":8.76155,"number_of_bedrooms":2,"owner_type_description":"Eier (Selveier)","property_type_description":"Enebolig","size_from":93,"to_year":1850,"type":"realestate"},{"Location":"Sjøgata 15, Uthaug","ad_id":256294260,"ad_link":"https://www.finn.no/realestate/homes/ad.html?finnkode=256294260","ad_type":1,"energy_label":7,"from_year":1850,"lat":63.72666,"local_area_name":"Uthaug","lon":9.59451,"number_of_bedrooms":3,"owner_type_description":"Eier (Selveier)","property_type_description":"Enebolig","size_from":105,"to_year":1850,"type":"realestate"},{"Location":"Fjæreveien 125, Grimstad","ad_id":256200424,"ad_link":"https://www.finn.no/realestate/homes/ad.html?finnkode=256200424","ad_type":1,"energy_label":7,"from_year":1850,"lat":58.36216,"local_area_name":null,"lon":8.58951,"number_of_bedrooms":2,"owner_type_description":"Eier (Selveier)","property_type_description":"Enebolig","size_from":89,"to_year":1850,"type":"realestate"},{"Location":"Munkegaten 1B, Arendal","ad_id":254729364,"ad_link":"https://www.finn.no/realestate/homes/ad.html?finnkode=254729364","ad_type":1,"energy_label":7,"from_year":1850,"lat":58.46264,"local_area_name":null,"lon":8.7631,"number_of_bedrooms":2,"owner_type_description":"Eier (Selveier)","property_type_description":"Leilighet","size_from":58,"to_year":1850,"type":"realestate"},{"Location":"Norsjøvegen 122, Akkerhaugen","ad_id":249446810,"ad_link":"https://www.finn.no/realestate/homes/ad.html?finnkode=249446810","ad_type":1,"energy_label":7,"from_year":1850,"lat":59.3814,"local_area_name":"Akkerhaugen","lon":9.2303,"number_of_bedrooms":3,"owner_type_description":"Eier (Selveier)","property_type_description":"Enebolig","size_from":153,"to_year":1850,"type":"realestate"},{"Location":"Repslagergata 5, Halden","ad_id":237418828,"ad_link":"https://www.finn.no/realestate/homes/ad.html?finnkode=237418828","ad_type":1,"energy_label":7,"from_year":1850,"lat":59.12372,"local_area_name":"Halden sentrum","lon":11.38562,"number_of_bedrooms":5,"owner_type_description":"Eier (Selveier)","property_type_description":"Enebolig","size_from":263,"to_year":1850,"type":"realestate"},{"Location":"Gammelveien 13, Rena","ad_id":151458935,"ad_link":"https://www.finn.no/realestate/homes/ad.html?finnkode=151458935","ad_type":1,"energy_label":7,"from_year":1850,"lat":61.13858,"local_area_name":null,"lon":11.36587,"number_of_bedrooms":3,"owner_type_description":"Eier (Selveier)","property_type_description":"Enebolig","size_from":94,"to_year":1850,"type":"realestate"}]