[{"Location":"Nattlandsveien 102A, Bergen","ad_id":261359261,"ad_link":"https://www.finn.no/realestate/homes/ad.html?finnkode=261359261","ad_type":1,"energy_label":7,"from_year":1967,"lat":60.3529,"local_area_name":"LANDÅS","lon":5.3691,"number_of_bedrooms":0,"owner_type_description":"Andel","property_type_description":"Leilighet","size_from":37,"to_year":1967,"type":"realestate"},{"Location":"Havørnbrautene 56C, Hafrsfjord","ad_id":260553083,"ad_link":"https://www.finn.no/realestate/homes/ad.html?finnkode=260553083","ad_type":1,"energy_label":7,"from_year":1967,"lat":58.9715,"local_area_name":"KVERNEVIK","lon":5.6101,"number_of_bedrooms":3,"owner_type_description":"Andel","property_type_description":"Rekkehus","size_from":142,"to_year":1967,"type":"realestate"},{"Location":"Hoelsandvegen 19, Sunndalsøra","ad_id":261444323,"ad_link":"https://www.finn.no/realestate/homes/ad.html?finnkode=261444323","ad_type":1,"energy_label":7,"from_year":1967,"lat":62.6588,"local_area_name":null,"lon":8.64023,"number_of_bedrooms":3,"owner_type_description":"Eier (Selveier)","property_type_description":"Enebolig","size_from":117,"to_year":1967,"type":"realestate"},{"Location":"Østre Moholt-tun 5, Trondheim","ad_id":261253771,"ad_link":"https://www.finn.no/realestate/homes/ad.html?finnkode=261253771","ad_type":1,"energy_label":7,"from_year":1967,"lat":63.40886,"local_area_name":"Moholt","lon":10.43864,"number_of_bedrooms":1,"owner_type_description":"Andel","property_type_description":"Leilighet","size_from":44,"to_year":1967,"type":"realestate"},{"Location":"Nedre Skogvei 7B, Oslo","ad_id":261233774,"ad_link":"https://www.finn.no/realestate/homes/ad.html?finnkode=261233774","ad_type":1,"energy_label":7,"from_year":1967,"lat":59.91973,"local_area_name":"BESTUM | ULLERN","lon":10.65751,"number_of_bedrooms":1,"owner_type_description":"Eier (Selveier)","property_type_description":"Leilighet","size_from":50,"to_year":1967,"type":"realestate"},{"Location":"Ammerudgrenda 176, Oslo","ad_id":260879979,"ad_link":"https://www.finn.no/realestate/homes/ad.html?finnkode=260879979","ad_type":1,"energy_label":7,"from_year":1967,"lat":59.9648,"local_area_name":"FAMILIEBOLIG PÅ AMMERUD","lon":10.8794,"number_of_bedrooms":3,"owner_type_description":"Andel","property_type_description":"Leilighet","size_from":87,"to_year":1967,"type":"realestate"},{"Location":"Råstadvegen 12, Jaren","ad_id":260978585,"ad_link":"https://www.finn.no/realestate/homes/ad.html?finnkode=260978585","ad_type":1,"energy_label":7,"from_year":1967,"lat":60.3923,"local_area_name":"Jaren","lon":10.5745,"number_of_bedrooms":3,"owner_type_description":"Eier (Selveier)","property_type_description":"Enebolig","size_from":153,"to_year":1967,"type":"realestate"},{"Location":"Kvennhusvegen 1E, Fjerdingby","ad_id":260937467,"ad_link":"https://www.finn.no/realestate/homes/ad.html?finnkode=260937467","ad_type":1,"energy_label":7,"from_year":1967,"lat":59.9328,"local_area_name":null,"lon":11.0737,"number_of_bedrooms":3,"owner_type_description":"Eier (Selveier)","property_type_description":"Rekkehus","size_from":107,"to_year":1967,"type":"realestate"},{"Location":"Strandpromenaden 156, Moss","ad_id":260718365,"ad_link":"https://www.finn.no/realestate/homes/ad.html?finnkode=260718365","ad_type":1,"energy_label":7,"from_year":1967,"lat":59.4242,"local_area_name":"Framnes, Jeløy","lon":10.63,"number_of_bedrooms":2,"owner_type_description":"Andel","property_type_description":"Leilighet","size_from":69,"to_year":1967,"type":"realestate"},{"Location":"von Øtkens vei 1, Oslo","ad_id":260871700,"ad_link":"https://www.finn.no/realestate/homes/ad.html?finnkode=260871700","ad_type":1,"energy_label":7,"from_year":1967,"lat":59.8488,"local_area_name":"Ljan/Nordstrand","lon":10.7876,"number_of_bedrooms":1,"owner_type_description":"Eier (Selveier)","property_type_description":"Leilighet","size_from":41,"to_year":1967,"type":"realestate"},{"Location":"Hagavegen 114, Tananger","ad_id":260952757,"ad_link":"https://www.finn.no/realestate/homes/ad.html?finnkode=260952757","ad_type":1,"energy_label":7,"from_year":1967,"lat":58.93914,"local_area_name":"Haga / Tananger","lon":5.62315,"number_of_bedrooms":4,"owner_type_description":"Eier (Selveier)","property_type_description":"Enebolig","size_from":185,"to_year":1967,"type":"realestate"},{"Location":"Agnaltveien 201, Sarpsborg","ad_id":260792753,"ad_link":"https://www.finn.no/realestate/homes/ad.html?finnkode=260792753","ad_type":1,"energy_label":7,"from_year":1967,"lat":59.3616,"local_area_name":null,"lon":11.03884,"number_of_bedrooms":3,"owner_type_description":"Eier (Selveier)","property_type_description":"Enebolig","size_from":88,"to_year":1967,"type":"realestate"},{"Location":"Linderudveien 33, Oslo","ad_id":260764791,"ad_link":"https://www.finn.no/realestate/homes/ad.html?finnkode=260764791","ad_type":1,"energy_label":7,"from_year":1967,"lat":59.9415,"local_area_name":"Linderud","lon":10.8448,"number_of_bedrooms":4,"owner_type_description":"Eier (Selveier)","property_type_description":"Leilighet","size_from":72,"to_year":1967,"type":"realestate"},{"Location":"Alfred Trønsdals veg 9, Trondheim","ad_id":260912408,"ad_link":"https://www.finn.no/realestate/homes/ad.html?finnkode=260912408","ad_type":1,"energy_label":7,"from_year":1967,"lat":63.406,"local_area_name":"Othilienborg","lon":10.4404,"number_of_bedrooms":2,"owner_type_description":"Andel","property_type_description":"Leilighet","size_from":72,"to_year":1967,"type":"realestate"},{"Location":"Ynglingeveien 48, Borre","ad_id":260909739,"ad_link":"https://www.finn.no/realestate/homes/ad.html?finnkode=260909739","ad_type":1,"energy_label":7,"from_year":1967,"lat":59.38184,"local_area_name":"Borre","lon":10.44937,"number_of_bedrooms":3,"owner_type_description":"Eier (Selveier)","property_type_description":"Enebolig","size_from":183,"to_year":1967,"type":"realestate"},{"Location":"Karolinerveien 3C, Trondheim","ad_id":260896880,"ad_link":"https://www.finn.no/realestate/homes/ad.html?finnkode=260896880","ad_type":1,"energy_label":7,"from_year":1967,"lat":63.41008,"local_area_name":"HAVSTAD","lon":10.35781,"number_of_bedrooms":2,"owner_type_description":"Andel","property_type_description":"Leilighet","size_from":82,"to_year":1967,"type":"realestate"},{"Location":"Krokeidevegen 650, Fana","ad_id":259092011,"ad_link":"https://www.finn.no/realestate/homes/ad.html?finnkode=259092011","ad_type":1,"energy_label":7,"from_year":1967,"lat":60.22603,"local_area_name":"Fana","lon":5.2921,"number_of_bedrooms":2,"owner_type_description":"Eier (Selveier)","property_type_description":"Enebolig","size_from":162,"to_year":1967,"type":"realestate"},{"Location":"Kongerødvegen 38D, Skien","ad_id":260776504,"ad_link":"https://www.finn.no/realestate/homes/ad.html?finnkode=260776504","ad_type":1,"energy_label":7,"from_year":1967,"lat":59.1509,"local_area_name":"Klyve","lon":9.61864,"number_of_bedrooms":2,"owner_type_description":"Andel","property_type_description":"Leilighet","size_from":69,"to_year":1967,"type":"realestate"},{"Location":"Åsveien 6, Alta","ad_id":260660406,"ad_link":"https://www.finn.no/realestate/homes/ad.html?finnkode=260660406","ad_type":1,"energy_label":7,"from_year":1967,"lat":69.96954,"local_area_name":null,"lon":23.27844,"number_of_bedrooms":2,"owner_type_description":"Eier (Selveier)","property_type_description":"Enebolig","size_from":156,"to_year":1967,"type":"realestate"},{"Location":"Hjersings vei 20, Sarpsborg","ad_id":260624489,"ad_link":"https://www.finn.no/realestate/homes/ad.html?finnkode=260624489","ad_type":1,"energy_label":7,"from_year":1967,"lat":59.28545,"local_area_name":"Brevik","lon":11.08794,"number_of_bedrooms":3,"owner_type_description":"Andel","property_type_description":"Leilighet","size_from":82,"to_year":1967,"type":"realestate"},{"Location":"Solveien 6D, Spydeberg","ad_id":260536586,"ad_link":"https://www.finn.no/realestate/homes/ad.html?finnkode=260536586","ad_type":1,"energy_label":7,"from_year":1967,"lat":59.6167,"local_area_name":"Spydeberg sentrum","lon":11.0872,"number_of_bedrooms":3,"owner_type_description":"Eier (Selveier)","property_type_description":"Rekkehus","size_from":120,"to_year":1967,"type":"realestate"},{"Location":"Dyrøyveien 440, Norddyrøy","ad_id":260549548,"ad_link":"https://www.finn.no/realestate/homes/ad.html?finnkode=260549548","ad_type":1,"energy_label":7,"from_year":1967,"lat":63.78394,"local_area_name":"Dyrøy","lon":8.71449,"number_of_bedrooms":4,"owner_type_description":"Eier (Selveier)","property_type_description":"Enebolig","size_from":163,"to_year":1967,"type":"realestate"},{"Location":"Eiksveien 90D, Østerås","ad_id":260043497,"ad_link":"https://www.finn.no/realestate/homes/ad.html?finnkode=260043497","ad_type":1,"energy_label":7,"from_year":1967,"lat":59.9416,"local_area_name":"Østerås","lon":10.6119,"number_of_bedrooms":2,"owner_type_description":"Andel","property_type_description":"Leilighet","size_from":70,"to_year":1967,"type":"realestate"},{"Location":"Holmelia 9C, Kråkerøy","ad_id":260479282,"ad_link":"https://www.finn.no/realestate/homes/ad.html?finnkode=260479282","ad_type":1,"energy_label":7,"from_year":1967,"lat":59.16947,"local_area_name":null,"lon":10.93424,"number_of_bedrooms":7,"owner_type_description":"Eier (Selveier)","property_type_description":"Enebolig","size_from":197,"to_year":1967,"type":"realestate"},{"Location":"Karlslundvegen 12, Nybergsund","ad_id":260049556,"ad_link":"https://www.finn.no/realestate/homes/ad.html?finnkode=260049556","ad_type":1,"energy_label":7,"from_year":1967,"lat":61.262,"local_area_name":null,"lon":12.3205,"number_of_bedrooms":3,"owner_type_description":"Eier (Selveier)","property_type_description":"Enebolig","size_from":99,"to_year":1967,"type":"realestate"},{"Location":"Ekebergveien 292N, Oslo","ad_id":260103983,"ad_link":"https://www.finn.no/realestate/homes/ad.html?finnkode=260103983","ad_type":1,"energy_label":7,"from_year":1967,"lat":59.8523,"local_area_name":"Nordstrand/Ljabru","lon":10.79958,"number_of_bedrooms":1,"owner_type_description":"Eier (Selveier)","property_type_description":"Leilighet","size_from":59,"to_year":1967,"type":"realestate"},{"Location":"Åsenhagen 9D, Skedsmokorset","ad_id":260021394,"ad_link":"https://www.finn.no/realestate/homes/ad.html?finnkode=260021394","ad_type":1,"energy_label":7,"from_year":1967,"lat":60.0145,"local_area_name":"Skedsmokorset","lon":11.0356,"number_of_bedrooms":2,"owner_type_description":"Andel","property_type_description":"Leilighet","size_from":68,"to_year":1967,"type":"realestate"},{"Location":"Rørosveien 3007, Singsås","ad_id":259577575,"ad_link":"https://www.finn.no/realestate/homes/ad.html?finnkode=259577575","ad_type":1,"energy_label":7,"from_year":1967,"lat":62.9538,"local_area_name":"Singsås","lon":10.73994,"number_of_bedrooms":3,"owner_type_description":"Eier (Selveier)","property_type_description":"Enebolig","size_from":104,"to_year":1967,"type":"realestate"},{"Location":"Rising terrasse 76, Skien","ad_id":259693763,"ad_link":"https://www.finn.no/realestate/homes/ad.html?finnkode=259693763","ad_type":1,"energy_label":7,"from_year":1967,"lat":59.2306,"local_area_name":"Rising","lon":9.59543,"number_of_bedrooms":4,"owner_type_description":"Eier (Selveier)","property_type_description":"Enebolig","size_from":165,"to_year":1967,"type":"realestate"},{"Location":"Kirkealleen 35, Brønnøysund","ad_id":259587028,"ad_link":"https://www.finn.no/realestate/homes/ad.html?finnkode=259587028","ad_type":1,"energy_label":7,"from_year":1967,"lat":65.4661,"local_area_name":null,"lon":12.20293,"number_of_bedrooms":2,"owner_type_description":"Eier (Selveier)","property_type_description":"Enebolig","size_from":82,"to_year":1967,"type":"realestate"},{"Location":"Sælehaugen 25, Søfteland","ad_id":259484866,"ad_link":"https://www.finn.no/realestate/homes/ad.html?finnkode=259484866","ad_type":1,"energy_label":7,"from_year":1967,"lat":60.24292,"local_area_name":null,"lon":5.44844,"number_of_bedrooms":4,"owner_type_description":"Eier (Selveier)","property_type_description":"Enebolig","size_from":132,"to_year":1967,"type":"realestate"},{"Location":"Smedstadgrenda 7, Gjerdrum","ad_id":258969814,"ad_link":"https://www.finn.no/realestate/homes/ad.html?finnkode=258969814","ad_type":1,"energy_label":7,"from_year":1967,"lat":60.0857,"local_area_name":"GJERDRUM / 5 min fra Ask sentrum","lon":11.0806,"number_of_bedrooms":4,"owner_type_description":"Eier (Selveier)","property_type_description":"Enebolig","size_from":187,"to_year":1967,"type":"realestate"},{"Location":"Måltrostveien 36D, Oslo","ad_id":258874699,"ad_link":"https://www.finn.no/realestate/homes/ad.html?finnkode=258874699","ad_type":1,"energy_label":7,"from_year":1967,"lat":59.96476,"local_area_name":"HOLMENKOLLEN","lon":10.65112,"number_of_bedrooms":0,"owner_type_description":"Eier (Selveier)","property_type_description":"Tomannsbolig","size_from":255,"to_year":1967,"type":"realestate"},{"Location":"Styrmannsveien 8, Kråkerøy","ad_id":258359638,"ad_link":"https://www.finn.no/realestate/homes/ad.html?finnkode=258359638","ad_type":1,"energy_label":7,"from_year":1967,"lat":59.1965,"local_area_name":"Nordre Kråkerøy","lon":10.9403,"number_of_bedrooms":3,"owner_type_description":"Eier (Selveier)","property_type_description":"Enebolig","size_from":105,"to_year":1967,"type":"realestate"},{"Location":"Buengvegen 50, Flatåsen","ad_id":258349699,"ad_link":"https://www.finn.no/realestate/homes/ad.html?finnkode=258349699","ad_type":1,"energy_label":7,"from_year":1967,"lat":63.38294,"local_area_name":"Buenget","lon":10.35475,"number_of_bedrooms":4,"owner_type_description":"Eier (Selveier)","property_type_description":"Enebolig","size_from":119,"to_year":1967,"type":"realestate"},{"Location":"Lauritz Hervigs vei 150 B, Drammen","ad_id":258187776,"ad_link":"https://www.finn.no/realestate/homes/ad.html?finnkode=258187776","ad_type":1,"energy_label":7,"from_year":1967,"lat":59.7157,"local_area_name":null,"lon":10.22394,"number_of_bedrooms":0,"owner_type_description":"Andel","property_type_description":"Leilighet","size_from":70,"to_year":1967,"type":"realestate"},{"Location":"Ekornveien 13, Siggerud","ad_id":256232968,"ad_link":"https://www.finn.no/realestate/homes/ad.html?finnkode=256232968","ad_type":1,"energy_label":7,"from_year":1967,"lat":59.7938,"local_area_name":"Siggerud","lon":10.8891,"number_of_bedrooms":4,"owner_type_description":"Eier (Selveier)","property_type_description":"Enebolig","size_from":360,"to_year":1967,"type":"realestate"},{"Location":"Lyngvegen 4, Tromsø","ad_id":257863352,"ad_link":"https://www.finn.no/realestate/homes/ad.html?finnkode=257863352","ad_type":1,"energy_label":7,"from_year":1967,"lat":69.66236,"local_area_name":null,"lon":18.92162,"number_of_bedrooms":5,"owner_type_description":"Eier (Selveier)","property_type_description":"Enebolig","size_from":262,"to_year":1967,"type":"realestate"},{"Location":"Birkelundsbakken 25 C, Paradis","ad_id":250011772,"ad_link":"https://www.finn.no/realestate/homes/ad.html?finnkode=250011772","ad_type":1,"energy_label":7,"from_year":1967,"lat":60.34049,"local_area_name":"Paradis","lon":5.35805,"number_of_bedrooms":6,"owner_type_description":"Eier (Selveier)","property_type_description":"Enebolig","size_from":178,"to_year":1967,"type":"realestate"},{"Location":"Jørudbakken 16, Lillehammer","ad_id":256367847,"ad_link":"https://www.finn.no/realestate/homes/ad.html?finnkode=256367847","ad_type":1,"energy_label":7,"from_year":1967,"lat":61.1256,"local_area_name":"Vingnes","lon":10.3937,"number_of_bedrooms":3,"owner_type_description":"Eier (Selveier)","property_type_description":"Enebolig","size_from":91,"to_year":1967,"type":"realestate"},{"Location":"Nyborgvegen 21, Florø","ad_id":256170916,"ad_link":"https://www.finn.no/realestate/homes/ad.html?finnkode=256170916","ad_type":1,"energy_label":7,"from_year":1967,"lat":61.59551,"local_area_name":null,"lon":5.01228,"number_of_bedrooms":5,"owner_type_description":"Eier (Selveier)","property_type_description":"Enebolig","size_from":192,"to_year":1967,"type":"realestate"},{"Location":"Vasstrandvegen 279, Kvaløya","ad_id":251538718,"ad_link":"https://www.finn.no/realestate/homes/ad.html?finnkode=251538718","ad_type":1,"energy_label":7,"from_year":1967,"lat":69.62915,"local_area_name":"Kattfjord","lon":18.35345,"number_of_bedrooms":2,"owner_type_description":"Eier (Selveier)","property_type_description":"Enebolig","size_from":88,"to_year":1967,"type":"realestate"},{"Location":"Rødbergbakken 3, Larvik","ad_id":254231089,"ad_link":"https://www.finn.no/realestate/homes/ad.html?finnkode=254231089","ad_type":1,"energy_label":7,"from_year":1967,"lat":59.0329,"local_area_name":null,"lon":10.0176,"number_of_bedrooms":3,"owner_type_description":"Eier (Selveier)","property_type_description":"Enebolig","size_from":90,"to_year":1967,"type":"realestate"},{"Location":"Svebakken 56, Fjørtoft","ad_id":253363323,"ad_link":"https://www.finn.no/realestate/homes/ad.html?finnkode=253363323","ad_type":1,"energy_label":7,"from_year":1967,"lat":62.7004,"local_area_name":"Fjørtoft","lon":6.368,"number_of_bedrooms":6,"owner_type_description":"Eier (Selveier)","property_type_description":"Enebolig","size_from":212,"to_year":1967,"type":"realestate"},{"Location":"Vognmannsløkka 7, Kabelvåg","ad_id":246872424,"ad_link":"https://www.finn.no/realestate/homes/ad.html?finnkode=246872424","ad_type":1,"energy_label":7,"from_year":1967,"lat":68.21144,"local_area_name":null,"lon":14.47391,"number_of_bedrooms":5,"owner_type_description":"Eier (Selveier)","property_type_description":"Enebolig","size_from":147,"to_year":1967,"type":"realestate"},{"Location":"Nubben 15, Bryne","ad_id":251768111,"ad_link":"https://www.finn.no/realestate/homes/ad.html?finnkode=251768111","ad_type":1,"energy_label":7,"from_year":1967,"lat":58.72447,"local_area_name":"Bryne","lon":5.64589,"number_of_bedrooms":3,"owner_type_description":"Eier (Selveier)","property_type_description":"Enebolig","size_from":144,"to_year":1967,"type":"realestate"},{"Location":"Skoleveien 1, Moen","ad_id":251301869,"ad_link":"https://www.finn.no/realestate/homes/ad.html?finnkode=251301869","ad_type":1,"energy_label":7,"from_year":1967,"lat":69.1489,"local_area_name":null,"lon":18.5929,"number_of_bedrooms":3,"owner_type_description":"Eier (Selveier)","property_type_description":"Enebolig","size_from":200,"to_year":1967,"type":"realestate"},{"Location":"Bergjevegen 22, Tananger","ad_id":238479191,"ad_link":"https://www.finn.no/realestate/homes/ad.html?finnkode=238479191","ad_type":1,"energy_label":7,"from_year":1967,"lat":58.93326,"local_area_name":"Tananger","lon":5.60726,"number_of_bedrooms":5,"owner_type_description":"Eier (Selveier)","property_type_description":"Enebolig","size_from":265,"to_year":1967,"type":"realestate"},{"Location":"Støylavegen 19, Leinøy","ad_id":231817153,"ad_link":"https://www.finn.no/realestate/homes/ad.html?finnkode=231817153","ad_type":1,"energy_label":7,"from_year":1967,"lat":62.3458,"local_area_name":null,"lon":5.6965,"number_of_bedrooms":5,"owner_type_description":"Eier (Selveier)","property_type_description":"Enebolig","size_from":158,"to_year":1967,"type":"realestate"},{"Location":"Waravegen 7, Vadsø","ad_id":229113358,"ad_link":"https://www.finn.no/realestate/homes/ad.html?finnkode=229113358","ad_type":1,"energy_label":7,"from_year":1967,"lat":70.07622,"local_area_name":null,"lon":29.78441,"number_of_bedrooms":4,"owner_type_description":"Eier (Selveier)","property_type_description":"Enebolig","size_from":129,"to_year":1967,"type":"realestate"}]