[{"Location":"Molværsvegen 83, Langevåg","ad_id":231417229,"ad_link":"https://www.finn.no/realestate/homes/ad.html?finnkode=231417229","ad_type":1,"energy_label":7,"from_year":1950,"lat":62.4369,"local_area_name":"Langevåg","lon":6.1829,"number_of_bedrooms":2,"owner_type_description":"Eier (Selveier)","property_type_description":"Leilighet","size_from":71,"to_year":1950,"type":"realestate"},{"Location":"Ystenesgata 37B, Ålesund","ad_id":261457364,"ad_link":"https://www.finn.no/realestate/homes/ad.html?finnkode=261457364","ad_type":1,"energy_label":7,"from_year":1950,"lat":62.47103,"local_area_name":"Ysteneset / Klipra","lon":6.17861,"number_of_bedrooms":2,"owner_type_description":"Andel","property_type_description":"Leilighet","size_from":75,"to_year":1950,"type":"realestate"},{"Location":"Osveien 2101, Osen","ad_id":261450961,"ad_link":"https://www.finn.no/realestate/homes/ad.html?finnkode=261450961","ad_type":1,"energy_label":7,"from_year":1950,"lat":61.30246,"local_area_name":null,"lon":11.73225,"number_of_bedrooms":1,"owner_type_description":"Eier (Selveier)","property_type_description":"Enebolig","size_from":69,"to_year":1950,"type":"realestate"},{"Location":"Solbakksvingen 1A, Bergen","ad_id":261295048,"ad_link":"https://www.finn.no/realestate/homes/ad.html?finnkode=261295048","ad_type":1,"energy_label":7,"from_year":1950,"lat":60.4279,"local_area_name":"YTRE SANDVIKEN VED NHH","lon":5.3005,"number_of_bedrooms":2,"owner_type_description":"Aksje","property_type_description":"Leilighet","size_from":76,"to_year":1950,"type":"realestate"},{"Location":"Håveheia 42B, Arendal","ad_id":261394160,"ad_link":"https://www.finn.no/realestate/homes/ad.html?finnkode=261394160","ad_type":1,"energy_label":7,"from_year":1950,"lat":58.46839,"local_area_name":null,"lon":8.76153,"number_of_bedrooms":3,"owner_type_description":"Eier (Selveier)","property_type_description":"Tomannsbolig","size_from":84,"to_year":1950,"type":"realestate"},{"Location":"Breivikveien 413, Andenes","ad_id":261173086,"ad_link":"https://www.finn.no/realestate/homes/ad.html?finnkode=261173086","ad_type":1,"energy_label":7,"from_year":1950,"lat":69.19552,"local_area_name":"Breivika / Andøy","lon":16.08588,"number_of_bedrooms":3,"owner_type_description":"Eier (Selveier)","property_type_description":"Enebolig","size_from":146,"to_year":1950,"type":"realestate"},{"Location":"Storelvgata 7, Namsos","ad_id":261349507,"ad_link":"https://www.finn.no/realestate/homes/ad.html?finnkode=261349507","ad_type":1,"energy_label":7,"from_year":1950,"lat":64.46856,"local_area_name":null,"lon":11.47694,"number_of_bedrooms":4,"owner_type_description":"Eier (Selveier)","property_type_description":"Tomannsbolig","size_from":163,"to_year":1950,"type":"realestate"},{"Location":"Fagervikveien 213, Leirfjord","ad_id":261283987,"ad_link":"https://www.finn.no/realestate/homes/ad.html?finnkode=261283987","ad_type":1,"energy_label":7,"from_year":1950,"lat":66.06308,"local_area_name":"Ytre Reines","lon":12.69758,"number_of_bedrooms":6,"owner_type_description":"Eier (Selveier)","property_type_description":"Enebolig","size_from":162,"to_year":1950,"type":"realestate"},{"Location":"Nattlandsveien 23, Bergen","ad_id":255472105,"ad_link":"https://www.finn.no/realestate/homes/ad.html?finnkode=255472105","ad_type":1,"energy_label":7,"from_year":1950,"lat":60.3672,"local_area_name":"8 min gange til Haukeland","lon":5.365,"number_of_bedrooms":2,"owner_type_description":"Aksje","property_type_description":"Leilighet","size_from":76,"to_year":1950,"type":"realestate"},{"Location":"Hoff terrasse 7, Oslo","ad_id":260684626,"ad_link":"https://www.finn.no/realestate/homes/ad.html?finnkode=260684626","ad_type":1,"energy_label":7,"from_year":1950,"lat":59.9276,"local_area_name":"Hoff/Skøyen","lon":10.6739,"number_of_bedrooms":1,"owner_type_description":"Eier (Selveier)","property_type_description":"Leilighet","size_from":43,"to_year":1950,"type":"realestate"},{"Location":"Jansbergveien 13A, Oslo","ad_id":261034414,"ad_link":"https://www.finn.no/realestate/homes/ad.html?finnkode=261034414","ad_type":1,"energy_label":7,"from_year":1950,"lat":59.96349,"local_area_name":"NYOPPUSSET 2. ETG + LOFT PÅ NORBERG","lon":10.74669,"number_of_bedrooms":2,"owner_type_description":"Eier (Selveier)","property_type_description":"Tomannsbolig","size_from":84,"to_year":1950,"type":"realestate"},{"Location":"Nøsterudveien 47, Svelvik","ad_id":261030168,"ad_link":"https://www.finn.no/realestate/homes/ad.html?finnkode=261030168","ad_type":1,"energy_label":7,"from_year":1950,"lat":59.68529,"local_area_name":null,"lon":10.33781,"number_of_bedrooms":4,"owner_type_description":"Eier (Selveier)","property_type_description":"Enebolig","size_from":108,"to_year":1950,"type":"realestate"},{"Location":"Midtåsen 50A, Oslo","ad_id":260664179,"ad_link":"https://www.finn.no/realestate/homes/ad.html?finnkode=260664179","ad_type":1,"energy_label":7,"from_year":1950,"lat":59.8519,"local_area_name":"NORDSTRAND","lon":10.7957,"number_of_bedrooms":3,"owner_type_description":"Eier (Selveier)","property_type_description":"Leilighet","size_from":78,"to_year":1950,"type":"realestate"},{"Location":"Luftfartsveien 2, Oslo","ad_id":260548706,"ad_link":"https://www.finn.no/realestate/homes/ad.html?finnkode=260548706","ad_type":1,"energy_label":7,"from_year":1950,"lat":59.9474,"local_area_name":"Holmen/Røa","lon":10.6618,"number_of_bedrooms":3,"owner_type_description":"Eier (Selveier)","property_type_description":"Leilighet","size_from":86,"to_year":1950,"type":"realestate"},{"Location":"Espedalsveien 32, Drangedal","ad_id":260973957,"ad_link":"https://www.finn.no/realestate/homes/ad.html?finnkode=260973957","ad_type":1,"energy_label":7,"from_year":1950,"lat":59.10586,"local_area_name":"FINNEID / DRANGEDAL","lon":9.0802,"number_of_bedrooms":2,"owner_type_description":"Eier (Selveier)","property_type_description":"Enebolig","size_from":109,"to_year":1950,"type":"realestate"},{"Location":"Lingelemveien 461, Sandefjord","ad_id":260950011,"ad_link":"https://www.finn.no/realestate/homes/ad.html?finnkode=260950011","ad_type":1,"energy_label":7,"from_year":1950,"lat":59.1917,"local_area_name":null,"lon":10.2278,"number_of_bedrooms":2,"owner_type_description":"Eier (Selveier)","property_type_description":"Enebolig","size_from":209,"to_year":1950,"type":"realestate"},{"Location":"Vibevegen 1, Bryne","ad_id":260942249,"ad_link":"https://www.finn.no/realestate/homes/ad.html?finnkode=260942249","ad_type":1,"energy_label":7,"from_year":1950,"lat":58.74079,"local_area_name":"Bryne/Vardheia","lon":5.65424,"number_of_bedrooms":3,"owner_type_description":"Eier (Selveier)","property_type_description":"Enebolig","size_from":124,"to_year":1950,"type":"realestate"},{"Location":"Brynsvegen 231, Ilseng","ad_id":260909282,"ad_link":"https://www.finn.no/realestate/homes/ad.html?finnkode=260909282","ad_type":1,"energy_label":7,"from_year":1950,"lat":60.76323,"local_area_name":null,"lon":11.29025,"number_of_bedrooms":2,"owner_type_description":"Eier (Selveier)","property_type_description":"Enebolig","size_from":129,"to_year":1950,"type":"realestate"},{"Location":"Morbergveien 20, Slemmestad","ad_id":260869663,"ad_link":"https://www.finn.no/realestate/homes/ad.html?finnkode=260869663","ad_type":1,"energy_label":7,"from_year":1950,"lat":59.7662,"local_area_name":"Slemmestad","lon":10.4736,"number_of_bedrooms":2,"owner_type_description":"Eier (Selveier)","property_type_description":"Enebolig","size_from":94,"to_year":1950,"type":"realestate"},{"Location":"Hylkjeneset 29, Hylkje","ad_id":260044073,"ad_link":"https://www.finn.no/realestate/homes/ad.html?finnkode=260044073","ad_type":1,"energy_label":7,"from_year":1950,"lat":60.5082,"local_area_name":"Hylkje","lon":5.3574,"number_of_bedrooms":3,"owner_type_description":"Eier (Selveier)","property_type_description":"Enebolig","size_from":99,"to_year":1950,"type":"realestate"},{"Location":"Solbergvegen 16, Stranda","ad_id":260798953,"ad_link":"https://www.finn.no/realestate/homes/ad.html?finnkode=260798953","ad_type":1,"energy_label":7,"from_year":1950,"lat":62.31002,"local_area_name":"Sløgstad/Sentrum","lon":6.94321,"number_of_bedrooms":5,"owner_type_description":"Eier (Selveier)","property_type_description":"Enebolig","size_from":210,"to_year":1950,"type":"realestate"},{"Location":"Pernillevegen 15, Haugesund","ad_id":260790427,"ad_link":"https://www.finn.no/realestate/homes/ad.html?finnkode=260790427","ad_type":1,"energy_label":7,"from_year":1950,"lat":59.39541,"local_area_name":null,"lon":5.29436,"number_of_bedrooms":3,"owner_type_description":"Eier (Selveier)","property_type_description":"Enebolig","size_from":168,"to_year":1950,"type":"realestate"},{"Location":"Oslovegen 1225D, Aurdal","ad_id":260770345,"ad_link":"https://www.finn.no/realestate/homes/ad.html?finnkode=260770345","ad_type":1,"energy_label":7,"from_year":1950,"lat":60.92009,"local_area_name":"Aurdal","lon":9.42174,"number_of_bedrooms":3,"owner_type_description":"Eier (Selveier)","property_type_description":"Leilighet","size_from":165,"to_year":1950,"type":"realestate"},{"Location":"Lankan 5, Kyrksæterøra","ad_id":260770234,"ad_link":"https://www.finn.no/realestate/homes/ad.html?finnkode=260770234","ad_type":1,"energy_label":7,"from_year":1950,"lat":63.29256,"local_area_name":null,"lon":9.08578,"number_of_bedrooms":0,"owner_type_description":"Eier (Selveier)","property_type_description":"Enebolig","size_from":190,"to_year":1950,"type":"realestate"},{"Location":"Bjerkadalsveien 14, Bjerka","ad_id":260758627,"ad_link":"https://www.finn.no/realestate/homes/ad.html?finnkode=260758627","ad_type":1,"energy_label":7,"from_year":1950,"lat":66.15445,"local_area_name":null,"lon":13.84349,"number_of_bedrooms":4,"owner_type_description":"Eier (Selveier)","property_type_description":"Enebolig","size_from":133,"to_year":1950,"type":"realestate"},{"Location":"Lundebyveien 367 og 365, Hærland","ad_id":260562921,"ad_link":"https://www.finn.no/realestate/homes/ad.html?finnkode=260562921","ad_type":1,"energy_label":7,"from_year":1950,"lat":59.5519,"local_area_name":null,"lon":11.5233,"number_of_bedrooms":0,"owner_type_description":"Eier (Selveier)","property_type_description":"Enebolig","size_from":141,"to_year":1950,"type":"realestate"},{"Location":"Storveien 32, Gressvik","ad_id":260531699,"ad_link":"https://www.finn.no/realestate/homes/ad.html?finnkode=260531699","ad_type":1,"energy_label":7,"from_year":1950,"lat":59.22424,"local_area_name":"GRESSVIK","lon":10.90993,"number_of_bedrooms":4,"owner_type_description":"Eier (Selveier)","property_type_description":"Enebolig","size_from":163,"to_year":1950,"type":"realestate"},{"Location":"Bakkevegen 8, Torpo","ad_id":260526771,"ad_link":"https://www.finn.no/realestate/homes/ad.html?finnkode=260526771","ad_type":1,"energy_label":7,"from_year":1950,"lat":60.66455,"local_area_name":null,"lon":8.73004,"number_of_bedrooms":5,"owner_type_description":"Eier (Selveier)","property_type_description":"Enebolig","size_from":192,"to_year":1950,"type":"realestate"},{"Location":"Gammelveien 11, Henningsvær","ad_id":260491247,"ad_link":"https://www.finn.no/realestate/homes/ad.html?finnkode=260491247","ad_type":1,"energy_label":7,"from_year":1950,"lat":68.15394,"local_area_name":null,"lon":14.20086,"number_of_bedrooms":2,"owner_type_description":"Eier (Selveier)","property_type_description":"Enebolig","size_from":154,"to_year":1950,"type":"realestate"},{"Location":"Bliksetstugguvegen 4, Lena","ad_id":259722207,"ad_link":"https://www.finn.no/realestate/homes/ad.html?finnkode=259722207","ad_type":1,"energy_label":7,"from_year":1950,"lat":60.7334,"local_area_name":"Nordlihøgda","lon":10.7437,"number_of_bedrooms":2,"owner_type_description":"Eier (Selveier)","property_type_description":"Enebolig","size_from":129,"to_year":1950,"type":"realestate"},{"Location":"Brekkevegen 14, Urangsvåg","ad_id":260417536,"ad_link":"https://www.finn.no/realestate/homes/ad.html?finnkode=260417536","ad_type":1,"energy_label":7,"from_year":1950,"lat":59.80037,"local_area_name":null,"lon":5.15126,"number_of_bedrooms":5,"owner_type_description":"Eier (Selveier)","property_type_description":"Enebolig","size_from":144,"to_year":1950,"type":"realestate"},{"Location":"Brurudbakka 14, Fall","ad_id":260063298,"ad_link":"https://www.finn.no/realestate/homes/ad.html?finnkode=260063298","ad_type":1,"energy_label":7,"from_year":1950,"lat":60.67148,"local_area_name":"FALL","lon":10.36679,"number_of_bedrooms":3,"owner_type_description":"Eier (Selveier)","property_type_description":"Enebolig","size_from":115,"to_year":1950,"type":"realestate"},{"Location":"Ulsrudveien 22B, Oslo","ad_id":259757153,"ad_link":"https://www.finn.no/realestate/homes/ad.html?finnkode=259757153","ad_type":1,"energy_label":7,"from_year":1950,"lat":59.8889,"local_area_name":"Ulsrud / Østensjø","lon":10.8448,"number_of_bedrooms":4,"owner_type_description":"Eier (Selveier)","property_type_description":"Tomannsbolig","size_from":95,"to_year":1950,"type":"realestate"},{"Location":"Fjordgata 24, Harstad","ad_id":234245643,"ad_link":"https://www.finn.no/realestate/homes/ad.html?finnkode=234245643","ad_type":1,"energy_label":7,"from_year":1950,"lat":68.79657,"local_area_name":null,"lon":16.53935,"number_of_bedrooms":3,"owner_type_description":"Eier (Selveier)","property_type_description":"Leilighet","size_from":98,"to_year":1950,"type":"realestate"},{"Location":"Romsdalsvegen 6892, Verma","ad_id":259617620,"ad_link":"https://www.finn.no/realestate/homes/ad.html?finnkode=259617620","ad_type":1,"energy_label":7,"from_year":1950,"lat":62.3664,"local_area_name":null,"lon":8.0414,"number_of_bedrooms":3,"owner_type_description":"Eier (Selveier)","property_type_description":"Enebolig","size_from":84,"to_year":1950,"type":"realestate"},{"Location":"Smebyvegen 8, Hamar","ad_id":238370601,"ad_link":"https://www.finn.no/realestate/homes/ad.html?finnkode=238370601","ad_type":1,"energy_label":7,"from_year":1950,"lat":60.8132,"local_area_name":"Smeby","lon":11.0851,"number_of_bedrooms":3,"owner_type_description":"Eier (Selveier)","property_type_description":"Enebolig","size_from":143,"to_year":1950,"type":"realestate"},{"Location":"Røtisvegen 10, Øvre Årdal","ad_id":259627870,"ad_link":"https://www.finn.no/realestate/homes/ad.html?finnkode=259627870","ad_type":1,"energy_label":7,"from_year":1950,"lat":61.3083,"local_area_name":null,"lon":7.8221,"number_of_bedrooms":2,"owner_type_description":"Eier (Selveier)","property_type_description":"Leilighet","size_from":80,"to_year":1950,"type":"realestate"},{"Location":"Johan Bergs gate 14, Rørvik","ad_id":223937883,"ad_link":"https://www.finn.no/realestate/homes/ad.html?finnkode=223937883","ad_type":1,"energy_label":7,"from_year":1950,"lat":64.8626,"local_area_name":"Rørvik sentrum","lon":11.23551,"number_of_bedrooms":3,"owner_type_description":"Eier (Selveier)","property_type_description":"Enebolig","size_from":110,"to_year":1950,"type":"realestate"},{"Location":"P. O. Boddings veg 1, Gjøvik","ad_id":259147576,"ad_link":"https://www.finn.no/realestate/homes/ad.html?finnkode=259147576","ad_type":1,"energy_label":7,"from_year":1950,"lat":60.78315,"local_area_name":"Gjøvik-Viken","lon":10.69768,"number_of_bedrooms":3,"owner_type_description":"Eier (Selveier)","property_type_description":"Enebolig","size_from":118,"to_year":1950,"type":"realestate"},{"Location":"KJELDEBOTNVEIEN 22, Ballangen","ad_id":258977142,"ad_link":"https://www.finn.no/realestate/homes/ad.html?finnkode=258977142","ad_type":1,"energy_label":7,"from_year":1950,"lat":68.34476,"local_area_name":null,"lon":16.83396,"number_of_bedrooms":4,"owner_type_description":"Eier (Selveier)","property_type_description":"Enebolig","size_from":132,"to_year":1950,"type":"realestate"},{"Location":"Bygdaveien 298, Hamnvik","ad_id":258298150,"ad_link":"https://www.finn.no/realestate/homes/ad.html?finnkode=258298150","ad_type":1,"energy_label":7,"from_year":1950,"lat":68.79628,"local_area_name":null,"lon":17.13085,"number_of_bedrooms":5,"owner_type_description":"Eier (Selveier)","property_type_description":"Enebolig","size_from":129,"to_year":1950,"type":"realestate"},{"Location":"Clipperveien 9, Hundvåg","ad_id":258983180,"ad_link":"https://www.finn.no/realestate/homes/ad.html?finnkode=258983180","ad_type":1,"energy_label":7,"from_year":1950,"lat":58.98652,"local_area_name":"Buøy - Hundvåg","lon":5.73171,"number_of_bedrooms":3,"owner_type_description":"Eier (Selveier)","property_type_description":"Leilighet","size_from":152,"to_year":1950,"type":"realestate"},{"Location":"Nordahl Griegs veg 1, Namsos","ad_id":258902874,"ad_link":"https://www.finn.no/realestate/homes/ad.html?finnkode=258902874","ad_type":1,"energy_label":7,"from_year":1950,"lat":64.47217,"local_area_name":null,"lon":11.51093,"number_of_bedrooms":4,"owner_type_description":"Eier (Selveier)","property_type_description":"Tomannsbolig","size_from":219,"to_year":1950,"type":"realestate"},{"Location":"Stornesveien 31, Sørreisa","ad_id":257368252,"ad_link":"https://www.finn.no/realestate/homes/ad.html?finnkode=257368252","ad_type":1,"energy_label":7,"from_year":1950,"lat":69.1472,"local_area_name":null,"lon":18.1484,"number_of_bedrooms":3,"owner_type_description":"Eier (Selveier)","property_type_description":"Enebolig","size_from":188,"to_year":1950,"type":"realestate"},{"Location":"Osloveien 103B, Askim","ad_id":258360412,"ad_link":"https://www.finn.no/realestate/homes/ad.html?finnkode=258360412","ad_type":1,"energy_label":7,"from_year":1950,"lat":59.5846,"local_area_name":"ASKIM","lon":11.13181,"number_of_bedrooms":3,"owner_type_description":"Eier (Selveier)","property_type_description":"Tomannsbolig","size_from":125,"to_year":1950,"type":"realestate"},{"Location":"Kirkeveien 36 B, Sarpsborg","ad_id":258357866,"ad_link":"https://www.finn.no/realestate/homes/ad.html?finnkode=258357866","ad_type":1,"energy_label":7,"from_year":1950,"lat":59.29363,"local_area_name":"Øvre Lande","lon":11.0902,"number_of_bedrooms":4,"owner_type_description":"Eier (Selveier)","property_type_description":"Enebolig","size_from":143,"to_year":1950,"type":"realestate"},{"Location":"Ekebergveien 56, Holmestrand","ad_id":258351088,"ad_link":"https://www.finn.no/realestate/homes/ad.html?finnkode=258351088","ad_type":1,"energy_label":7,"from_year":1950,"lat":59.48829,"local_area_name":null,"lon":10.30381,"number_of_bedrooms":1,"owner_type_description":"Eier (Selveier)","property_type_description":"Leilighet","size_from":69,"to_year":1950,"type":"realestate"},{"Location":"Håkon Håkonssons veg 53, Lillehammer","ad_id":258214977,"ad_link":"https://www.finn.no/realestate/homes/ad.html?finnkode=258214977","ad_type":1,"energy_label":7,"from_year":1950,"lat":61.1295,"local_area_name":"Nordre Ål","lon":10.467,"number_of_bedrooms":1,"owner_type_description":"Eier (Selveier)","property_type_description":"Enebolig","size_from":69,"to_year":1950,"type":"realestate"},{"Location":"Bergesidevegen 309, Våler i Solør","ad_id":257852629,"ad_link":"https://www.finn.no/realestate/homes/ad.html?finnkode=257852629","ad_type":1,"energy_label":7,"from_year":1950,"lat":60.6333,"local_area_name":null,"lon":11.8503,"number_of_bedrooms":4,"owner_type_description":"Eier (Selveier)","property_type_description":"Enebolig","size_from":150,"to_year":1950,"type":"realestate"},{"Location":"Vesterveien 863, Nedenes","ad_id":258149402,"ad_link":"https://www.finn.no/realestate/homes/ad.html?finnkode=258149402","ad_type":1,"energy_label":7,"from_year":1950,"lat":58.40428,"local_area_name":null,"lon":8.69679,"number_of_bedrooms":2,"owner_type_description":"Eier (Selveier)","property_type_description":"Enebolig","size_from":83,"to_year":1950,"type":"realestate"},{"Location":"Sigdalsveien 150, Åmot","ad_id":258005333,"ad_link":"https://www.finn.no/realestate/homes/ad.html?finnkode=258005333","ad_type":1,"energy_label":7,"from_year":1950,"lat":59.9154,"local_area_name":null,"lon":9.8704,"number_of_bedrooms":3,"owner_type_description":"Eier (Selveier)","property_type_description":"Enebolig","size_from":123,"to_year":1950,"type":"realestate"},{"Location":"Tjønndalsveien 42, Valberg","ad_id":231245725,"ad_link":"https://www.finn.no/realestate/homes/ad.html?finnkode=231245725","ad_type":1,"energy_label":7,"from_year":1950,"lat":68.20971,"local_area_name":"Tjønndalen / Lofoten","lon":13.8793,"number_of_bedrooms":3,"owner_type_description":"Eier (Selveier)","property_type_description":"Enebolig","size_from":81,"to_year":1950,"type":"realestate"},{"Location":"Vestbyveien 100A, Drøbak","ad_id":251311038,"ad_link":"https://www.finn.no/realestate/homes/ad.html?finnkode=251311038","ad_type":1,"energy_label":7,"from_year":1950,"lat":59.6534,"local_area_name":"DRØBAK","lon":10.6467,"number_of_bedrooms":2,"owner_type_description":"Eier (Selveier)","property_type_description":"Enebolig","size_from":114,"to_year":1950,"type":"realestate"},{"Location":"GATE 1 14 B, Måløy","ad_id":257330312,"ad_link":"https://www.finn.no/realestate/homes/ad.html?finnkode=257330312","ad_type":1,"energy_label":7,"from_year":1950,"lat":61.936,"local_area_name":null,"lon":5.11442,"number_of_bedrooms":4,"owner_type_description":"Eier (Selveier)","property_type_description":"Leilighet","size_from":100,"to_year":1950,"type":"realestate"},{"Location":"Narvikveien 949, Bardu","ad_id":256999850,"ad_link":"https://www.finn.no/realestate/homes/ad.html?finnkode=256999850","ad_type":1,"energy_label":7,"from_year":1950,"lat":68.81314,"local_area_name":null,"lon":18.18134,"number_of_bedrooms":4,"owner_type_description":"Eier (Selveier)","property_type_description":"Enebolig","size_from":160,"to_year":1950,"type":"realestate"},{"Location":"Åsbygdsveien 502, Rena","ad_id":257133920,"ad_link":"https://www.finn.no/realestate/homes/ad.html?finnkode=257133920","ad_type":1,"energy_label":7,"from_year":1950,"lat":61.13104,"local_area_name":null,"lon":11.30914,"number_of_bedrooms":3,"owner_type_description":"Eier (Selveier)","property_type_description":"Enebolig","size_from":115,"to_year":1950,"type":"realestate"},{"Location":"Kroksundveien 1014, Hemnes","ad_id":257018410,"ad_link":"https://www.finn.no/realestate/homes/ad.html?finnkode=257018410","ad_type":1,"energy_label":7,"from_year":1950,"lat":59.62811,"local_area_name":null,"lon":11.51767,"number_of_bedrooms":3,"owner_type_description":"Eier (Selveier)","property_type_description":"Enebolig","size_from":84,"to_year":1950,"type":"realestate"},{"Location":"Kilehaugen 6A, Klepp stasjon","ad_id":256520145,"ad_link":"https://www.finn.no/realestate/homes/ad.html?finnkode=256520145","ad_type":1,"energy_label":7,"from_year":1950,"lat":58.784,"local_area_name":"Orstad","lon":5.7144,"number_of_bedrooms":5,"owner_type_description":"Eier (Selveier)","property_type_description":"Tomannsbolig","size_from":209,"to_year":1950,"type":"realestate"},{"Location":"Auglandsveien 10, Frolands Verk","ad_id":256500401,"ad_link":"https://www.finn.no/realestate/homes/ad.html?finnkode=256500401","ad_type":1,"energy_label":7,"from_year":1950,"lat":58.50033,"local_area_name":"Frolands verk","lon":8.57725,"number_of_bedrooms":3,"owner_type_description":"Eier (Selveier)","property_type_description":"Enebolig","size_from":150,"to_year":1950,"type":"realestate"},{"Location":"Gåssandvegen 34, Søfteland","ad_id":256326559,"ad_link":"https://www.finn.no/realestate/homes/ad.html?finnkode=256326559","ad_type":1,"energy_label":7,"from_year":1950,"lat":60.24114,"local_area_name":null,"lon":5.44917,"number_of_bedrooms":6,"owner_type_description":"Eier (Selveier)","property_type_description":"Enebolig","size_from":167,"to_year":1950,"type":"realestate"},{"Location":"Wilhelm Dalls vei 12, Kristiansund N","ad_id":238904884,"ad_link":"https://www.finn.no/realestate/homes/ad.html?finnkode=238904884","ad_type":1,"energy_label":7,"from_year":1950,"lat":63.12141,"local_area_name":"St.Hanshaugen","lon":7.72442,"number_of_bedrooms":2,"owner_type_description":"Andel","property_type_description":"Leilighet","size_from":65,"to_year":1950,"type":"realestate"},{"Location":"Kystveien 319, Ørnes","ad_id":242649013,"ad_link":"https://www.finn.no/realestate/homes/ad.html?finnkode=242649013","ad_type":1,"energy_label":7,"from_year":1950,"lat":66.84524,"local_area_name":"Ørnes","lon":13.70939,"number_of_bedrooms":4,"owner_type_description":"Eier (Selveier)","property_type_description":"Enebolig","size_from":109,"to_year":1950,"type":"realestate"},{"Location":"Urtebakken 6, Harstad","ad_id":254636296,"ad_link":"https://www.finn.no/realestate/homes/ad.html?finnkode=254636296","ad_type":1,"energy_label":7,"from_year":1950,"lat":68.8168,"local_area_name":"Trondenes","lon":16.5504,"number_of_bedrooms":4,"owner_type_description":"Eier (Selveier)","property_type_description":"Enebolig","size_from":183,"to_year":1950,"type":"realestate"},{"Location":"Torvhaugveien 12, Valberg","ad_id":248608910,"ad_link":"https://www.finn.no/realestate/homes/ad.html?finnkode=248608910","ad_type":1,"energy_label":7,"from_year":1950,"lat":68.19619,"local_area_name":"Valberg","lon":13.93975,"number_of_bedrooms":3,"owner_type_description":"Eier (Selveier)","property_type_description":"Enebolig","size_from":120,"to_year":1950,"type":"realestate"},{"Location":"Borchgrevinks gate 23, Hamar","ad_id":254170295,"ad_link":"https://www.finn.no/realestate/homes/ad.html?finnkode=254170295","ad_type":1,"energy_label":7,"from_year":1950,"lat":60.8067,"local_area_name":"Hamar","lon":11.0676,"number_of_bedrooms":3,"owner_type_description":"Eier (Selveier)","property_type_description":"Enebolig","size_from":115,"to_year":1950,"type":"realestate"},{"Location":"Engan 3, Støren","ad_id":254216903,"ad_link":"https://www.finn.no/realestate/homes/ad.html?finnkode=254216903","ad_type":1,"energy_label":7,"from_year":1950,"lat":63.05701,"local_area_name":"Støren","lon":10.28395,"number_of_bedrooms":10,"owner_type_description":"Eier (Selveier)","property_type_description":"Enebolig","size_from":224,"to_year":1950,"type":"realestate"},{"Location":"Øvre Stranda 17, Moi","ad_id":249249778,"ad_link":"https://www.finn.no/realestate/homes/ad.html?finnkode=249249778","ad_type":1,"energy_label":7,"from_year":1950,"lat":58.4546,"local_area_name":"Øvre Stranda","lon":6.5551,"number_of_bedrooms":5,"owner_type_description":"Eier (Selveier)","property_type_description":"Enebolig","size_from":145,"to_year":1950,"type":"realestate"},{"Location":"Haugsveien 321, Leka","ad_id":253983533,"ad_link":"https://www.finn.no/realestate/homes/ad.html?finnkode=253983533","ad_type":1,"energy_label":7,"from_year":1950,"lat":65.05801,"local_area_name":null,"lon":11.61584,"number_of_bedrooms":3,"owner_type_description":"Eier (Selveier)","property_type_description":"Annet fritid","size_from":84,"to_year":1950,"type":"realestate"},{"Location":"Åfjordvegen 855, Sørbøvåg","ad_id":195825150,"ad_link":"https://www.finn.no/realestate/homes/ad.html?finnkode=195825150","ad_type":1,"energy_label":7,"from_year":1950,"lat":61.22811,"local_area_name":null,"lon":5.18005,"number_of_bedrooms":9,"owner_type_description":"Eier (Selveier)","property_type_description":"Enebolig","size_from":335,"to_year":1950,"type":"realestate"},{"Location":"Raunen 42, Bru","ad_id":249240965,"ad_link":"https://www.finn.no/realestate/homes/ad.html?finnkode=249240965","ad_type":1,"energy_label":7,"from_year":1950,"lat":59.0348,"local_area_name":"Bru","lon":5.6556,"number_of_bedrooms":5,"owner_type_description":"Eier (Selveier)","property_type_description":"Enebolig","size_from":230,"to_year":1950,"type":"realestate"},{"Location":"Sigrid Undsets vei 10, Sandnes","ad_id":252427108,"ad_link":"https://www.finn.no/realestate/homes/ad.html?finnkode=252427108","ad_type":1,"energy_label":7,"from_year":1950,"lat":58.8555,"local_area_name":"Sandnes Sentrum","lon":5.7376,"number_of_bedrooms":2,"owner_type_description":"Eier (Selveier)","property_type_description":"Tomannsbolig","size_from":125,"to_year":1950,"type":"realestate"},{"Location":"Sigrid Undsets vei 10 snr 2, Sandnes","ad_id":252442577,"ad_link":"https://www.finn.no/realestate/homes/ad.html?finnkode=252442577","ad_type":1,"energy_label":7,"from_year":1950,"lat":58.8555,"local_area_name":"Sandnes Sentrum","lon":5.7376,"number_of_bedrooms":2,"owner_type_description":"Eier (Selveier)","property_type_description":"Tomannsbolig","size_from":69,"to_year":1950,"type":"realestate"},{"Location":"Storgata 23A, Elverum","ad_id":251287240,"ad_link":"https://www.finn.no/realestate/homes/ad.html?finnkode=251287240","ad_type":1,"energy_label":7,"from_year":1950,"lat":60.88061,"local_area_name":"#SENTRUM","lon":11.56315,"number_of_bedrooms":3,"owner_type_description":"Eier (Selveier)","property_type_description":"Leilighet","size_from":136,"to_year":1950,"type":"realestate"},{"Location":"Mesterfjellveien 55, Larvik","ad_id":250239683,"ad_link":"https://www.finn.no/realestate/homes/ad.html?finnkode=250239683","ad_type":1,"energy_label":7,"from_year":1950,"lat":59.054,"local_area_name":"Byskogen","lon":10.0449,"number_of_bedrooms":2,"owner_type_description":"Eier (Selveier)","property_type_description":"Leilighet","size_from":62,"to_year":1950,"type":"realestate"},{"Location":"Larslia 11, Fetsund","ad_id":232217568,"ad_link":"https://www.finn.no/realestate/homes/ad.html?finnkode=232217568","ad_type":1,"energy_label":7,"from_year":1950,"lat":59.9143,"local_area_name":"Fetsund / Løkenåsen","lon":11.1846,"number_of_bedrooms":2,"owner_type_description":"Eier (Selveier)","property_type_description":"Enebolig","size_from":91,"to_year":1950,"type":"realestate"},{"Location":"Strandavegen 105, Bryggja","ad_id":247123282,"ad_link":"https://www.finn.no/realestate/homes/ad.html?finnkode=247123282","ad_type":1,"energy_label":7,"from_year":1950,"lat":61.93832,"local_area_name":null,"lon":5.43079,"number_of_bedrooms":3,"owner_type_description":"Eier (Selveier)","property_type_description":"Enebolig","size_from":153,"to_year":1950,"type":"realestate"},{"Location":"GATE 5 83, Måløy","ad_id":246780140,"ad_link":"https://www.finn.no/realestate/homes/ad.html?finnkode=246780140","ad_type":1,"energy_label":7,"from_year":1950,"lat":61.94141,"local_area_name":null,"lon":5.11615,"number_of_bedrooms":5,"owner_type_description":"Eier (Selveier)","property_type_description":"Enebolig","size_from":175,"to_year":1950,"type":"realestate"},{"Location":"Steinbuktveien 175, Veidnesklubben","ad_id":242527650,"ad_link":"https://www.finn.no/realestate/homes/ad.html?finnkode=242527650","ad_type":1,"energy_label":7,"from_year":1950,"lat":70.66071,"local_area_name":null,"lon":26.55763,"number_of_bedrooms":3,"owner_type_description":"Eier (Selveier)","property_type_description":"Enebolig","size_from":70,"to_year":1950,"type":"realestate"},{"Location":"Nergata 27, Kristiansund N","ad_id":239567147,"ad_link":"https://www.finn.no/realestate/homes/ad.html?finnkode=239567147","ad_type":1,"energy_label":7,"from_year":1950,"lat":63.1083,"local_area_name":"Nordlandet","lon":7.7469,"number_of_bedrooms":3,"owner_type_description":"Eier (Selveier)","property_type_description":"Leilighet","size_from":97,"to_year":1950,"type":"realestate"},{"Location":"Doktarbrekka 2, Aurland","ad_id":218609537,"ad_link":"https://www.finn.no/realestate/homes/ad.html?finnkode=218609537","ad_type":1,"energy_label":7,"from_year":1950,"lat":60.9079,"local_area_name":null,"lon":7.19,"number_of_bedrooms":5,"owner_type_description":"Eier (Selveier)","property_type_description":"Enebolig","size_from":141,"to_year":1950,"type":"realestate"},{"Location":"Storgata 7 A, Kirkenes","ad_id":237593659,"ad_link":"https://www.finn.no/realestate/homes/ad.html?finnkode=237593659","ad_type":1,"energy_label":7,"from_year":1950,"lat":69.72594,"local_area_name":"Kirkenes","lon":30.04224,"number_of_bedrooms":2,"owner_type_description":"Andel","property_type_description":"Leilighet","size_from":76,"to_year":1950,"type":"realestate"},{"Location":"Kursetvegen 20, Hundeidvik","ad_id":236026393,"ad_link":"https://www.finn.no/realestate/homes/ad.html?finnkode=236026393","ad_type":1,"energy_label":7,"from_year":1950,"lat":62.37623,"local_area_name":"Hundeidvika","lon":6.42336,"number_of_bedrooms":5,"owner_type_description":"Eier (Selveier)","property_type_description":"Enebolig","size_from":183,"to_year":1950,"type":"realestate"},{"Location":"Storgata 44 A, Myre","ad_id":233768500,"ad_link":"https://www.finn.no/realestate/homes/ad.html?finnkode=233768500","ad_type":1,"energy_label":7,"from_year":1950,"lat":68.91542,"local_area_name":null,"lon":15.08927,"number_of_bedrooms":3,"owner_type_description":"Eier (Selveier)","property_type_description":"Leilighet","size_from":114,"to_year":1950,"type":"realestate"},{"Location":"Åshøgdvegen 159, Rudshøgda","ad_id":194433103,"ad_link":"https://www.finn.no/realestate/homes/ad.html?finnkode=194433103","ad_type":1,"energy_label":7,"from_year":1950,"lat":60.89753,"local_area_name":"#ÅSHØGDA","lon":10.81662,"number_of_bedrooms":0,"owner_type_description":"Eier (Selveier)","property_type_description":"Enebolig","size_from":201,"to_year":1950,"type":"realestate"},{"Location":"Hallanvegen 23, Markabygda","ad_id":232998919,"ad_link":"https://www.finn.no/realestate/homes/ad.html?finnkode=232998919","ad_type":1,"energy_label":7,"from_year":1950,"lat":63.63786,"local_area_name":"Markabygda","lon":11.27818,"number_of_bedrooms":1,"owner_type_description":"Eier (Selveier)","property_type_description":"Enebolig","size_from":119,"to_year":1950,"type":"realestate"},{"Location":"Blåfjellveien 10, Tovik","ad_id":232890590,"ad_link":"https://www.finn.no/realestate/homes/ad.html?finnkode=232890590","ad_type":1,"energy_label":7,"from_year":1950,"lat":68.67941,"local_area_name":null,"lon":16.86797,"number_of_bedrooms":3,"owner_type_description":"Eier (Selveier)","property_type_description":"Enebolig","size_from":108,"to_year":1950,"type":"realestate"},{"Location":"Øvrevegen 1, Sandane","ad_id":222982591,"ad_link":"https://www.finn.no/realestate/homes/ad.html?finnkode=222982591","ad_type":1,"energy_label":7,"from_year":1950,"lat":61.77862,"local_area_name":null,"lon":6.21549,"number_of_bedrooms":4,"owner_type_description":"Eier (Selveier)","property_type_description":"Enebolig","size_from":156,"to_year":1950,"type":"realestate"},{"Location":"Gallokka, Lakselv","ad_id":190680398,"ad_link":"https://www.finn.no/realestate/homes/ad.html?finnkode=190680398","ad_type":1,"energy_label":7,"from_year":1950,"lat":70.06731,"local_area_name":null,"lon":24.92557,"number_of_bedrooms":4,"owner_type_description":"Eier (Selveier)","property_type_description":"Enebolig","size_from":133,"to_year":1950,"type":"realestate"},{"Location":"Farnesvegen 21, Øvre Årdal","ad_id":192689638,"ad_link":"https://www.finn.no/realestate/homes/ad.html?finnkode=192689638","ad_type":1,"energy_label":7,"from_year":1950,"lat":61.3091,"local_area_name":null,"lon":7.8029,"number_of_bedrooms":5,"owner_type_description":"Eier (Selveier)","property_type_description":"Enebolig","size_from":215,"to_year":1950,"type":"realestate"},{"Location":"Lundvollveien 15, Lovund","ad_id":190206325,"ad_link":"https://www.finn.no/realestate/homes/ad.html?finnkode=190206325","ad_type":1,"energy_label":7,"from_year":1950,"lat":66.36987,"local_area_name":null,"lon":12.35804,"number_of_bedrooms":3,"owner_type_description":"Eier (Selveier)","property_type_description":"Enebolig","size_from":74,"to_year":1950,"type":"realestate"}]