[{"Location":"Haugane 4B, Tranby","ad_id":261355670,"ad_link":"https://www.finn.no/realestate/homes/ad.html?finnkode=261355670","ad_type":1,"energy_label":4,"from_year":1995,"lat":59.825,"local_area_name":"TRANBY","lon":10.2885,"number_of_bedrooms":3,"owner_type_description":"Eier (Selveier)","property_type_description":"Rekkehus","size_from":109,"to_year":1995,"type":"realestate"},{"Location":"Stasjonsvegen 5, Mosjøen","ad_id":261412754,"ad_link":"https://www.finn.no/realestate/homes/ad.html?finnkode=261412754","ad_type":1,"energy_label":4,"from_year":1995,"lat":65.94598,"local_area_name":"Nyland","lon":13.14901,"number_of_bedrooms":3,"owner_type_description":"Eier (Selveier)","property_type_description":"Enebolig","size_from":176,"to_year":1995,"type":"realestate"},{"Location":"Falkangervegen 94, Hordvik","ad_id":260799187,"ad_link":"https://www.finn.no/realestate/homes/ad.html?finnkode=260799187","ad_type":1,"energy_label":4,"from_year":1995,"lat":60.5134,"local_area_name":null,"lon":5.3001,"number_of_bedrooms":4,"owner_type_description":"Eier (Selveier)","property_type_description":"Enebolig","size_from":127,"to_year":1995,"type":"realestate"},{"Location":"Smedhusåsen 19, Dilling","ad_id":260806937,"ad_link":"https://www.finn.no/realestate/homes/ad.html?finnkode=260806937","ad_type":1,"energy_label":4,"from_year":1995,"lat":59.3889,"local_area_name":null,"lon":10.68486,"number_of_bedrooms":2,"owner_type_description":"Eier (Selveier)","property_type_description":"Enebolig","size_from":160,"to_year":1995,"type":"realestate"},{"Location":"Skeishagen 34, Rosendal","ad_id":227283793,"ad_link":"https://www.finn.no/realestate/homes/ad.html?finnkode=227283793","ad_type":1,"energy_label":4,"from_year":1995,"lat":59.9749,"local_area_name":null,"lon":6.0027,"number_of_bedrooms":4,"owner_type_description":"Eier (Selveier)","property_type_description":"Enebolig","size_from":201,"to_year":1995,"type":"realestate"},{"Location":"Dramsvegen 555, Tromsø","ad_id":258371225,"ad_link":"https://www.finn.no/realestate/homes/ad.html?finnkode=258371225","ad_type":1,"energy_label":4,"from_year":1995,"lat":69.68795,"local_area_name":"MORTENSNES / SOLENG","lon":18.94737,"number_of_bedrooms":6,"owner_type_description":"Eier (Selveier)","property_type_description":"Enebolig","size_from":280,"to_year":1995,"type":"realestate"},{"Location":"Sikoriveien 25, Mjøndalen","ad_id":258348507,"ad_link":"https://www.finn.no/realestate/homes/ad.html?finnkode=258348507","ad_type":1,"energy_label":4,"from_year":1995,"lat":59.7307,"local_area_name":"Åsen","lon":10.0244,"number_of_bedrooms":4,"owner_type_description":"Eier (Selveier)","property_type_description":"Enebolig","size_from":231,"to_year":1995,"type":"realestate"},{"Location":"Skytterstien 4A, Krokelvdalen","ad_id":258041406,"ad_link":"https://www.finn.no/realestate/homes/ad.html?finnkode=258041406","ad_type":1,"energy_label":4,"from_year":1995,"lat":69.7394,"local_area_name":"Tønsvika","lon":19.1485,"number_of_bedrooms":3,"owner_type_description":"Eier (Selveier)","property_type_description":"Tomannsbolig","size_from":123,"to_year":1995,"type":"realestate"},{"Location":"Vågahammeren 4 B, Frei","ad_id":257002000,"ad_link":"https://www.finn.no/realestate/homes/ad.html?finnkode=257002000","ad_type":1,"energy_label":4,"from_year":1995,"lat":63.08955,"local_area_name":"Rensvik","lon":7.80425,"number_of_bedrooms":2,"owner_type_description":"Eier (Selveier)","property_type_description":"Tomannsbolig","size_from":111,"to_year":1995,"type":"realestate"},{"Location":"Arnevigveien 99, Grimstad","ad_id":250234164,"ad_link":"https://www.finn.no/realestate/homes/ad.html?finnkode=250234164","ad_type":1,"energy_label":4,"from_year":1995,"lat":58.26176,"local_area_name":null,"lon":8.45484,"number_of_bedrooms":4,"owner_type_description":"Eier (Selveier)","property_type_description":"Enebolig","size_from":142,"to_year":1995,"type":"realestate"},{"Location":"Guletjødnvegen 73 A, Kopervik","ad_id":246823900,"ad_link":"https://www.finn.no/realestate/homes/ad.html?finnkode=246823900","ad_type":1,"energy_label":4,"from_year":1995,"lat":59.27488,"local_area_name":"Kopervik","lon":5.32066,"number_of_bedrooms":3,"owner_type_description":"Eier (Selveier)","property_type_description":"Enebolig","size_from":176,"to_year":1995,"type":"realestate"},{"Location":"Tollef Kildes gt. 59, Rena","ad_id":221666111,"ad_link":"https://www.finn.no/realestate/homes/ad.html?finnkode=221666111","ad_type":1,"energy_label":4,"from_year":1995,"lat":61.137,"local_area_name":null,"lon":11.37165,"number_of_bedrooms":2,"owner_type_description":"Eier (Selveier)","property_type_description":"Leilighet","size_from":75,"to_year":1995,"type":"realestate"}]