[{"Location":"Monrad Mjeldes vei 22, Laksevåg","ad_id":261504921,"ad_link":"https://www.finn.no/realestate/homes/ad.html?finnkode=261504921","ad_type":1,"energy_label":5,"from_year":1962,"lat":60.37375,"local_area_name":"Melkeplassen","lon":5.30615,"number_of_bedrooms":1,"owner_type_description":"Andel","property_type_description":"Leilighet","size_from":55,"to_year":1962,"type":"realestate"},{"Location":"Viktor Baumanns vei 20B, Trondheim","ad_id":261442215,"ad_link":"https://www.finn.no/realestate/homes/ad.html?finnkode=261442215","ad_type":1,"energy_label":5,"from_year":1962,"lat":63.41592,"local_area_name":"Sverresborg","lon":10.36309,"number_of_bedrooms":1,"owner_type_description":"Andel","property_type_description":"Leilighet","size_from":56,"to_year":1962,"type":"realestate"},{"Location":"Bjaalands gate 2E, Stavanger","ad_id":261378927,"ad_link":"https://www.finn.no/realestate/homes/ad.html?finnkode=261378927","ad_type":1,"energy_label":5,"from_year":1962,"lat":58.9509,"local_area_name":"Hillevåg","lon":5.7386,"number_of_bedrooms":2,"owner_type_description":"Andel","property_type_description":"Leilighet","size_from":70,"to_year":1962,"type":"realestate"},{"Location":"Minister Ditleffs vei 17C, Oslo","ad_id":261216961,"ad_link":"https://www.finn.no/realestate/homes/ad.html?finnkode=261216961","ad_type":1,"energy_label":5,"from_year":1962,"lat":59.96347,"local_area_name":"Nordberg/Kringsjå","lon":10.73855,"number_of_bedrooms":3,"owner_type_description":"Eier (Selveier)","property_type_description":"Leilighet","size_from":81,"to_year":1962,"type":"realestate"},{"Location":"Rasmus Engers vei 2D, Oslo","ad_id":260977709,"ad_link":"https://www.finn.no/realestate/homes/ad.html?finnkode=260977709","ad_type":1,"energy_label":5,"from_year":1962,"lat":59.95297,"local_area_name":"Rødtvedt","lon":10.85605,"number_of_bedrooms":1,"owner_type_description":"Andel","property_type_description":"Leilighet","size_from":48,"to_year":1962,"type":"realestate"},{"Location":"Byåsveien 151 E, Trondheim","ad_id":258497320,"ad_link":"https://www.finn.no/realestate/homes/ad.html?finnkode=258497320","ad_type":1,"energy_label":5,"from_year":1962,"lat":63.41089,"local_area_name":"Havstein","lon":10.36178,"number_of_bedrooms":2,"owner_type_description":"Andel","property_type_description":"Leilighet","size_from":73,"to_year":1962,"type":"realestate"},{"Location":"Nedre Bjerggate 13A, Horten","ad_id":260018472,"ad_link":"https://www.finn.no/realestate/homes/ad.html?finnkode=260018472","ad_type":1,"energy_label":5,"from_year":1962,"lat":59.4166,"local_area_name":null,"lon":10.4796,"number_of_bedrooms":0,"owner_type_description":"Andel","property_type_description":"Leilighet","size_from":32,"to_year":1962,"type":"realestate"},{"Location":"Fagernesveien 54, Narvik","ad_id":198714171,"ad_link":"https://www.finn.no/realestate/homes/ad.html?finnkode=198714171","ad_type":1,"energy_label":5,"from_year":1962,"lat":68.41935,"local_area_name":"Fagernes","lon":17.4322,"number_of_bedrooms":2,"owner_type_description":"Eier (Selveier)","property_type_description":"Leilighet","size_from":89,"to_year":1962,"type":"realestate"},{"Location":"Frysjaveien 9B, Oslo","ad_id":257797363,"ad_link":"https://www.finn.no/realestate/homes/ad.html?finnkode=257797363","ad_type":1,"energy_label":5,"from_year":1962,"lat":59.9609,"local_area_name":"Frysja v/Akerselva","lon":10.7682,"number_of_bedrooms":2,"owner_type_description":"Andel","property_type_description":"Leilighet","size_from":66,"to_year":1962,"type":"realestate"},{"Location":"Hummeldalsvegen 2A, Elverum","ad_id":254192439,"ad_link":"https://www.finn.no/realestate/homes/ad.html?finnkode=254192439","ad_type":1,"energy_label":5,"from_year":1962,"lat":60.8822,"local_area_name":null,"lon":11.5631,"number_of_bedrooms":2,"owner_type_description":"Eier (Selveier)","property_type_description":"Leilighet","size_from":72,"to_year":1962,"type":"realestate"}]