[{"Location":"Morildveien 5, Kristiansund N","ad_id":260537116,"ad_link":"https://www.finn.no/realestate/homes/ad.html?finnkode=260537116","ad_type":1,"energy_label":4,"from_year":1980,"lat":63.1267,"local_area_name":null,"lon":7.716,"number_of_bedrooms":3,"owner_type_description":"Andel","property_type_description":"Rekkehus","size_from":102,"to_year":1980,"type":"realestate"},{"Location":"Ordfører Scheies gate 29, Hundvåg","ad_id":260503338,"ad_link":"https://www.finn.no/realestate/homes/ad.html?finnkode=260503338","ad_type":1,"energy_label":4,"from_year":1980,"lat":59.0065,"local_area_name":"Hundvåg","lon":5.7265,"number_of_bedrooms":1,"owner_type_description":"Andel","property_type_description":"Leilighet","size_from":57,"to_year":1980,"type":"realestate"},{"Location":"Ole Reistads vei 1A, Oslo","ad_id":260046075,"ad_link":"https://www.finn.no/realestate/homes/ad.html?finnkode=260046075","ad_type":1,"energy_label":4,"from_year":1980,"lat":59.927,"local_area_name":"Lindeberg","lon":10.8793,"number_of_bedrooms":1,"owner_type_description":"Andel","property_type_description":"Leilighet","size_from":52,"to_year":1980,"type":"realestate"},{"Location":"Røykenveien 381B, Heggedal","ad_id":260005199,"ad_link":"https://www.finn.no/realestate/homes/ad.html?finnkode=260005199","ad_type":1,"energy_label":4,"from_year":1980,"lat":59.7774,"local_area_name":"HEGGEDAL / ASKER","lon":10.4404,"number_of_bedrooms":1,"owner_type_description":"Eier (Selveier)","property_type_description":"Leilighet","size_from":39,"to_year":1980,"type":"realestate"},{"Location":"Jerikoveien 93A, Oslo","ad_id":259935050,"ad_link":"https://www.finn.no/realestate/homes/ad.html?finnkode=259935050","ad_type":1,"energy_label":4,"from_year":1980,"lat":59.942,"local_area_name":"FURUSET","lon":10.8956,"number_of_bedrooms":4,"owner_type_description":"Andel","property_type_description":"Leilighet","size_from":103,"to_year":1980,"type":"realestate"},{"Location":"Vestsidevegen 1356, Braskereidfoss","ad_id":256044562,"ad_link":"https://www.finn.no/realestate/homes/ad.html?finnkode=256044562","ad_type":1,"energy_label":4,"from_year":1980,"lat":60.7101,"local_area_name":"BRASKEREIDFOSS","lon":11.7725,"number_of_bedrooms":4,"owner_type_description":"Eier (Selveier)","property_type_description":"Tomannsbolig","size_from":159,"to_year":1980,"type":"realestate"}]