[{"Location":"Munkerudåsen 14D, Oslo","ad_id":261447409,"ad_link":"https://www.finn.no/realestate/homes/ad.html?finnkode=261447409","ad_type":1,"energy_label":7,"from_year":1929,"lat":59.8568,"local_area_name":"Nordstrand","lon":10.8081,"number_of_bedrooms":1,"owner_type_description":"Eier (Selveier)","property_type_description":"Enebolig","size_from":56,"to_year":1929,"type":"realestate"},{"Location":"Fevågveien 319, Fevåg","ad_id":261238103,"ad_link":"https://www.finn.no/realestate/homes/ad.html?finnkode=261238103","ad_type":1,"energy_label":7,"from_year":1929,"lat":63.67765,"local_area_name":"Fevåg","lon":9.85997,"number_of_bedrooms":4,"owner_type_description":"Eier (Selveier)","property_type_description":"Enebolig","size_from":186,"to_year":1929,"type":"realestate"},{"Location":"Hoffsveien 81, Oslo","ad_id":261195642,"ad_link":"https://www.finn.no/realestate/homes/ad.html?finnkode=261195642","ad_type":1,"energy_label":7,"from_year":1929,"lat":59.93665,"local_area_name":"Smestad","lon":10.68367,"number_of_bedrooms":4,"owner_type_description":"Eier (Selveier)","property_type_description":"Enebolig","size_from":280,"to_year":1929,"type":"realestate"},{"Location":"Bergittavegen 13, Trondheim","ad_id":260539795,"ad_link":"https://www.finn.no/realestate/homes/ad.html?finnkode=260539795","ad_type":1,"energy_label":7,"from_year":1929,"lat":63.416,"local_area_name":"Byåsen","lon":10.3734,"number_of_bedrooms":3,"owner_type_description":"Eier (Selveier)","property_type_description":"Tomannsbolig","size_from":267,"to_year":1929,"type":"realestate"},{"Location":"Allégaten 27, Bergen","ad_id":260783088,"ad_link":"https://www.finn.no/realestate/homes/ad.html?finnkode=260783088","ad_type":1,"energy_label":7,"from_year":1929,"lat":60.38578,"local_area_name":null,"lon":5.32707,"number_of_bedrooms":2,"owner_type_description":"Eier (Selveier)","property_type_description":"Leilighet","size_from":60,"to_year":1929,"type":"realestate"},{"Location":"Breivikvegen 48, Ålesund","ad_id":259097506,"ad_link":"https://www.finn.no/realestate/homes/ad.html?finnkode=259097506","ad_type":1,"energy_label":7,"from_year":1929,"lat":62.46848,"local_area_name":"Åse","lon":6.34107,"number_of_bedrooms":4,"owner_type_description":"Eier (Selveier)","property_type_description":"Enebolig","size_from":194,"to_year":1929,"type":"realestate"},{"Location":"Flusundvegen 51, Fosnavåg","ad_id":258713794,"ad_link":"https://www.finn.no/realestate/homes/ad.html?finnkode=258713794","ad_type":1,"energy_label":7,"from_year":1929,"lat":62.34033,"local_area_name":"Flusund","lon":5.67406,"number_of_bedrooms":5,"owner_type_description":"Eier (Selveier)","property_type_description":"Enebolig","size_from":196,"to_year":1929,"type":"realestate"},{"Location":"Hoveveien 179, Sandnes","ad_id":252339714,"ad_link":"https://www.finn.no/realestate/homes/ad.html?finnkode=252339714","ad_type":1,"energy_label":7,"from_year":1929,"lat":58.8268,"local_area_name":"Ganddal","lon":5.7233,"number_of_bedrooms":3,"owner_type_description":"Eier (Selveier)","property_type_description":"Enebolig","size_from":103,"to_year":1929,"type":"realestate"},{"Location":"Bjørkåsveien 24, Ballangen","ad_id":249940969,"ad_link":"https://www.finn.no/realestate/homes/ad.html?finnkode=249940969","ad_type":1,"energy_label":7,"from_year":1929,"lat":68.3339,"local_area_name":null,"lon":16.80828,"number_of_bedrooms":4,"owner_type_description":"Eier (Selveier)","property_type_description":"Enebolig","size_from":220,"to_year":1929,"type":"realestate"},{"Location":"Oldret 3, Hestvika","ad_id":235724598,"ad_link":"https://www.finn.no/realestate/homes/ad.html?finnkode=235724598","ad_type":1,"energy_label":7,"from_year":1929,"lat":63.58268,"local_area_name":null,"lon":9.13251,"number_of_bedrooms":0,"owner_type_description":"Eier (Selveier)","property_type_description":"Enebolig","size_from":227,"to_year":1929,"type":"realestate"},{"Location":"Reknergata 12, Kristiansund N","ad_id":207652639,"ad_link":"https://www.finn.no/realestate/homes/ad.html?finnkode=207652639","ad_type":1,"energy_label":7,"from_year":1929,"lat":63.10446,"local_area_name":null,"lon":7.73071,"number_of_bedrooms":3,"owner_type_description":"Eier (Selveier)","property_type_description":"Enebolig","size_from":93,"to_year":1929,"type":"realestate"}]